%time,field.position.x,field.position.y,field.position.z,field.orientation.x,field.orientation.y,field.orientation.z,field.orientation.w
1470076134043620648,-0.0365874581039,0.359091848135,1.37559998035,-0.149816482862,0.0093634605335,0.765627236522,-0.625525604404
1470076134149486941,-0.036578334868,0.359025806189,1.37549376488,-0.166915059807,0.0113087856352,0.766406978169,-0.620186921815
1470076134225642755,-0.0365421809256,0.358909010887,1.37474524975,-0.111582905837,0.00621963896108,0.765246521838,-0.63396240585
1470076134307849295,-0.0365265570581,0.35880202055,1.3746329546,-0.149604868716,0.0103015561834,0.766789380334,-0.624136449347
1470076134387110620,-0.0365964882076,0.359152346849,1.37568330765,-0.130109310889,0.00724867155203,0.764837962525,-0.630905630869
1470076134466728655,-0.0365874581039,0.359091848135,1.37559998035,-0.149816482862,0.0093634605335,0.765627236522,-0.625525604404
1470076134544929449,-0.0365964882076,0.359152346849,1.37568330765,-0.130109310889,0.00724867155203,0.764837962525,-0.630905630869
1470076134623589461,-0.0365345180035,0.358858972788,1.37470316887,-0.13189740734,0.00834474283722,0.766021087831,-0.62908277055
1470076134694548172,-0.036424934864,0.360185354948,1.37571048737,-0.163963983267,0.0187681070001,0.779730542468,-0.603973386411
1470076134768017373,-0.0362242795527,0.361874818802,1.37183558941,-0.213995468618,0.0238278654651,0.780522269194,-0.58687576158
1470076134842294421,-0.0355258658528,0.35873273015,1.35597538948,-0.241334090411,0.0175808836867,0.773350882733,-0.585983943048
1470076134916918556,-0.0343568772078,0.346767991781,1.33592367172,-0.17311719097,0.017744776741,0.78366714532,-0.596306436688
1470076134988838746,-0.0349984578788,0.32836779952,1.30887508392,-0.17479787306,0.0185348059793,0.794714090119,-0.58097476667
1470076135064656813,-0.0333708748221,0.30430445075,1.27978074551,-0.246175184451,0.0326162938134,0.797457536354,-0.549904931467
1470076135139374193,-0.0322071425617,0.297613322735,1.29637026787,-0.144869615309,0.016361193714,0.784157787337,-0.603192896559
1470076135211176877,-0.0304311364889,0.278365314007,1.26572716236,-0.276471832517,0.0411881968688,0.797235233523,-0.535054053992
1470076135285925504,-0.0301822926849,0.264396429062,1.26339495182,-0.17161355806,0.0257942164139,0.798124239171,-0.576958528784
1470076135362258235,-0.029594514519,0.247600644827,1.25164353848,-0.211900512738,0.0267775356417,0.795579491879,-0.566951857205
1470076135434327587,-0.0283937249333,0.222634240985,1.23123323917,-0.0951002596371,0.0145374359612,0.805718779962,-0.584432931302
1470076135505415512,-0.0280222799629,0.206457138062,1.2231824398,-0.243707746667,0.0391887723711,0.80076259153,-0.545756398351
1470076135577905208,-0.0266394708306,0.189082294703,1.1996229887,-0.136813607066,0.0226214543197,0.808519831261,-0.571896834389
1470076135649324311,-0.0265460424125,0.175054788589,1.1978533268,-0.184949492687,0.0308011578721,0.804338467287,-0.563812560938
1470076135731234967,-0.0263859145343,0.153686210513,1.19380021095,-0.259374744099,0.0419033533358,0.797246794295,-0.543476218514
1470076135804783640,-0.0263756159693,0.141903176904,1.19235491753,-0.331881868195,0.043324425265,0.777739784336,-0.532069777003
1470076135878761645,-0.0265637822449,0.129484862089,1.16137361526,-0.232266923101,0.0349864019412,0.798678287398,-0.554022581986
1470076135949628068,-0.0267261844128,0.119115389884,1.16488111019,-0.204038664999,0.0270873062754,0.790889376315,-0.576305904408
1470076136020942886,-0.0267546698451,0.106940478086,1.16549634933,-0.199037262226,0.0248941219876,0.788053238208,-0.582010777122
1470076136095557806,-0.0259617511183,0.0895611047745,1.11652755737,-0.278909522139,0.0366558732512,0.789733126895,-0.545148983032
1470076136168058911,-0.0257155522704,0.0833139717579,1.11431360245,-0.0705132638825,0.00738510960918,0.785066643352,-0.615340316629
1470076136237653079,-0.0256878901273,0.0757377818227,1.11417603493,-0.121736722566,0.014234065548,0.785053724052,-0.607180543256
1470076136312669175,-0.0254892557859,0.0689222067595,1.11016154289,-0.27596416961,0.028602518695,0.769656049958,-0.575026293119
1470076136384988524,-0.0248264111578,0.0623770952225,1.09740209579,-0.303439636036,0.0331361684599,0.7791435394,-0.547505001469
1470076136464059223,-0.0241634473205,0.0551264733076,1.08826720715,-0.148889888589,0.0125382372736,0.764092789363,-0.627564182316
1470076136548115867,-0.0241881962866,0.051379788667,1.08835530281,-0.0904250420689,0.00697048136906,0.760678726305,-0.642761697291
1470076136628042208,-0.0241619143635,0.0460827723145,1.05637490749,-0.29420055602,0.0386376946448,0.782923712776,-0.546793947812
1470076136703369630,-0.0236333459616,0.0433482080698,1.04738438129,-0.232037166411,0.0247407803717,0.784393391762,-0.574694400661
1470076136778736050,-0.0229990296066,0.0398065969348,1.03805303574,-0.296255911612,0.0378950918482,0.781542835471,-0.5477108664
1470076136855207552,-0.0228359419852,0.0369018912315,1.03502082825,-0.484787994631,0.047154186405,0.751993092423,-0.444143526256
1470076136926742505,-0.0231903921813,0.0351321659982,1.03260505199,-0.105590308859,0.00807582018133,-0.65494899865,-0.748216063026
1470076137011670773,-0.0232878383249,0.0339170135558,1.01350498199,-0.451356672807,0.015105322104,0.726288492284,-0.518221968979
1470076137095826036,-0.0227427836508,0.0337159894407,1.00364124775,-0.414088272551,0.0318519025829,0.753433963975,-0.509758394503
1470076137176793773,-0.0227772090584,0.0330741591752,0.978610575199,-0.233139375923,0.0261419115881,0.786010190693,-0.571970813922
1470076137251561681,-0.0225090570748,0.0336436517537,0.975328981876,-0.0788756283324,0.00551628717558,0.760595502505,-0.644393270759
1470076137332666506,-0.0224469508976,0.0341790132225,0.973131895065,-0.409174374048,0.00438483654135,0.713783443472,-0.568392734521
1470076137404039298,-0.0226214732975,0.0352889932692,0.951477825642,-0.169944166602,0.0131337970289,0.766824283356,-0.618810958265
1470076137475842441,-0.0218202229589,0.0356117710471,0.936935245991,-0.468350661156,0.0445792265897,0.757063576958,-0.453337723111
1470076137548455248,-0.0213506780565,0.037370596081,0.931900501251,-0.55829037822,0.0451961044365,0.739390632777,-0.373591565605
1470076137620945557,-0.021790612489,0.0386228971183,0.918801784515,-0.333441831743,0.0267466902098,0.756888601157,-0.561445282148
1470076137696067022,-0.0213199406862,0.039015751332,0.90684491396,-0.423838872685,0.0287378636355,0.747846679231,-0.510156926405
1470076137776266611,-0.0215275064111,0.0389711558819,0.887447059155,-0.405763557449,0.0294508747894,0.751947840861,-0.518712855099
1470076137848927040,-0.0212546177208,0.0403268821537,0.884394526482,-0.377849111264,0.0288322233341,0.755567505341,-0.534337437288
1470076137927933953,-0.0212654918432,0.0395309887826,0.872975051403,-0.155259577922,0.0183990279131,-0.612139850454,-0.775139176356
1470076138005120377,-0.0211314056069,0.0404521487653,0.861943602562,-0.544658523909,0.0452104706823,0.741550369476,-0.389109438595
1470076138081755920,-0.0208979062736,0.0420023575425,0.85681527853,-0.452706617811,0.0292412236124,0.744562079862,-0.489723369122
1470076138157786350,-0.0208734199405,0.0418199189007,0.837303817272,-0.348082594424,0.0241198514013,0.753475038141,-0.557254077711
1470076138233331898,-0.0207143258303,0.0421428382397,0.834569036961,0.319768547002,-9.55502480906e-05,0.707295367529,-0.630461204429
1470076138307499082,-0.0206902902573,0.0420330427587,0.815626263618,-0.447275950446,0.0200859769162,0.733537097798,-0.511335607833
1470076138387022585,-0.0202802568674,0.0418200790882,0.809136986732,-0.476084606603,0.036092486033,0.748103159395,-0.460849696442
1470076138465379428,-0.0204381812364,0.0417391397059,0.794632673264,-0.349318009076,0.0226525099955,0.750679883776,-0.560306616435
1470076138540095836,-0.0202348064631,0.0406851023436,0.791184008121,-0.424815038588,0.00677332371309,0.717010792343,-0.552613634232
1470076138613106241,-0.0198846962303,0.040324959904,0.769611358643,-0.484462261087,0.0421509093368,0.751506353022,-0.44582263266
1470076138693215167,-0.0196505170316,0.0394851230085,0.76657730341,-0.665461616817,0.0172632457021,0.713853129596,-0.217431658822
1470076138771351775,-0.0196937676519,0.0389200039208,0.75152105093,-0.260900560628,0.0186003337576,0.757141591156,-0.598599645832
1470076138845421704,-0.018922034651,0.0377996042371,0.742109000683,-0.415668817116,0.0275419045236,0.74451388476,-0.521689518174
1470076138924326538,-0.0187468938529,0.036690082401,0.723353505135,-0.486147679016,0.0372237470071,0.74641144358,-0.452929115579
1470076139006715829,-0.018574109301,0.0366883911192,0.721295058727,-0.344919223256,0.0212663803123,0.748710662766,-0.565694983146
1470076139081774071,-0.0182051584125,0.0356359817088,0.702005565166,-0.473084741048,0.0324954061299,0.743944690209,-0.470830303058
1470076139155023635,-0.0183692518622,0.0345077477396,0.689768731594,-0.362622688206,0.0219106822337,0.747129028782,-0.556617393148
1470076139229927333,-0.0181191824377,0.0344607010484,0.687573730946,-0.450788738458,0.0313713172661,0.745341264713,-0.490175226678
1470076139309246990,-0.018117595464,0.0336003042758,0.672830343246,-0.45510207087,0.0227370162214,0.736390704289,-0.500093855012
1470076139385726058,-0.0178329590708,0.0325045995414,0.65663343668,-0.559900411612,0.0511546111547,0.744400160306,-0.360226506758
1470076139459333868,-0.018303507939,0.0325298346579,0.650469183922,-0.145396688131,0.00648815698522,0.741265270169,-0.65524308935
1470076139535631554,-0.0174775440246,0.0317033343017,0.63799571991,-0.612312784735,0.0556997320346,0.737105291685,-0.280439623575
1470076139611166069,-0.0172063969076,0.0308220051229,0.624639570713,-0.609990287444,0.0489334373672,0.734160967588,-0.294151392317
1470076139682968943,-0.0174647942185,0.030909249559,0.617282271385,-0.372447048262,0.0202244777469,0.742944613922,-0.555794447062
1470076139756132901,-0.017235038802,0.0299487151206,0.604754269123,-0.483760319398,0.0364331630007,0.744633258386,-0.458442895588
1470076139828899654,-0.0170411970466,0.0292348451912,0.591427505016,-0.497230645272,0.0365837885277,0.743777376044,-0.445217392635
1470076139901541960,-0.0171107575297,0.0285890363157,0.581225097179,-0.392583650716,0.0163712255898,0.734490455074,-0.553293621479
1470076139973944024,-0.0170004926622,0.0285849440843,0.571122825146,-0.434772286586,0.028726254478,0.745286140272,-0.504674578554
1470076140050311851,-0.0168561935425,0.0277687571943,0.560355842113,-0.382673330644,0.027840439328,0.751275019485,-0.53700267881
1470076140129673130,-0.0167606435716,0.0271776095033,0.553191363811,-0.548481241221,0.0253301095957,0.729701809678,-0.407507033717
1470076140207678352,-0.0165309868753,0.0265550855547,0.538466691971,-0.347278263295,0.0172688752969,0.741349990196,-0.574020718987
1470076140284472294,-0.0161667242646,0.0257285628468,0.527324318886,-0.438726026519,0.0333644301262,0.749768977789,-0.494219352518
1470076140357172923,-0.0160649623722,0.0249571595341,0.517810821533,-0.324483205583,0.0141627022444,0.74072767195,-0.588075320998
1470076140432433154,-0.0154516594484,0.0239573027939,0.508723080158,-0.578578131552,0.0398135150913,0.735885174409,-0.349478525506
1470076140509144331,-0.0153235429898,0.0230587217957,0.495372533798,-0.368735789471,0.0176962528559,0.740512160771,-0.56157145578
1470076140582801807,-0.0150562562048,0.022535616532,0.48536041379,-0.360590100179,0.0154811276889,0.738322221765,-0.569750305999
1470076140656131673,-0.0148112718016,0.0221424344927,0.475892871618,-0.396982520117,0.0188522659344,0.739743889794,-0.542981075456
1470076140728841913,-0.0144110023975,0.0219685453922,0.466036260128,-0.460065639182,0.0313820902035,0.744820421341,-0.482283435348
1470076140801752893,-0.0143007775769,0.0214585121721,0.451846778393,-0.339835754246,0.0153131816099,0.740272619611,-0.579891037402
1470076140881545307,-0.0137887485325,0.0212911069393,0.441890478134,-0.533082500768,0.03380745246,0.737121844807,-0.413922081365
1470076140956800906,-0.0135923987255,0.0211223103106,0.433373421431,-0.406758086207,0.0202744576552,0.738653668628,-0.537147617974
1470076141029198589,-0.0133446641266,0.021140884608,0.424684464931,-0.566962181035,0.0236588789572,0.727121360326,-0.386378920335
1470076141100626899,-0.0132774468511,0.0213265381753,0.408695429564,-0.364116318581,0.0180701808381,0.741483433954,-0.563289527934
1470076141174603289,-0.0128122381866,0.0214141122997,0.400051027536,-0.589987087425,0.0348168162091,0.73083875175,-0.341434832613
1470076141247633924,-0.0128839397803,0.0216592736542,0.389947921038,-0.385094504335,0.0155190310587,0.734677550321,-0.558310200033
1470076141319273277,-0.0127291670069,0.0219998266548,0.379440575838,-0.389859115299,0.0155648670415,0.735419021137,-0.554009448007
1470076141394260912,-0.0123147405684,0.0223349239677,0.36655664444,-0.529693820355,0.0212236349222,0.728946992717,-0.433140041797
1470076141468404318,-0.0119796795771,0.0227077715099,0.356967508793,-0.535410118422,0.0250311775232,0.730231324392,-0.423640954253
1470076141540363136,-0.011888153851,0.0230674669147,0.34725022316,-0.548172809573,0.0208912525282,0.726469321316,-0.413899083835
1470076141614244205,-0.0118013061583,0.0233408175409,0.336622983217,-0.434560305378,0.0191082974002,0.735076820622,-0.520052191367
1470076141687534733,-0.0114822443575,0.0234903357923,0.327214509249,-0.480048798278,0.0212695806437,0.731868279791,-0.483186896808
1470076141759711556,-0.0112246219069,0.0235444009304,0.313090443611,-0.482234163549,0.0166519019051,0.728545814657,-0.486203580421
1470076141833356637,-0.0108753535897,0.0235963407904,0.303566455841,-0.49746122681,0.0192572305035,0.72890523204,-0.469956008152
1470076141903633398,-0.0107609946281,0.0236539486796,0.293797433376,-0.440168357305,0.0151432453133,0.729273630987,-0.523624360105
1470076141978535619,-0.0104989781976,0.0234891176224,0.286952316761,-0.560873233327,0.0250207307222,0.728068292688,-0.393334133218
1470076142048203765,-0.0106733134016,0.0235869493335,0.28291362524,-0.509606819957,0.0224697183966,0.731029795168,-0.453201323237
1470076142130139951,-0.0104385390878,0.024062640965,0.283632993698,-0.563991448515,0.0238764783577,0.727181656717,-0.390577006386
1470076142204815122,-0.010286054574,0.0242228619754,0.283212631941,-0.579024675628,0.0267936847262,0.727155843302,-0.367772895989
1470076142282768944,-0.0104070622474,0.0238103382289,0.2814912498,-0.539676911096,0.0253544872346,0.730181214849,-0.418259937226
1470076142355883491,-0.0103084510192,0.0229634866118,0.278081506491,-0.534747361449,0.0234935922492,0.729387458023,-0.426013200059
1470076142430387976,-0.0102771902457,0.0226285587996,0.277443021536,-0.534303547061,0.0211393082627,0.727485081741,-0.429928255746
1470076142507995639,-0.0103125227615,0.0223628543317,0.278372138739,-0.55481211889,0.0273596984115,0.730159780331,-0.397871404882
1470076142580150280,-0.0104066012427,0.0215791407973,0.279099225998,-0.537469934866,0.027632716569,0.732050885412,-0.41768888333
1470076142655620537,-0.0103501519188,0.0208917073905,0.280300050974,-0.577918877631,0.0264244653416,0.727217734641,-0.369412892212
1470076142731965790,-0.010360090062,0.0201297793537,0.280045181513,-0.56720138677,0.0279396246589,0.729012233362,-0.382155894667
1470076142809103063,-0.0103368544951,0.0192353148013,0.279861330986,-0.569479646751,0.0290870629876,0.729655755841,-0.377424631776
1470076142886195218,-0.0103554325178,0.0181553550065,0.27980440855,-0.550236402652,0.0272340914432,0.730519700994,-0.403533359117
1470076142963837173,-0.0103730531409,0.017630988732,0.280028820038,-0.557579781885,0.025955018199,0.72885938859,-0.396478392258
1470076143035722271,-0.0103844832629,0.0166939757764,0.279914736748,-0.539815885162,0.0259867285169,0.73073470042,-0.417073491929
1470076143113111425,-0.010345466435,0.0157501269132,0.279945224524,-0.535400570976,0.0260209446115,0.73121637405,-0.421890688877
1470076143187669978,-0.0103118838742,0.0148288523778,0.279968082905,-0.559257919882,0.0283683651726,0.730216228232,-0.39142058573
1470076143263443222,-0.0103128449991,0.0138860009611,0.279878914356,-0.545206615346,0.0273091921279,0.731052041903,-0.409349321042
1470076143336727297,-0.0102885849774,0.0134659064934,0.279837667942,-0.556192942227,0.0288005319493,0.73080540985,-0.394643374846
1470076143411645517,-0.0103793498129,0.0126539766788,0.279866099358,-0.521691599545,0.0234759851721,0.730661774526,-0.43979554833
1470076143486325075,-0.010297476314,0.0119353765622,0.279920965433,-0.529671968467,0.0267543296529,0.732273146137,-0.427209376197
1470076143569682174,-0.0102897174656,0.0113007780164,0.279869347811,-0.546264452132,0.0275010779303,0.731278742088,-0.407517165797
1470076143646113945,-0.0103254821151,0.0107855442911,0.279817670584,-0.550854711778,0.027099446761,0.730462498988,-0.402801742884
1470076143719743701,-0.0103110596538,0.0105405272916,0.279778182507,-0.538125283753,0.0268128656606,0.731410109267,-0.418020934024
1470076143795092065,-0.0102882999927,0.00998501852155,0.279909342527,-0.544428796702,0.0278066532721,0.731560992654,-0.409441802191
1470076143869292814,-0.010322115384,0.00954686198384,0.279844492674,-0.526572556124,0.0251491620131,0.731458442917,-0.432501339966
1470076143943520542,-0.010297620669,0.00936662964523,0.279792875051,-0.534926893343,0.0271552132286,0.732148610458,-0.420801883761
1470076144016022613,-0.0103126298636,0.00904766842723,0.279873818159,-0.534772957541,0.0256252330795,0.730990077573,-0.423101332782
1470076144089748903,-0.0102965580299,0.00887778121978,0.279702454805,-0.523342707643,0.02683114839,0.733143933375,-0.433465653528
1470076144166516115,-0.0103334132582,0.00880686100572,0.279716640711,-0.516077069918,0.0248724828461,0.732283676033,-0.44362871336
1470076144241073315,-0.0103029320017,0.0084954733029,0.279625505209,-0.534903266779,0.0281183791442,0.732890083514,-0.419475836527
1470076144312508424,-0.0104102380574,0.00818915292621,0.279855102301,-0.485553362972,0.0205869551587,0.731311443804,-0.478537021708
1470076144388455047,-0.010227154009,0.00794355850667,0.280318558216,-0.544860984644,0.0273933439978,0.731137751713,-0.409650705036
1470076144458939023,-0.0102220121771,0.00801661331207,0.280153810978,-0.555221037866,0.0281656535158,0.730653317194,-0.396335748004
1470076144531247776,-0.010430184193,0.00810579862446,0.279584497213,-0.493755420829,0.0192549444829,0.729814321333,-0.472446703759
1470076144605498192,-0.01037053857,0.00786150060594,0.278794586658,-0.51375999155,0.026128356138,0.73343953272,-0.444335944901
1470076144678831250,-0.0103295492008,0.00773787964135,0.278577357531,-0.526838307808,0.0267712177981,0.732782779843,-0.429830311738
1470076144751689100,-0.0102819940075,0.00765003217384,0.278280079365,-0.534104241791,0.0276853295552,0.732834382331,-0.420618532048
1470076144828965949,-0.0103010674939,0.00760092725977,0.278228491545,-0.526944432766,0.0260611684304,0.732180102636,-0.430769866148
1470076144901693012,-0.010279096663,0.00753968628123,0.277986377478,-0.525650142692,0.0257304128938,0.732004872492,-0.432664696951
1470076144975039054,-0.0102515332401,0.00748550705612,0.277745068073,-0.52918874304,0.0257576097357,0.731547601842,-0.429108291716
1470076145048873168,-0.0102049931884,0.0074531477876,0.277541875839,-0.543900289527,0.0265964383285,0.730550670105,-0.412020415672
1470076145119355280,-0.0102017801255,0.00746025098488,0.277506113052,-0.549449814242,0.0269875120234,0.730288285197,-0.405037771483
1470076145190161728,-0.0101932538673,0.00748903956264,0.277097225189,-0.543550736447,0.0276814201942,0.731451169273,-0.41081081151
1470076145263163533,-0.0104081779718,0.00764745334163,0.276400983334,-0.47003937452,0.0186658914453,0.731114969342,-0.494151264798
1470076145335586570,-0.0102982725948,0.00781914684922,0.275891780853,-0.52834684453,0.0267499781172,0.73251759099,-0.428429725201
1470076145410023294,-0.010299121961,0.0078778155148,0.275813639164,-0.526518845188,0.0252055476994,0.731619449147,-0.432291068212
1470076145489035398,-0.0103498436511,0.0079992134124,0.275652825832,-0.504217036892,0.0212589267348,0.730618693155,-0.459901688358
1470076145566246695,-0.0102151744068,0.00814414117485,0.275226593018,-0.535056269454,0.0267286094007,0.731781736501,-0.421302575451
1470076145640807682,-0.0102927144617,0.00825389660895,0.274909079075,-0.505047275492,0.0203624355966,0.729634684314,-0.460592931102
1470076145715890550,-0.010227529332,0.00829119514674,0.274634540081,-0.532696520184,0.0241396071436,0.730127099488,-0.427277562416
1470076145791825302,-0.0102424491197,0.00835588853806,0.273754447699,-0.534723490676,0.0265746211593,0.731684869633,-0.421902630448
1470076145868052596,-0.0103076808155,0.00841305218637,0.273197978735,-0.503455059028,0.0233832384641,0.732371806753,-0.457840326283
1470076145948296677,-0.0103189311922,0.00843777880073,0.272901296616,-0.504826782815,0.020076773238,0.729239539143,-0.461472141174
1470076146030697046,-0.010219422169,0.00843803118914,0.272559374571,-0.53387147614,0.0240413451169,0.729790395086,-0.426390947288
1470076146104835437,-0.010155711323,0.00844459701329,0.272325307131,-0.543081567547,0.0261269303432,0.730514352552,-0.413193145173
1470076146179665747,-0.0101395901293,0.0084245884791,0.272220879793,-0.546814559676,0.0263330278297,0.730269918259,-0.408663988453
1470076146257446259,-0.0100876390934,0.00842816848308,0.271983146667,-0.556494903132,0.027940407194,0.730398202843,-0.395033190653
1470076146339550842,-0.0101999314502,0.00852615665644,0.27152889967,-0.518898804342,0.022126623585,0.729966330413,-0.44430124898
1470076146414309837,-0.0102460924536,0.00858926773071,0.27086687088,-0.52594750358,0.0229372136693,0.729974993862,-0.435877982977
1470076146486492931,-0.0102707976475,0.00857001449913,0.27049228549,-0.495414890292,0.0216535379775,0.7320015155,-0.467192671256
1470076146562498219,-0.0101974708959,0.00859934464097,0.270207196474,-0.516683065516,0.0248211925086,0.732442114407,-0.44266360507
1470076146634444177,-0.0101563278586,0.00860592909157,0.270056158304,-0.533220476848,0.0263901335152,0.731863847516,-0.423503001905
1470076146711113927,-0.0102209132165,0.00879465509206,0.269795298576,-0.488962175764,0.0199605630229,0.730774266796,-0.475906017596
1470076146785494126,-0.0101094692945,0.00891198869795,0.269554942846,-0.535963957876,0.0249169515951,0.730181546579,-0.423032729723
1470076146863217121,-0.0100556258112,0.00906904786825,0.269293725491,-0.548424147178,0.0258612057078,0.729747233401,-0.407469174509
1470076146935135298,-0.0100396890193,0.00919821579009,0.268957108259,-0.558297425534,0.0259839229878,0.728936610171,-0.395322954989
1470076147004603833,-0.0101368092,0.00930496864021,0.268098205328,-0.537686607602,0.0259802777985,0.73109787967,-0.419182570621
1470076147076519966,-0.0101696681231,0.00933849997818,0.267837703228,-0.524587157587,0.0248811020045,0.731579253343,-0.434719496844
1470076147148660833,-0.010192505084,0.00932985916734,0.267643272877,-0.51534819936,0.0226511751042,0.730771429811,-0.447075245405
1470076147225676629,-0.0101663768291,0.00931454077363,0.267448931932,-0.515103707267,0.0230751638929,0.731099849737,-0.446798295974
1470076147302690295,-0.0101438974962,0.00887512788177,0.267174810171,-0.503346113757,0.0219761920942,0.731270458112,-0.459786095743
1470076147376158663,-0.0100678894669,0.00896928273141,0.267101764679,-0.524675745791,0.0254797742014,0.732238254436,-0.433466586516
1470076147453293852,-0.0100780697539,0.00933281052858,0.266914606094,-0.523364349306,0.0241790623521,0.731234871291,-0.436807387561
1470076147532597532,-0.0100657800213,0.00958965253085,0.266658037901,-0.529103376149,0.0227886148787,0.729508728218,-0.432836356876
1470076147609436677,-0.010009162128,0.00982580892742,0.266376703978,-0.544560399446,0.0242514507074,0.728913959144,-0.414186284973
1470076147684370015,-0.0100411623716,0.00994989369065,0.265884041786,-0.541575971232,0.0226709270761,0.728115451841,-0.419558559964
1470076147760889846,-0.0100664496422,0.0099628707394,0.265622794628,-0.550635701019,0.0240262693034,0.728222763763,-0.407326244532
1470076147838464220,-0.0101159717888,0.00997936725616,0.26508423686,-0.519663810555,0.0237264426145,0.730872457782,-0.441828055217
1470076147911991048,-0.010084990412,0.00964019075036,0.265029162169,-0.534645301991,0.0255316266156,0.730854230932,-0.423502810181
1470076147986150487,-0.0100871575996,0.00905311200768,0.264875501394,-0.519705582211,0.0243992764218,0.73146055738,-0.440767780273
1470076148068569345,-0.0100430967286,0.00914742518216,0.264763385057,-0.533685348488,0.0258018537021,0.731361317542,-0.4238217035
1470076148145279795,-0.0100867729634,0.00929305981845,0.264538139105,-0.517761790623,0.0226565760215,0.730491179843,-0.444738174554
1470076148218720430,-0.0100834518671,0.00931267254055,0.264565587044,-0.524285041268,0.0229465443306,0.730094550835,-0.437676362678
1470076148296221605,-0.0101421456784,0.00970355607569,0.264623701572,-0.500341725634,0.0194271431429,0.729374531866,-0.466147547419
1470076148368504805,-0.0100475046784,0.0102602653205,0.264481067657,-0.539723795467,0.024956745709,0.730100872166,-0.418363600129
1470076148441666055,-0.0100473808125,0.0106533681974,0.264416962862,-0.540191911344,0.0238843036989,0.729264980196,-0.419278937718
1470076148514122450,-0.0100235501304,0.0110912825912,0.264310121536,-0.551423244832,0.0247691287071,0.728795963474,-0.405185561128
1470076148587398835,-0.0100451717153,0.0114287603647,0.264074414968,-0.529514523918,0.0217537324034,0.728519082195,-0.434051945007
1470076148662355527,-0.00998854637146,0.0114621212706,0.263947993517,-0.549425384292,0.024592107871,0.728759185714,-0.407966940527
1470076148735171406,-0.00997427478433,0.0114586856216,0.263810127974,-0.572947655004,0.0260982968221,0.72746768927,-0.376617345055
1470076148807150230,-0.010019749403,0.0112469242886,0.263683378696,-0.567245669695,0.0242003768158,0.726897968744,-0.386349627941
1470076148882352244,-0.00996986683458,0.0112112937495,0.263472139835,-0.568805081367,0.026588894327,0.728342973216,-0.381143442127
1470076148956880428,-0.0100046647713,0.0112645532936,0.263380467892,-0.570035537598,0.0237700590507,0.726401401639,-0.383191171433
1470076149028901273,-0.0100320708007,0.0117571027949,0.262716650963,-0.54817962777,0.0244529500067,0.72890267946,-0.409392272534
1470076149100998974,-0.0100742978975,0.0119113419205,0.262639433146,-0.540198934814,0.023977109072,0.729188178802,-0.41939815088
1470076149173602767,-0.0100227836519,0.0121832415462,0.26281195879,-0.56569978353,0.0245827550932,0.727235313301,-0.387953917565
1470076149245892194,-0.010019576177,0.0124319707975,0.262872070074,-0.570308225699,0.0228716989294,0.725648130809,-0.384265797777
1470076149319640436,-0.00994525104761,0.0127906017005,0.26276832819,-0.574626427996,0.0257766251312,0.726951837652,-0.375074738658
1470076149394814922,-0.00998184550554,0.0128081440926,0.262657523155,-0.576692383123,0.0260073342625,0.726669980544,-0.372424828911
1470076149463589612,-0.0100376037881,0.0126508576795,0.262604534626,-0.549442391289,0.024125449694,0.728291143675,-0.408806838709
1470076149535271091,-0.0100315380841,0.012621127069,0.262634515762,-0.556284352589,0.0241598935631,0.72777324852,-0.400387459026
1470076149607300574,-0.0100694745779,0.012588378042,0.262542426586,-0.540398610532,0.0228565948876,0.728302089711,-0.420740993877
1470076149684483429,-0.0100675392896,0.0124381845817,0.262442260981,-0.538044469642,0.0231280739324,0.728530358478,-0.423340002433
1470076149759422747,-0.010044622235,0.012256976217,0.262440651655,-0.554155671369,0.0252884174341,0.728549026387,-0.401856073718
1470076149832624249,-0.0100542241707,0.012165366672,0.262401014566,-0.547685528508,0.0240128246342,0.728401935107,-0.410967841868
1470076149907434490,-0.0100608961657,0.0119147552177,0.262310892344,-0.538407496534,0.0235396595975,0.728788839429,-0.422409847927
1470076149978839036,-0.0100363353267,0.0117076477036,0.262297362089,-0.549322710574,0.0247600602482,0.728805310649,-0.408012644698
1470076150052852014,-0.0100467214361,0.0114670358598,0.262284457684,-0.551275357001,0.0244385965376,0.728156712322,-0.406553856289
1470076150130163207,-0.0100719295442,0.0112028364092,0.262347906828,-0.536980411374,0.02301498144,0.72867336245,-0.424449619254
1470076150210310330,-0.0100718205795,0.0110886562616,0.262221395969,-0.546030332115,0.0226781226484,0.727519661037,-0.414791178748
1470076150282689737,-0.010032759048,0.0108570978045,0.262342214584,-0.551422779936,0.0250283915795,0.728710097315,-0.405324674125
1470076150357798055,-0.0101093184203,0.0106203677133,0.26230469346,-0.528014125977,0.0207212251085,0.727537295501,-0.437562792356
1470076150433425201,-0.0100308898836,0.0104076191783,0.262299835682,-0.545714872005,0.0247424210191,0.72905639692,-0.412383148523
1470076150507825286,-0.0100596453995,0.0102886697277,0.262262880802,-0.536948592356,0.0233419511292,0.728875631676,-0.424124599656
1470076150584897072,-0.0100177126005,0.0100852688774,0.262235045433,-0.556988366066,0.0260876158736,0.728749130381,-0.397502328714
1470076150664271231,-0.0100342752412,0.00990526843816,0.262339919806,-0.55476488555,0.0251315828969,0.728424516012,-0.401250607196
1470076150736521479,-0.0100602703169,0.00972895883024,0.262209892273,-0.538996694441,0.023109078181,0.728572412512,-0.422055415335
1470076150808675015,-0.0100198788568,0.00958949141204,0.26228171587,-0.547696491457,0.0258806902296,0.729695051345,-0.408538707055
1470076150883733395,-0.0100803906098,0.00932533945888,0.26224526763,-0.535451705669,0.0221006441742,0.727934624241,-0.427684714777
1470076150957514943,-0.0100095467642,0.00910729449242,0.262257158756,-0.558232054859,0.0261282547791,0.728676045131,-0.395885726546
1470076151032082045,-0.0100602349266,0.00839795451611,0.262052297592,-0.524670632156,0.0223310573438,0.729019715382,-0.439035654833
1470076151109477268,-0.00996216014028,0.00740924151614,0.262062370777,-0.559870495389,0.0278158010513,0.729698189508,-0.391550586558
1470076151187900500,-0.0100129023194,0.00661239586771,0.261938452721,-0.522955707024,0.0229179571663,0.729725460646,-0.439878219301
1470076151263314618,-0.00992538873106,0.0061672036536,0.261570990086,-0.552251590544,0.0260633673005,0.729379373675,-0.40292010484
1470076151336511436,-0.00991800799966,0.00607422413304,0.261457204819,-0.551412409032,0.0255881327166,0.729176597626,-0.404463956497
1470076151408845154,-0.00989938806742,0.00595343625173,0.261111140251,-0.54653856846,0.0250997139511,0.729329234125,-0.410785182054
1470076151481029668,-0.00991575513035,0.00584818189964,0.260445147753,-0.537761945958,0.0242260668673,0.729654226456,-0.421698822596
1470076151553654817,-0.00996410474181,0.00583057338372,0.259676605463,-0.533020235382,0.0254621582858,0.731126238379,-0.425082969223
1470076151627873474,-0.0099003976211,0.00578934978694,0.259311527014,-0.535842773339,0.0257658691959,0.730966489867,-0.421777942685
1470076151706446605,-0.00990001764148,0.00571044208482,0.25919097662,-0.541695793161,0.0248173090205,0.729458295671,-0.416941679041
1470076151788134082,-0.009870801121,0.00560746574774,0.258899182081,-0.540760442862,0.0245083752349,0.72935489478,-0.418352626906
1470076151863033785,-0.00985294952989,0.00529598770663,0.258816480637,-0.548350330932,0.0250133761238,0.72891163605,-0.409113764634
1470076151936863040,-0.00986442994326,0.00497786654159,0.25862416625,-0.535180968612,0.0227900421497,0.728670132308,-0.42673385511
1470076152014492673,-0.00988486967981,0.00490284757689,0.258604288101,-0.525393724096,0.0212661749323,0.728531982252,-0.439033410255
1470076152090550007,-0.00987852271646,0.00526606291533,0.25854191184,-0.520463130212,0.0207013209841,0.728534223997,-0.444890402082
1470076152165435980,-0.009775608778,0.0056440345943,0.258432120085,-0.548879186291,0.0264596864698,0.730120902456,-0.406146514997
1470076152236857832,-0.00985452439636,0.00574887916446,0.258253633976,-0.522360065328,0.0211789053308,0.728737116058,-0.442304908179
1470076152316170278,-0.00980872195214,0.00589034985751,0.25826883316,-0.545970806523,0.0246988585954,0.729179952214,-0.411828170597
1470076152392378101,-0.00984341744334,0.00610951101407,0.258252471685,-0.537330372646,0.0218832341713,0.728080592655,-0.425083339233
1470076152469628009,-0.00982362683862,0.00632081413642,0.258133620024,-0.547327397915,0.0246056810483,0.728958183861,-0.410423252428
1470076152544633269,-0.00978473387659,0.00644471868873,0.258040189743,-0.545928804123,0.0267257251768,0.730694200118,-0.409064129884
1470076152623781403,-0.00985750183463,0.00666330428794,0.258152097464,-0.550220884424,0.0224148663694,0.727274357428,-0.409666402256
1470076152700803389,-0.00980150606483,0.0069276439026,0.25811907649,-0.568154780555,0.0268320523358,0.728428308353,-0.381932436288
1470076152776413169,-0.00985779892653,0.00716983480379,0.257943958044,-0.541958560026,0.0237912896524,0.728943856251,-0.417559275055
1470076152848429888,-0.00990732479841,0.00746274972335,0.257942140102,-0.527424377316,0.0209887040189,0.728289532239,-0.437009562536
1470076152924160492,-0.00992370862514,0.00753451697528,0.257815092802,-0.536850417892,0.0218882450262,0.728059757499,-0.425724703357
1470076153000218150,-0.00987871177495,0.00775735033676,0.257872223854,-0.545237280808,0.0255365890409,0.729952778359,-0.411379546894
1470076153075938198,-0.00994327664375,0.00799412932247,0.257786124945,-0.528727619008,0.0217333435305,0.728634018435,-0.434818621792
1470076153148064430,-0.00987965147942,0.0081661650911,0.2578959167,-0.553001841522,0.0260546953766,0.729499196516,-0.40167280018
1470076153225122698,-0.00994096603245,0.00842209905386,0.257864713669,-0.534394712857,0.0212337227661,0.727763976937,-0.429337878321
1470076153302383125,-0.00990399625152,0.0085845189169,0.257810801268,-0.555158016823,0.025096219879,0.728594834017,-0.400398955979
1470076153377744295,-0.00991386082023,0.00868016295135,0.257945030928,-0.556460539741,0.0248036162688,0.72824898351,-0.39923660447
1470076153449082891,-0.00993864331394,0.00912049226463,0.257839113474,-0.549408191339,0.0253455961506,0.729357478624,-0.406873332158
1470076153526541358,-0.00990031659603,0.00960504915565,0.258278995752,-0.563721978739,0.0247753083121,0.727442380781,-0.390424509257
1470076153603341655,-0.0098488163203,0.00982222519815,0.258673012257,-0.55755488772,0.0242399612336,0.727673925263,-0.39879271552
1470076153676486100,-0.00981045980006,0.0102108465508,0.258420318365,-0.570615719467,0.0251066531275,0.727062407053,-0.380982431244
1470076153749089944,-0.00981827266514,0.0104070864618,0.258142918348,-0.570860909126,0.026008872766,0.727754802523,-0.379228570091
1470076153821620467,-0.00994700845331,0.0107314130291,0.257295548916,-0.531591433518,0.0238254716688,0.729940244557,-0.428987335576
1470076153895086619,-0.00989191606641,0.0108593748882,0.256950229406,-0.532385044012,0.024944571432,0.730783489799,-0.426496687332
1470076153965864133,-0.00986208114773,0.0109826866537,0.256595373154,-0.536795880267,0.0237908161315,0.729512113372,-0.423197656469
1470076154039692776,-0.00979229621589,0.0110268369317,0.256333082914,-0.547353805735,0.0250230454802,0.729291142836,-0.409770774365
1470076154115904869,-0.00975379440933,0.0110530583188,0.256146997213,-0.571232553942,0.0263804295503,0.72761745973,-0.378906683169
1470076154193736815,-0.00980961881578,0.011105472222,0.255645871162,-0.556457458966,0.0224099256534,0.726492833501,-0.402568074325
1470076154267482896,-0.00984617415816,0.0111454213038,0.254970520735,-0.550564646637,0.0241452047573,0.72826081204,-0.407347233461
1470076154346530484,-0.00980742741376,0.0111998682842,0.254580497742,-0.550484401765,0.0261637638815,0.729772305878,-0.404616809398
1470076154419542375,-0.00983089860529,0.0112523622811,0.254191815853,-0.53351755543,0.0227984379299,0.728935342663,-0.428360263672
1470076154493480684,-0.00977651961148,0.0112683065236,0.253838598728,-0.53988649645,0.0230082760518,0.728544371703,-0.420970650573
1470076154565466023,-0.00973761361092,0.011274330318,0.253526717424,-0.53889630941,0.0232920375372,0.728696877516,-0.42195865839
1470076154643017237,-0.00970873143524,0.0112933963537,0.252923816442,-0.579803746931,0.0262246390298,0.72663371274,-0.36761845827
1470076154718436599,-0.00985723920166,0.0113533372059,0.252222746611,-0.525374095038,0.0204946022251,0.727708563189,-0.440456897555
1470076154789894990,-0.00980641692877,0.0114328358322,0.252152979374,-0.544778542126,0.0231459929255,0.72810081345,-0.41539115121
1470076154863415642,-0.00982154440135,0.0117644080892,0.25198674202,-0.531332226751,0.0215446771866,0.728136474269,-0.432480249885
1470076154935624926,-0.00974800717086,0.0119924563915,0.252011716366,-0.562643887439,0.0261841242915,0.728424152568,-0.390057049056
1470076155008591272,-0.00974500179291,0.0119791384786,0.251981049776,-0.560848139798,0.0263559318718,0.728656147712,-0.392192487615
1470076155082378562,-0.00982053857297,0.011695294641,0.251891165972,-0.534504539216,0.0214142006107,0.727587808837,-0.429490756595
1470076155156056983,-0.00975300371647,0.0116117447615,0.25194182992,-0.56028972261,0.0255445246913,0.728180643375,-0.393923665968
1470076155244444758,-0.00974325463176,0.0115705775097,0.251907914877,-0.562126128843,0.0260777515314,0.728338053554,-0.390970390044
1470076155318669763,-0.00975360348821,0.0114962980151,0.251934915781,-0.557608913336,0.0258130429076,0.728541323563,-0.397030888528
1470076155391824925,-0.00980527605861,0.0113276466727,0.251877695322,-0.543624545365,0.0224972133567,0.727568423828,-0.417864113937
1470076155465350306,-0.00983322411776,0.0112673789263,0.251921772957,-0.536712021453,0.0212721640639,0.727312785077,-0.427204650874
1470076155538256697,-0.00972713716328,0.01111614611,0.25185239315,-0.56592631047,0.0267033097009,0.728416783321,-0.385257490706
1470076155611173066,-0.00981286261231,0.0108831133693,0.251884162426,-0.53672103992,0.0219632918268,0.727783328821,-0.426356148553
1470076155682543974,-0.00974518153816,0.0107425907627,0.251824557781,-0.566203462009,0.0254035588185,0.727512591778,-0.386644187352
1470076155756363549,-0.00973811838776,0.0105413123965,0.251805365086,-0.556625914291,0.025600781903,0.728490763659,-0.398513988171
1470076155833227455,-0.00980551447719,0.0104432897642,0.251878529787,-0.543482020996,0.0226845308377,0.72771014374,-0.417792594014
1470076155906023228,-0.00977924559265,0.0103206662461,0.251782476902,-0.548396513734,0.0232227540986,0.727754809702,-0.411211508074
1470076155981554657,-0.00973527226597,0.0101360175759,0.251841932535,-0.565220900405,0.0261693265937,0.72804102436,-0.387035872936
1470076156056521089,-0.00979806762189,0.00999043602496,0.251838922501,-0.536694435604,0.0221731010349,0.72804231165,-0.425936414068
1470076156133601099,-0.00980177056044,0.00992804486305,0.251827985048,-0.540875273206,0.0219852475434,0.727569401938,-0.421441992555
1470076156206676092,-0.00977129023522,0.00967060215771,0.251823693514,-0.54346488671,0.0238751434918,0.728571190555,-0.416245017664
1470076156280123984,-0.00973781570792,0.0092198215425,0.251700758934,-0.548584024645,0.0251956387702,0.728969567148,-0.408685842504
1470076156352921181,-0.00975419115275,0.00868323538452,0.251674473286,-0.542709881985,0.0236453456454,0.728657869672,-0.417090626352
1470076156428996697,-0.00975769665092,0.00840951409191,0.251791030169,-0.54518682646,0.0242963031256,0.728797746677,-0.413563608588
1470076156504254678,-0.00975227728486,0.00832009594887,0.251692920923,-0.543700099234,0.0239742880272,0.728659022762,-0.415778142948
1470076156576788211,-0.0097235981375,0.00803898368031,0.25122025609,-0.542207517233,0.0230701396652,0.728205465128,-0.418563707779
1470076156650061681,-0.00968610029668,0.00779396947473,0.250739991665,-0.549944050949,0.0261700441235,0.729787431119,-0.405323296883
1470076156736344240,-0.00975999981165,0.00768588669598,0.250090390444,-0.53594058543,0.0250917730876,0.730508704387,-0.422486833673
1470076156813384587,-0.00970489531755,0.00760251143947,0.249646693468,-0.54402375366,0.025724271018,0.730062001054,-0.412778260028
1470076156889703874,-0.00967237353325,0.00756666762754,0.249443665147,-0.555707069729,0.0260151197089,0.728964774548,-0.398902524017
1470076156965787498,-0.00959245022386,0.0075367721729,0.249052003026,-0.576554594679,0.0279439796248,0.727963029208,-0.369964540819
1470076157040020610,-0.00965716410428,0.00753798568621,0.248653903604,-0.542376584204,0.0233246378508,0.728369711513,-0.418044454008
1470076157116601462,-0.00971686560661,0.00754794524983,0.247872129083,-0.513324413995,0.0222159037103,0.730344750941,-0.450112257544
1470076157189007947,-0.00972206611186,0.00751569354907,0.247431784868,-0.529294874107,0.0232840627659,0.729753556282,-0.432162626518
1470076157261461058,-0.00963065493852,0.00753614632413,0.247058063745,-0.541438646654,0.0255676264995,0.730247873321,-0.415846764921
1470076157334169524,-0.00959423929453,0.00753418402746,0.24690747261,-0.553558250696,0.0264118868557,0.729558112029,-0.400775044747
1470076157406252296,-0.00959572941065,0.00753244385123,0.246439561248,-0.548745636361,0.0243780765863,0.728645550767,-0.40909607344
1470076157477754742,-0.00966295506805,0.0075071384199,0.245916545391,-0.53886267795,0.0217034747201,0.727430113453,-0.424265722796
1470076157550880006,-0.00966784916818,0.00751099782065,0.245202705264,-0.535504407452,0.0233485305464,0.729126127311,-0.425517292472
1470076157624472325,-0.0095899766311,0.0075335809961,0.244822219014,-0.551504661105,0.0258713166947,0.729373719765,-0.403964429954
1470076157699524394,-0.00954876560718,0.00754759879783,0.24471616745,-0.556211832508,0.0272917227267,0.729801882492,-0.396576312404
1470076157775661685,-0.00954066775739,0.00756547693163,0.244388133287,-0.552668895066,0.0255784883491,0.729061057198,-0.402955094569
1470076157849278789,-0.00958138983697,0.0075918356888,0.243952542543,-0.523352268971,0.022780071281,0.729872527202,-0.439169175775
1470076157923753100,-0.00962791685015,0.00757887307554,0.243343278766,-0.531055535095,0.0235255262913,0.729772789639,-0.429951443491
1470076157995868262,-0.00961255095899,0.00757366325706,0.24305960536,-0.54175571872,0.0247685277337,0.729730815981,-0.416389478105
1470076158065782768,-0.00951367802918,0.0075712245889,0.242668703198,-0.571110122772,0.027609096604,0.728417101061,-0.377464557718
1470076158140153688,-0.00951100233942,0.00760422926396,0.242260023952,-0.550864007572,0.0253869618299,0.729046936725,-0.405456423532
1470076158217994423,-0.00953160878271,0.00765147060156,0.241791382432,-0.518875635279,0.0232933896988,0.730757688304,-0.442965793369
1470076158292648148,-0.00956608820707,0.00763547001407,0.241246417165,-0.529728220298,0.0241653091567,0.730345474867,-0.430580466109
1470076158368856867,-0.0095432093367,0.00765803223476,0.240735992789,-0.535826271314,0.0255911815774,0.73085701669,-0.421999193779
1470076158442314635,-0.00951616093516,0.00765944179147,0.240498200059,-0.54966512973,0.0255934539872,0.729316974917,-0.406583288356
1470076158515714760,-0.0095469802618,0.00767512153834,0.240190699697,-0.526439963001,0.0213782578375,0.728445288359,-0.43791711238
1470076158591572394,-0.00949617940933,0.00769446184859,0.23984977603,-0.525163489828,0.0227664111079,0.729559069338,-0.437525500771
1470076158664091174,-0.00948467478156,0.00771503662691,0.23947507143,-0.533744933334,0.0242752047115,0.729979170909,-0.426212940459
1470076158741124875,-0.00948453694582,0.00773098599166,0.238833457232,-0.542971283019,0.0265727833045,0.730775029696,-0.41284855453
1470076158814699812,-0.00949596986175,0.00775059126318,0.23828984797,-0.531000495518,0.0234654401475,0.729855063359,-0.429883046151
1470076158883932920,-0.00944659672678,0.0077387415804,0.237983837724,-0.539194082337,0.0235774702529,0.729061131133,-0.420931955951
1470076158955359904,-0.00937607698143,0.00777902407572,0.237637847662,-0.552289696498,0.0265547922634,0.729799800672,-0.402073606555
1470076159026753138,-0.00935900304466,0.00780803151429,0.237282782793,-0.548274753804,0.0263559621319,0.729923473915,-0.407322820168
1470076159101912854,-0.00951412972063,0.00781617965549,0.236586913466,-0.525291973406,0.0220174791872,0.729033725089,-0.438284611832
1470076159176676342,-0.00949568394572,0.00781785883009,0.23632080853,-0.522280640714,0.0216219070504,0.729010083737,-0.441927282796
1470076159266702308,-0.00940608605742,0.00785686448216,0.236005291343,-0.536590610815,0.0241916032566,0.729669225693,-0.423164393343
1470076159341508226,-0.00935318041593,0.00787889771163,0.235714673996,-0.542140173579,0.0255967371624,0.730132432796,-0.415133074829
1470076159416719045,-0.00937184039503,0.00791507121176,0.235231235623,-0.533280265223,0.023770110372,0.729657774869,-0.427371819555
1470076159491309844,-0.00945180095732,0.00792678818107,0.23481836915,-0.51429274713,0.021917277,0.730055707673,-0.449490007578
1470076159565917565,-0.00932887196541,0.00791044812649,0.234019830823,-0.561159414517,0.02675834969,0.728918925892,-0.39123049689
1470076159639355022,-0.00929859187454,0.00792461633682,0.233748853207,-0.556964122626,0.0259721852824,0.728896698643,-0.397273223873
1470076159716457590,-0.00933166686445,0.00798286404461,0.233404606581,-0.526724216716,0.0236372721758,0.730240257107,-0.434456034358
1470076159793994279,-0.00936361867934,0.00800008047372,0.233004510403,-0.495256575172,0.0215569858753,0.731372231526,-0.468349100631
1470076159868072109,-0.00935193803161,0.00797441694885,0.232419341803,-0.541665648082,0.0248993277789,0.729653555286,-0.416634178174
1470076159945343349,-0.00930416304618,0.00798518210649,0.23205794394,-0.548477886402,0.0260440714799,0.729805375552,-0.407281018811
1470076160021379890,-0.00930136721581,0.00798874069005,0.231580868363,-0.537829788034,0.0228953600692,0.728562191001,-0.423570602656
1470076160093613497,-0.00927982199937,0.00801540724933,0.231265753508,-0.519966616822,0.0228169356498,0.73023067785,-0.442580232235
1470076160170318700,-0.00925368070602,0.00802430789918,0.230880960822,-0.538893260162,0.0249521150555,0.729987515348,-0.419630401118
1470076160245817975,-0.00928172655404,0.0080359717831,0.230198204517,-0.548291511511,0.0258579342646,0.729845566829,-0.407471758801
1470076160323305524,-0.0092893820256,0.00804612506181,0.22997058928,-0.542839137011,0.0238644398833,0.728945489359,-0.416406812361
1470076160396232909,-0.00928104389459,0.00804293621331,0.229800745845,-0.536018682294,0.0227893903909,0.728736531157,-0.425567484748
1470076160469657155,-0.00925565045327,0.00806104112417,0.229468882084,-0.520745525447,0.0222758323628,0.729754688315,-0.442477095341
1470076160542030115,-0.00919311493635,0.00810818560421,0.229008585215,-0.535427510124,0.0252738148353,0.730333747076,-0.423427955581
1470076160613407130,-0.00926428474486,0.0081446878612,0.228189095855,-0.528463237659,0.0234396101926,0.729912465248,-0.432902973186
1470076160690699854,-0.00927775353193,0.00814905110747,0.227987229824,-0.521983343801,0.0217648252811,0.729294386323,-0.441802421058
1470076160765984353,-0.0091929892078,0.00815864093602,0.226466149092,-0.487230586281,0.0189187394891,0.729373392883,-0.479857156708
1470076160838847650,-0.00913667213172,0.008151197806,0.224305421114,-0.508694477161,0.0200363943417,0.728729199794,-0.458019896048
1470076160910727357,-0.00910167302936,0.008145888336,0.223727226257,-0.540975976634,0.0218875948877,0.727353950012,-0.421689645708
1470076160981086823,-0.00916110165417,0.00816626939923,0.223427638412,-0.512551563371,0.0179625191906,0.726580377555,-0.457218982264
1470076161054142867,-0.00911520794034,0.00821309443563,0.223678454757,-0.546918526041,0.0218303394051,0.726910825905,-0.414733906664
1470076161126761343,-0.00914614647627,0.00825737137347,0.223494127393,-0.511360832026,0.0194201586462,0.728105089775,-0.456065713633
1470076161202062058,-0.00909744761884,0.00830998178571,0.223103493452,-0.513263655405,0.0220750727203,0.730007028992,-0.450735896981
1470076161275430440,-0.00916840229183,0.00821315124631,0.222496673465,-0.530549711832,0.0220672712851,0.728348830141,-0.433056601896
1470076161349282176,-0.00912958942354,0.00798388011754,0.222369119525,-0.540130354377,0.0232710338469,0.728542946601,-0.42064573482
1470076161424023470,-0.00911642704159,0.0077887699008,0.222275853157,-0.537556840013,0.0226505509896,0.728519179487,-0.424004011083
1470076161497427974,-0.00908184051514,0.00781188020483,0.222158581018,-0.547940209059,0.0240838297107,0.728490962661,-0.410466093319
1470076161570712320,-0.00907498039305,0.00771580822766,0.222069531679,-0.545782156625,0.0234548383368,0.728385633955,-0.413552990942
1470076161643269265,-0.00907907355577,0.00771148875356,0.222019597888,-0.5393887736,0.0230050690696,0.728575436797,-0.42155468282
1470076161717328149,-0.00906887091696,0.00769821926951,0.221964165568,-0.541731672616,0.0230511656539,0.72839868604,-0.418844592686
1470076161795640495,-0.00906647741795,0.00783252809197,0.221851184964,-0.538314419318,0.0225434226152,0.72836636846,-0.423310540085
1470076161868597683,-0.0091370549053,0.00826788786799,0.221748054028,-0.501088517551,0.0188311549997,0.728630193698,-0.466533735127
1470076161942086886,-0.00906409882009,0.00884483102709,0.221535205841,-0.525417607797,0.0225778512191,0.729307834804,-0.437649014788
1470076162014070110,-0.00910878926516,0.0094160810113,0.22090870142,-0.548152186536,0.0230457673864,0.727684033722,-0.411672224065
1470076162086437947,-0.00914423447102,0.00966230314225,0.220621705055,-0.540970356792,0.0213344906382,0.727129571076,-0.422111951321
1470076162163553520,-0.00910504162312,0.00991293974221,0.220311284065,-0.541839829034,0.0211679807292,0.726956499396,-0.421302461718
1470076162241121493,-0.00905096810311,0.0100642386824,0.220037922263,-0.549846843215,0.0221259025685,0.726680513328,-0.411235121301
1470076162323998384,-0.00902695860714,0.0102369952947,0.219692662358,-0.538487132158,0.0226281802438,0.728257022286,-0.423274477673
1470076162398320541,-0.00909641478211,0.0103023014963,0.219170182943,-0.543545234588,0.0210330608523,0.726630361814,-0.419671902323
1470076162471117289,-0.0090674366802,0.0103762764484,0.218739017844,-0.560706096638,0.0227624896573,0.726338946499,-0.39689076212
1470076162549158563,-0.00900983717293,0.0104346340522,0.218492850661,-0.564784698929,0.023988087992,0.726789841597,-0.390152972104
1470076162627866099,-0.00906044896692,0.0105047561228,0.21816457808,-0.528477401824,0.019677847124,0.726956586713,-0.438016596864
1470076162699920112,-0.00896417163312,0.0104628978297,0.217444196343,-0.532676407688,0.0218087194964,0.727934809692,-0.431150944898
1470076162773210581,-0.00888614077121,0.0103650158271,0.217187970877,-0.543269443354,0.0218445518159,0.727116877831,-0.419144573444
1470076162849829979,-0.00884838495404,0.0102590480819,0.216874241829,-0.532950178912,0.0207451707611,0.727301232976,-0.431933630549
1470076162924995796,-0.00882108975202,0.0101882601157,0.216590151191,-0.516317667765,0.0196503635929,0.727774451286,-0.450970372885
1470076163004897545,-0.00874664541334,0.0100895287469,0.216288372874,-0.531847274009,0.020089892482,0.727090228839,-0.433675768837
1470076163080014998,-0.00874164234847,0.0099978139624,0.215929910541,-0.521727625795,0.0190027260867,0.727059678699,-0.445896181295
1470076163153305438,-0.00873721484095,0.00988376140594,0.215486004949,-0.518905567801,0.0187693194529,0.727054522601,-0.44919533114
1470076163226407593,-0.00857150740921,0.00961655005813,0.21490894258,-0.544599030709,0.0229688613443,0.728091830859,-0.415652033551
1470076163306523705,-0.00864528398961,0.00948070082814,0.215022087097,-0.527246455308,0.0204822218292,0.727988500592,-0.437749239816
1470076163383274227,-0.00858954992145,0.00927653256804,0.214995905757,-0.543058413677,0.0234356452991,0.728674807734,-0.416618955928
1470076163454784510,-0.008674220182,0.00912842713296,0.215154767036,-0.528503823511,0.0206015550649,0.728025279849,-0.436163359721
1470076163527885392,-0.00861931499094,0.00901532638818,0.215274676681,-0.550073389203,0.0242745505519,0.728669545132,-0.40727227586
1470076163605380375,-0.00868041906506,0.00882841646671,0.215275585651,-0.530986662382,0.0218252963114,0.728725758038,-0.431897661935
1470076163680218185,-0.00864879507571,0.00867739878595,0.215085566044,-0.537570319085,0.0222857953535,0.728569825919,-0.423919218867
1470076163752860849,-0.0086451433599,0.00848641432822,0.214805975556,-0.555795133828,0.0243852365586,0.728321864463,-0.400055485147
1470076163825494905,-0.00868191290647,0.00842580758035,0.214020848274,-0.536637746744,0.0241771352447,0.730156614716,-0.422263795379
1470076163903333312,-0.00867896340787,0.00827510748059,0.212275981903,-0.527426249772,0.0218470839833,0.729044721318,-0.435704085696
1470076163979605206,-0.00863235723227,0.00817654374987,0.211309328675,-0.535876432951,0.01946543183,0.726610478303,-0.429528530359
1470076164053244970,-0.00870542321354,0.00811626575887,0.210565090179,-0.519135134812,0.019835938329,0.728297419598,-0.446864762497
1470076164127171040,-0.00872210599482,0.00802512466908,0.210789442062,-0.533042875534,0.0220564423644,0.728795673927,-0.429226830311
1470076164203137103,-0.00868033990264,0.00791691988707,0.210541456938,-0.554683546356,0.0226639790641,0.727293748644,-0.403554594372
1470076164274295915,-0.00861707609147,0.007803064771,0.210203275084,-0.563123323676,0.0233391852999,0.726903711767,-0.392375328711
1470076164349284531,-0.00853221677244,0.00768228713423,0.209575295448,-0.549561203179,0.0237484990404,0.728540720026,-0.408224095342
1470076164432085332,-0.00852612406015,0.00755762774497,0.209380283952,-0.542298842255,0.02243518682,0.728088571901,-0.418683244886
1470076164510350607,-0.00852066930383,0.00744440266863,0.208627596498,-0.539558988914,0.0224681113978,0.728442252064,-0.421595975859
1470076164590229076,-0.00844123307616,0.0074111558497,0.208084240556,-0.534297326758,0.0215687412213,0.728168332723,-0.428756382157
1470076164668081667,-0.0084027601406,0.00742592290044,0.208195030689,-0.540573703144,0.0237466581599,0.729318422677,-0.418701332742
1470076164748153018,-0.00835475511849,0.00743727711961,0.208528727293,-0.529638491918,0.0230851368862,0.729769914278,-0.431724468323
1470076164825952689,-0.0082978233695,0.00742619903758,0.208521127701,-0.534406041995,0.0233178802003,0.729472935853,-0.426304696902
1470076164899372451,-0.00829698890448,0.00742807146162,0.208647474647,-0.521441806179,0.0226932497028,0.730192500283,-0.440910843276
1470076164976899009,-0.00828862003982,0.00738997524604,0.208171352744,-0.514490010484,0.0223566209838,0.730560036018,-0.448421949042
1470076165048986496,-0.00826976448298,0.0073296520859,0.207571551204,-0.536247015926,0.0237189213293,0.72964160555,-0.423674023433
1470076165122741845,-0.00828380323946,0.00735784461722,0.207219198346,-0.521213214019,0.0211314416339,0.729090021212,-0.443077858481
1470076165195862145,-0.00830493029207,0.00734564615414,0.206484943628,-0.518130251728,0.0219491063503,0.729927416679,-0.445269856778
1470076165267868904,-0.00822642538697,0.00731729529798,0.20468403399,-0.515039535577,0.0211266697346,0.729312292924,-0.44987945053
1470076165339869852,-0.00828068796545,0.0072960704565,0.202723309398,-0.51296836944,0.0180990244702,0.72723682536,-0.455699985854
1470076165417963907,-0.00821061246097,0.00731147592887,0.203108340502,-0.549732029609,0.0235207821889,0.728133464961,-0.408733563132
1470076165494085375,-0.0082168392837,0.00730547402054,0.202972754836,-0.543282140524,0.0225170334143,0.728024627372,-0.417513641614
1470076165566670845,-0.00824635848403,0.00730949593708,0.202731758356,-0.521648138742,0.0198307031044,0.72794521437,-0.444506161303
1470076165642740988,-0.00824679620564,0.0073010167107,0.202482819557,-0.507735211106,0.0190581859427,0.728364523789,-0.459703014388
1470076165719399911,-0.00825315993279,0.00729096168652,0.202366173267,-0.497392058119,0.0188456628733,0.728935840342,-0.469998427844
1470076165793879328,-0.00827724486589,0.00725019117817,0.202225297689,-0.498653641959,0.0186786910819,0.728821552218,-0.468844107229
1470076165865949733,-0.00823210645467,0.00728247361258,0.202037617564,-0.518791861894,0.0208649180153,0.728852030836,-0.446311972027
1470076165939561728,-0.00822964590043,0.0073444689624,0.20210956037,-0.518154194718,0.0214105239647,0.729353276669,-0.446208043151
1470076166011106941,-0.00822488963604,0.00746603123844,0.201971188188,-0.537831284528,0.0221605036593,0.728288152251,-0.424078753006
1470076166086426475,-0.00823798216879,0.00747629441321,0.201998203993,-0.534790023133,0.0218277298364,0.728340630552,-0.42783537401
1470076166159114854,-0.00831554085016,0.00747520988807,0.201813310385,-0.525199202511,0.0202928603219,0.728022783526,-0.440155454548
1470076166242233259,-0.00832593720406,0.00746299792081,0.201745733619,-0.525933311896,0.020091738603,0.727803013175,-0.439651279414
1470076166319320623,-0.00830768700689,0.00744226993993,0.201695427299,-0.526610529396,0.0205403226233,0.728119951335,-0.438293032049
1470076166394140709,-0.00831002742052,0.00743111688644,0.201577439904,-0.524789776562,0.0197581825606,0.727572480953,-0.441410907883
1470076166466637320,-0.00831882283092,0.0074261710979,0.201550126076,-0.518708880531,0.0191601977555,0.727598033689,-0.448525456861
1470076166542960613,-0.0083289379254,0.00749189639464,0.20177270472,-0.525538555869,0.0203610012173,0.728092444269,-0.439631719196
1470076166621514908,-0.00825592409819,0.00761486077681,0.202604159713,-0.529235195172,0.0228616027056,0.729405508878,-0.432845306006
1470076166695675503,-0.00824381504208,0.00770788034424,0.203011289239,-0.546503143023,0.0235614258971,0.72853253481,-0.412334232873
1470076166768443181,-0.0082936193794,0.00781928095967,0.203217342496,-0.531614366499,0.0215986941544,0.728426600255,-0.43164145976
1470076166844519634,-0.00828494410962,0.00785053241998,0.203085511923,-0.519539332936,0.0204519314825,0.72847860382,-0.446071209347
1470076166919795772,-0.00821326486766,0.00780740054324,0.202689513564,-0.526321126271,0.0215543519516,0.728899523399,-0.437295056846
1470076166993463227,-0.0082644270733,0.0077134068124,0.201929956675,-0.53037038142,0.0223546333837,0.72912358342,-0.431956397081
1470076167066019200,-0.00820848625153,0.00771526806056,0.20157212019,-0.538692351504,0.0235402054503,0.729245511323,-0.421256920861
1470076167140257621,-0.00818938948214,0.00773003092036,0.20152913034,-0.544281582285,0.0237600478074,0.728755985174,-0.414858690865
1470076167211394123,-0.00817275885493,0.00779335014522,0.201230600476,-0.541921124837,0.021791586786,0.727599074993,-0.420055005053
1470076167286348862,-0.00815812684596,0.00781719665974,0.201163366437,-0.537315177089,0.021786926281,0.727936181512,-0.425354729561
1470076167359852068,-0.00811787974089,0.0078381318599,0.201077595353,-0.53960386538,0.0223248353437,0.728163821944,-0.422026916921
1470076167433402098,-0.00808302406222,0.00788673665375,0.201043754816,-0.546891756224,0.023141231749,0.728211032137,-0.41241069705
1470076167506710649,-0.00806335359812,0.00794700812548,0.201007887721,-0.549948366116,0.0233686520772,0.728054168578,-0.408592496655
1470076167579827104,-0.00808910932392,0.00800743326545,0.200872197747,-0.528629925196,0.0208065256568,0.728175781048,-0.435749380461
