%time,field.position.x,field.position.y,field.position.z,field.orientation.x,field.orientation.y,field.orientation.z,field.orientation.w
1470133504986772985,-0.036516290158,0.377490192652,1.36025321484,-0.00412977313831,0.0008064680387,-0.408203510843,-0.912881256418
1470133505108751190,-0.0365191660821,0.376762539148,1.35764670372,-0.00586521089499,0.00155857429907,-0.406401284862,-0.913674540419
1470133505191073878,-0.0365182384849,0.377513736486,1.36033785343,-0.00307646693651,0.000361278167333,-0.408285856679,-0.912848872522
1470133505272785904,-0.0365191660821,0.376762539148,1.35764670372,-0.00586521089499,0.00155857429907,-0.406401284862,-0.913674540419
1470133505353689620,-0.0365193970501,0.377146452665,1.35902202129,-0.00413703028791,0.000815286905621,-0.407369879598,-0.913253525306
1470133505431624291,-0.0365157611668,0.37786591053,1.36159908772,-0.00271206847554,0.000203399411251,-0.409150762295,-0.912462742816
1470133505513017344,-0.0365174114704,0.377122581005,1.35893630981,-0.00517505743109,0.00125673623636,-0.407287798136,-0.913284341749
1470133505587189565,-0.036516290158,0.377490192652,1.36025321484,-0.00412977313831,0.0008064680387,-0.408203510843,-0.912881256418
1470133505666140338,-0.0362647362053,0.382691979408,1.36978507042,-0.279590506968,0.029095410517,0.774104252624,-0.567225891131
1470133505740024051,-0.0343822054565,0.366255700588,1.33868312836,-0.193378742034,0.0239302683053,0.788316326181,-0.583600354922
1470133505818306446,-0.033264901489,0.360934019089,1.35910534859,-0.274959588128,0.0308490294376,0.783701643391,-0.556109068822
1470133505897191121,-0.0342554822564,0.327329069376,1.33675014973,-0.111534763885,0.0163132854845,0.802252309203,-0.586246625184
1470133505972608584,-0.0342301204801,0.306705445051,1.33342409134,-0.217372398677,0.0292702515659,0.793408073378,-0.567799367529
1470133506048333779,-0.0331801958382,0.289334475994,1.31485438347,-0.288889342276,0.0372209655973,0.790713915766,-0.538450602241
1470133506126590161,-0.0318592973053,0.273741304874,1.29220318794,-0.267452067898,0.0400537802146,0.79368254032,-0.544915691881
1470133506198547162,-0.029796095565,0.251781851053,1.29515552521,-0.252884876332,0.0402231642617,0.795517804452,-0.549165511644
1470133506275081021,-0.0295175686479,0.234011545777,1.28983283043,-0.2303563856,0.0303359890264,0.791306610592,-0.565552394934
1470133506349539604,-0.0280873626471,0.213549762964,1.26443171501,-0.096225217902,0.0124345849112,0.793460684682,-0.600837940215
1470133506424535648,-0.0274297222495,0.187998011708,1.25047278404,-0.241313886182,0.036303651458,0.801421948018,-0.546051750718
1470133506497380374,-0.0262117292732,0.168267160654,1.22965180874,-0.16997005877,0.0285733592477,0.806007818758,-0.566255364976
1470133506570478937,-0.0262822527438,0.15183994174,1.23091042042,-0.153621611667,0.0238959168221,0.802915116873,-0.575462162687
1470133506649056089,-0.0261984020472,0.135412096977,1.22928500175,-0.202242870279,0.0302299367626,0.795134637322,-0.570915826437
1470133506724208600,-0.0264836195856,0.108911469579,1.19605636597,-0.212469487703,0.0389754376471,0.808548646661,-0.547345154393
1470133506798746321,-0.026540171355,0.0959870964289,1.19766771793,-0.195973288401,0.0319532451328,0.801783139453,-0.563664135498
1470133506875530923,-0.0266166646034,0.0845704898238,1.19929754734,-0.152093869207,0.019214527364,0.787079306802,-0.597498470033
1470133506952319849,-0.0265536811203,0.0718872472644,1.19795632362,-0.199838072074,0.0296761152759,0.794389865032,-0.572825292272
1470133507024867135,-0.0264579039067,0.0523631758988,1.19270956516,-0.219406195921,0.0221923101449,0.772733824736,-0.595189766941
1470133507095449672,-0.0260358732194,0.0410720519722,1.14961385727,-0.311805186694,0.0508158839355,0.800931116911,-0.508630138169
1470133507172790078,-0.0254636202008,0.0333322994411,1.142365098,-0.208127893427,0.0275773074796,0.79192396059,-0.573392285206
1470133507249849718,-0.0253201425076,0.0257554817945,1.14109373093,-0.13139335384,0.0189654032783,0.796870970027,-0.589383370289
1470133507326303487,-0.0250097792596,0.0152813876048,1.1336337328,-0.454372005985,0.0504193123743,0.760647142737,-0.460890331166
1470133507398769362,-0.0246884264052,0.00985834281892,1.12715876102,-0.399385177031,0.0339015210734,0.757867603699,-0.514760976085
1470133507476677753,-0.0240919217467,0.00601760158315,1.1169103384,-0.31249890471,0.0318332717175,0.774429862188,-0.54917161791
1470133507554027746,-0.0238417256624,0.00154475437012,1.11437523365,-0.00438599478302,0.00172621528595,0.634488065891,0.772918286414
1470133507626262328,-0.0236694701016,-0.00273077888414,1.10913014412,-0.411119766839,0.0194614638351,0.735005954758,-0.53885808448
1470133507697391257,-0.0237120613456,-0.00438610697165,1.07959103584,-0.190415954697,0.0205080559982,0.786206389775,-0.587537825603
1470133507769530924,-0.0230777841061,-0.00694580934942,1.06601941586,-0.398505014121,0.0463723787006,0.773178959079,-0.491159498993
1470133507840003930,-0.022907840088,-0.00698565971106,1.06528198719,-0.268573327856,0.0277813788901,0.777290859376,-0.568256528763
1470133507920501984,-0.0228392295539,-0.00831247586757,1.0513958931,-0.223542484511,0.0181763295793,-0.654652349464,-0.721892429662
1470133507996487194,-0.0229712743312,-0.00699659483507,1.03708803654,-0.372562432994,0.0141694153889,0.730528021429,-0.572123475394
1470133508078159061,-0.0229802373797,-0.00642376299948,1.03795981407,-0.182874829001,0.0108269407237,0.756067774861,-0.628331993527
1470133508155702785,-0.0226301625371,-0.00507925404236,1.03062665462,-0.383816567647,0.0298545720251,0.7539915653,-0.532250191531
1470133508231444955,-0.0225303377956,-0.00401141261682,1.00194358826,-0.417379321878,0.0422344908144,0.765590205386,-0.487731880106
1470133508305795558,-0.0222826376557,-0.00221204780973,0.996451079845,-0.342064411183,0.0366047141654,0.773273054987,-0.532635725363
1470133508383370147,-0.0220735091716,-0.000478836154798,0.99456423521,-0.27686458555,0.0278409772761,0.769828099428,-0.574400190272
1470133508464031255,-0.0224548522383,0.00254008593038,0.973340570927,-0.300866378314,0.0038046932979,0.715837792267,-0.630112055012
1470133508539279854,-0.0223999023438,0.00497094448656,0.973366498947,-0.122620708501,0.00624154282407,0.758018349322,-0.640572702416
1470133508619269457,-0.0224319212139,0.00700329942629,0.95495647192,-0.232888100109,0.0277447898163,-0.634386388863,-0.736578080784
1470133508693714505,-0.0219394341111,0.00993688777089,0.939558207989,-0.358037345319,0.0325919555011,0.764755616379,-0.534692314336
1470133508771628271,-0.0216000452638,0.0135999619961,0.9347012043,0.610827721629,-0.000105666113206,0.707168293476,-0.356093369815
1470133508848007942,-0.0211874097586,0.0168681126088,0.927483379841,-0.413434733681,0.0273067264235,0.74648056188,-0.520665760746
1470133508924761268,-0.0211765449494,0.0188455171883,0.904611766338,-0.383074036434,0.0315301082223,0.758220586331,-0.526651381229
1470133508996692044,-0.0207341816276,0.022395234555,0.8978048563,-0.548030819103,0.0283105444001,0.730929120527,-0.405713390406
1470133509073163183,-0.0211091544479,0.0251944698393,0.883070886135,-0.0975893139726,0.00632978672013,0.758429771611,-0.644376086717
1470133509148245407,-0.0209093801677,0.0267596188933,0.88059514761,-0.331745878034,0.0286138481199,0.758695609591,-0.559916861767
1470133509220659523,-0.0208935886621,0.029766863212,0.858187973499,-0.264322296296,0.0254166968838,0.773583681316,-0.57537466333
1470133509293744275,-0.0205303356051,0.0316545367241,0.852412819862,-0.373055546,0.029322902254,0.756797899118,-0.535935319691
1470133509367938938,-0.0205626729876,0.0329178906977,0.842342197895,-0.0383031349624,0.00105852856313,0.632564000332,0.773559651774
1470133509444894715,-0.0206639952958,0.0359624326229,0.835383951664,-0.120919956423,0.00699377168557,0.752881032586,-0.646915452025
1470133509518831673,-0.0206548180431,0.0373674221337,0.815973222256,-0.278738272667,0.0230728306008,0.76339181438,-0.582241837707
1470133509591706756,-0.0202273912728,0.0389386042953,0.809037864208,-0.458724460306,0.0409455089471,0.754863914836,-0.466985872262
1470133509664894545,-0.0204339027405,0.0390121340752,0.794330835342,-0.311238069347,0.0201654723465,0.752097377692,-0.580580530489
1470133509735730217,-0.0201970152557,0.0393471568823,0.790841758251,-0.432995613111,0.00961177797508,0.720796590673,-0.541178979289
1470133509806292350,-0.0199902877212,0.0399507731199,0.77141046524,-0.276822690341,0.0237375412413,0.767237611249,-0.578058972021
1470133509878655792,-0.0196850132197,0.0402276329696,0.76763767004,-0.17760774194,0.00839813037167,0.745206933511,-0.642690895887
1470133509951061375,-0.0194695033133,0.0399967171252,0.749303281307,-0.332701322602,0.0294563470948,0.764274175616,-0.551658533915
1470133510028569511,-0.0191220771521,0.0403654202819,0.743931055069,-0.287133725671,0.0164825699641,0.748072359635,-0.598055426546
1470133510104397102,-0.018707877025,0.0414260327816,0.739076554775,-0.274759509177,0.0190154777355,0.755913060325,-0.593920086336
1470133510178859936,-0.0183868054301,0.0413185656071,0.71929693222,-0.43274664609,0.041928978649,0.759683209089,-0.483584245893
1470133510252876931,-0.0182842556387,0.0425139293075,0.717968046665,-0.178153109714,0.00770987738935,0.746146048903,-0.64145779362
1470133510324092654,-0.018219044432,0.042056016624,0.702422738075,-0.325444172718,0.0182326550096,0.74909696165,-0.576721252237
1470133510402126999,-0.0182934850454,0.0415537320077,0.689075946808,-0.383104856813,0.0228841254923,0.745196211878,-0.54533438484
1470133510478980724,-0.0183980837464,0.0412814691663,0.677408397198,-0.425591882154,0.037319188636,0.755441735038,-0.496776220211
1470133510552554396,-0.0184073783457,0.0402188412845,0.664427280426,-0.420333606766,0.0322340381979,0.750557013961,-0.508866185356
1470133510625921868,-0.0185561850667,0.0400687418878,0.653090000153,-0.263496823249,0.0192721645101,0.760406191005,-0.593279388227
1470133510697040747,-0.0181076526642,0.0394162982702,0.648289263248,-0.626637390696,0.0302203569623,0.722391356336,-0.29079724706
1470133510771195222,-0.0180293638259,0.0391154550016,0.635395407677,-0.475486078088,0.0401929801825,0.750268585924,-0.457596506612
1470133510847733241,-0.017695389688,0.0381419621408,0.62058609724,-0.48015815158,0.0354546127494,0.744535029558,-0.46244860219
1470133510925279111,-0.0177617333829,0.0379852242768,0.609817564487,-0.295379646624,0.0215790915474,0.757643988434,-0.581601920525
1470133511004376799,-0.0173597689718,0.0374049060047,0.604456007481,-0.459876882189,0.0161044913446,0.727967836483,-0.508248686799
1470133511079683552,-0.0171311683953,0.036967780441,0.592895150185,-0.422965589783,0.0334563232061,0.752332046691,-0.50396158169
1470133511154527441,-0.0171557869762,0.03617580235,0.582592368126,-0.311276450572,0.0191730487306,0.749354652981,-0.584129240475
1470133511233081265,-0.0167459454387,0.0344038046896,0.568510890007,-0.308857245227,0.0179724981455,0.746902695082,-0.588575021098
1470133511311999339,-0.0166045259684,0.033441722393,0.557974278927,-0.40151737036,0.0317672522,0.753612535893,-0.51946394363
1470133511388893938,-0.0163798425347,0.0318373143673,0.546635508537,-0.488220267345,0.037178002651,0.745286001422,-0.45255667353
1470133511462530203,-0.0160025786608,0.0302113927901,0.534268081188,-0.490561949761,0.0366913642933,0.744419831406,-0.45148846258
1470133511538427601,-0.0159007031471,0.0291200559586,0.524850308895,-0.458882928812,0.0349681481953,0.749393470946,-0.476038981555
1470133511617060967,-0.0157387051731,0.0278323274106,0.515147924423,-0.416543354074,0.0318788858808,0.751263953958,-0.510957769581
1470133511691256550,-0.0151893664151,0.0257635619491,0.501721560955,-0.497668723156,0.0354470928757,0.742940562404,-0.44621594137
1470133511767756418,-0.014946995303,0.0245740208775,0.492360681295,-0.539425625179,0.037223897473,0.739089278903,-0.401723056556
1470133511845267473,-0.0147084714845,0.023664502427,0.482922613621,-0.524856982813,0.0378073499094,0.741253170304,-0.41670071922
1470133511920967667,-0.0146950827911,0.0225801467896,0.474241882563,-0.405608893169,0.0163054635276,0.732802940009,-0.546091026072
1470133511995394732,-0.01415311452,0.021201973781,0.457739949226,-0.488024025699,0.0364126683504,0.746198546513,-0.45132515674
1470133512072563169,-0.0140609173104,0.0202815774828,0.449480682611,-0.385399185965,0.0186320580031,0.739778006551,-0.551224831531
1470133512146627386,-0.01363806054,0.0192472804338,0.440043359995,-0.456901304624,0.0293369875635,0.743388569791,-0.487600218721
1470133512221135964,-0.0133276432753,0.017837587744,0.425316154957,-0.350664642381,0.0172077083779,0.740858842283,-0.5725961746
1470133512294912098,-0.0129281030968,0.0168330483139,0.415800243616,-0.499744065173,0.0337758641934,0.742299915487,-0.445090884866
1470133512374988976,-0.0128595083952,0.0158505421132,0.40563505888,-0.439785819154,0.0239310078044,0.740478129186,-0.50764936751
1470133512449417190,-0.012726854533,0.0148372109979,0.393637031317,-0.324462833169,0.0136015822467,0.737643622703,-0.591963472469
1470133512522792509,-0.0123949870467,0.013281552121,0.377969890833,-0.368933500477,0.0142926471675,0.734554168643,-0.569310078773
1470133512598547582,-0.0119588850066,0.0127014433965,0.370077729225,-0.507771146135,0.0307641215823,0.737834355863,-0.443646813676
1470133512672003632,-0.0120150474831,0.012026627548,0.362065494061,-0.452811919117,0.0270451725423,0.741349673154,-0.494601442237
1470133512747753985,-0.0118131814525,0.0113068055362,0.348299354315,-0.410462281761,0.0237706484196,0.743295776722,-0.527699781915
1470133512830640983,-0.0117004476488,0.0109201362357,0.339282810688,-0.36547441522,0.0155509323165,0.736980706374,-0.568371409166
1470133512912467515,-0.0114560229704,0.0105851413682,0.329872667789,-0.357212039055,0.0153144865663,0.737347077694,-0.573135509869
1470133512986790948,-0.0112272314727,0.0102916173637,0.320368915796,-0.293980608601,0.0125037773013,0.739783595891,-0.605094445992
1470133513058693286,-0.0109732486308,0.0100338198245,0.310702264309,-0.419114193678,0.021554177013,0.739370684418,-0.526507076053
1470133513133279405,-0.0108398171142,0.00977839250118,0.297159910202,-0.368544625277,0.0149472130807,0.736326522877,-0.567251876778
1470133513211398082,-0.0106656514108,0.00990776810795,0.290988087654,-0.447797165977,0.0227669427637,0.737712498547,-0.504717380271
1470133513290200443,-0.0105535164475,0.010163994506,0.288470119238,-0.417309200988,0.0238152274493,0.741725442955,-0.524527628429
1470133513365484682,-0.0104460967705,0.0104624573141,0.288926899433,-0.453162462894,0.0258056819144,0.739818108303,-0.496635697097
1470133513442757321,-0.0104910153896,0.010808727704,0.288640886545,-0.42934346045,0.0251892345005,0.741944581006,-0.514342234461
1470133513517683432,-0.0106024155393,0.0112001728266,0.288488745689,-0.461095190964,0.025638646227,0.73906020735,-0.490432354765
1470133513590579380,-0.0106780631468,0.0123434914276,0.288561940193,-0.467080106365,0.0236699483479,0.736905001287,-0.488105446457
1470133513668236406,-0.0106487702578,0.0131412670016,0.288583695889,-0.490869550917,0.0262376887769,0.73650811901,-0.464665964217
1470133513744683315,-0.0106953084469,0.0139955412596,0.288579136133,-0.473958746996,0.0237088611526,0.735911436802,-0.482944461851
1470133513816769407,-0.0107314148918,0.0149210970849,0.28863760829,-0.47439478862,0.0222750522783,0.734581641834,-0.484606250534
1470133513890270783,-0.0107081457973,0.0155173782259,0.288625061512,-0.483325970201,0.0244660567805,0.735434982991,-0.474270813341
1470133513967857130,-0.010721235536,0.0159939769655,0.288687258959,-0.496431392851,0.0246489931917,0.734119698993,-0.462619246117
1470133514042332786,-0.0107357557863,0.0164732988924,0.288676768541,-0.488830470084,0.0237469778868,0.734204071572,-0.470558427664
1470133514121352489,-0.0107173072174,0.017142880708,0.288768947124,-0.502813059744,0.0256764404613,0.734627550617,-0.454798976726
1470133514201891259,-0.0107104061171,0.0175616126508,0.288694351912,-0.503674866979,0.0252506022185,0.73408300453,-0.454748477647
1470133514279476324,-0.0107415132225,0.0179695170373,0.288708686829,-0.50076647044,0.024591721889,0.733669953886,-0.458646473946
1470133514363058964,-0.0107192443684,0.0181720033288,0.28875619173,-0.503774574776,0.0256402649181,0.734367747035,-0.454156103933
1470133514440001904,-0.0106815556064,0.0183261521161,0.288612067699,-0.514741854219,0.02679615931,0.7342040156,-0.441890543957
1470133514518837417,-0.0107231233269,0.0184303466231,0.288648605347,-0.495936204033,0.0236673306613,0.733414358808,-0.464317259298
1470133514592317513,-0.0107065178454,0.0190304890275,0.288784205914,-0.519760368267,0.0257294271308,0.732889137912,-0.438247267748
1470133514667410798,-0.010702772066,0.0195690430701,0.288725763559,-0.510604115649,0.0254150660129,0.733516488612,-0.447873947039
1470133514744175893,-0.0107316682115,0.019542876631,0.288755685091,-0.501071338452,0.0246280429087,0.733544405924,-0.458512352966
1470133514819640655,-0.0107439281419,0.0193805135787,0.288794189692,-0.502544743437,0.0239677267413,0.732991610959,-0.457818334257
1470133514892454129,-0.010688197799,0.0192466787994,0.288803458214,-0.527685341882,0.0273168483241,0.733151604461,-0.428124625123
1470133514965431556,-0.0107144843787,0.0190279595554,0.2887327075,-0.510780922938,0.0252485287507,0.733124788779,-0.448322879895
1470133515036461451,-0.0106486044824,0.0188161358237,0.288708657026,-0.533684278774,0.0297094804243,0.73427127275,-0.418502252536
1470133515110598385,-0.0107469065115,0.0184339210391,0.288800090551,-0.501023764584,0.0231057455071,0.732204136431,-0.460780223577
1470133515185159200,-0.010717918165,0.0181270781904,0.288813918829,-0.512538098435,0.0254341123632,0.733189630032,-0.446195887469
1470133515259856090,-0.0106958346441,0.0178599711508,0.288748085499,-0.520347059034,0.0266114616392,0.733311494213,-0.436789446667
1470133515339236168,-0.0107295615599,0.0174772348255,0.288778424263,-0.509101847927,0.0244769370989,0.732517179246,-0.451259094198
1470133515417939806,-0.0106928907335,0.0171208698303,0.288759201765,-0.512583773596,0.0265604923823,0.734122666397,-0.444540578545
1470133515492633950,-0.0106735518202,0.0168132893741,0.28874373436,-0.528133151004,0.0278361365517,0.733429671411,-0.427061402385
1470133515565722086,-0.0106776738539,0.0162439923733,0.288748919964,-0.522749056892,0.0271886991921,0.733661049657,-0.433284735908
1470133515640506039,-0.0106728654355,0.0158394239843,0.288778483868,-0.52710447244,0.0277689435145,0.733425630935,-0.42834169164
1470133515714428428,-0.0107701402158,0.015405212529,0.288834691048,-0.483913657101,0.0217231031989,0.732790165712,-0.477885187356
1470133515794010816,-0.0106659382582,0.0147793795913,0.288759440184,-0.534600505792,0.0281479988737,0.732962548059,-0.419733120577
1470133515866915987,-0.010713855736,0.0144220497459,0.288768053055,-0.506922025435,0.024137062581,0.732666790063,-0.453483006382
1470133515943811598,-0.0107027217746,0.0140434727073,0.288860559464,-0.509099469364,0.0254440269784,0.733279832379,-0.449967797971
1470133516023028443,-0.0106592876837,0.0136428000405,0.288916826248,-0.517447245336,0.02617573535,0.733083538245,-0.440626491631
1470133516103962208,-0.0106612183154,0.0131956711411,0.288914471865,-0.525488115685,0.026921049099,0.733037678844,-0.431037421559
1470133516178708488,-0.0106622250751,0.0128851439804,0.288818508387,-0.515438684378,0.0250036287161,0.732652013118,-0.443755347994
1470133516250865078,-0.0106402533129,0.0125517770648,0.288985103369,-0.512009890338,0.0259787557238,0.733431334968,-0.446373670072
1470133516322198214,-0.0106450496241,0.0120872342959,0.289007335901,-0.514530677606,0.0258532653342,0.732966456632,-0.444240885024
1470133516395838999,-0.0106445895508,0.0118285277858,0.289030313492,-0.52013560963,0.0247305981012,0.731897839348,-0.439514388694
1470133516473885927,-0.0106144612655,0.0115260947496,0.288987457752,-0.52370587474,0.0262905403721,0.732427643443,-0.434270320619
1470133516546593204,-0.0105786724016,0.0112265050411,0.289063185453,-0.52477338009,0.0280038770462,0.73383307577,-0.430485422896
1470133516620772392,-0.0106579102576,0.0109258666635,0.289242893457,-0.504527476597,0.0229419271286,0.73198220776,-0.45730486643
1470133516694036139,-0.0106171295047,0.0106973433867,0.289091944695,-0.524703802105,0.0258700181063,0.732249267121,-0.433390900943
1470133516766808242,-0.0106568327174,0.0106215523556,0.288841277361,-0.506084025821,0.0262250272095,0.734230777577,-0.451770264642
1470133516838701081,-0.0107000721619,0.0104518979788,0.288732349873,-0.514649444801,0.0256323991963,0.733176006041,-0.443770067989
1470133516910808202,-0.0107350787148,0.0102419601753,0.288763523102,-0.495869532619,0.0241800594688,0.733916180054,-0.463568519206
1470133516982319303,-0.0107167046517,0.0101552000269,0.288776159286,-0.510693020556,0.0260143919421,0.733763162466,-0.447333780945
1470133517055242438,-0.0107078496367,0.0100833950564,0.288763254881,-0.511093500776,0.0262699778475,0.733771932921,-0.446846810647
1470133517127444939,-0.0106934048235,0.0100226243958,0.288749188185,-0.523293529911,0.0274394780477,0.733601996041,-0.432711298677
1470133517198411218,-0.0107049532235,0.0099920714274,0.288743704557,-0.519811538818,0.0267196626793,0.733430701605,-0.437220115823
1470133517276880811,-0.0107100000605,0.00992739293724,0.288774073124,-0.526221494491,0.0261248416918,0.732292913135,-0.431457437941
1470133517354437641,-0.0106948027387,0.0100721064955,0.288705796003,-0.521129682846,0.027000755963,0.733350151659,-0.435766414373
1470133517426979762,-0.0107263401151,0.0103392750025,0.288698762655,-0.513656277563,0.0233723392216,0.731486736551,-0.447814823928
1470133517508632170,-0.0106622381136,0.0104876998812,0.288617551327,-0.524801986938,0.0269012555346,0.732955579007,-0.432013097208
1470133517591582346,-0.0105724707246,0.0105021949857,0.288856834173,-0.538556195054,0.0277792543178,0.732086201283,-0.416215487086
1470133517665288078,-0.0105738239363,0.0105268480256,0.288922578096,-0.542372522654,0.0273069805523,0.731221362277,-0.41279740168
1470133517738466468,-0.0105919465423,0.0105934431776,0.288969695568,-0.532759055134,0.0256795142863,0.730933768429,-0.425727821371
1470133517812960533,-0.0106952274218,0.01067374181,0.288994878531,-0.505253848762,0.0204546039442,0.729477908696,-0.460610614525
1470133517886160646,-0.0106558408588,0.0109124295413,0.288815766573,-0.52274807162,0.0249111166914,0.731618916773,-0.436861134119
1470133517964465097,-0.0106425723061,0.0110531337559,0.288801074028,-0.52005587801,0.0259905284299,0.732564615508,-0.438423836356
1470133518041400714,-0.0106863137335,0.0111910002306,0.288861483335,-0.507433781197,0.0236657939411,0.732147612912,-0.453773909348
1470133518119754125,-0.0107182944193,0.011323668994,0.288737952709,-0.511041938931,0.0223183340581,0.730639823896,-0.452220605851
1470133518198693598,-0.0107306325808,0.0116772949696,0.288859218359,-0.504360289964,0.0223772485296,0.731434907441,-0.458391680588
1470133518279023541,-0.0106036420912,0.0120352031663,0.289063990116,-0.553402520994,0.02646978762,0.729511442478,-0.401071135079
1470133518352537597,-0.010570814833,0.0121444640681,0.28942489624,-0.553167854305,0.0249478315821,0.728565543185,-0.403206125879
1470133518428109370,-0.0105013139546,0.0119806537405,0.289420366287,-0.563427834868,0.0274924170367,0.729128194089,-0.387511701096
1470133518504515056,-0.0106142582372,0.0117501942441,0.289175182581,-0.540531970888,0.0214124274228,0.727485450847,-0.42205641235
1470133518576947073,-0.0105663836002,0.0119144851342,0.288625508547,-0.55536355207,0.027893854928,0.730506323977,-0.396426246002
1470133518652666860,-0.0106434896588,0.0120457503945,0.288369953632,-0.515792479729,0.0242579173133,0.731725489129,-0.444912890196
1470133518723863684,-0.0106351254508,0.0123134898022,0.288359194994,-0.526957769125,0.0248200147404,0.731276502052,-0.432358825483
1470133518797096602,-0.010633056052,0.0125259459019,0.288138836622,-0.514698525761,0.0236429179326,0.731400020127,-0.44674427872
1470133518868868640,-0.0105708111078,0.0124526210129,0.287954032421,-0.532787935399,0.0262150732779,0.731752938045,-0.424249246892
1470133518941095803,-0.0105602312833,0.0126158036292,0.287629067898,-0.539315585226,0.0255896501587,0.730580230532,-0.4180148276
1470133519014182142,-0.0105493646115,0.0127463117242,0.287635713816,-0.542563372756,0.026792730659,0.730951497586,-0.413058160923
1470133519091991800,-0.0105649670586,0.0128471124917,0.287723332644,-0.54387283803,0.0256679072415,0.730116670107,-0.412883933598
1470133519167416965,-0.0105575937778,0.0128078274429,0.28772893548,-0.549939739607,0.0269737315577,0.73036148942,-0.4042410115
1470133519242270742,-0.0105922492221,0.0126689635217,0.28778898716,-0.538665858293,0.025360786898,0.730106988305,-0.419690015637
1470133519315397499,-0.0106319487095,0.0125533398241,0.287830591202,-0.534269717988,0.0228393788252,0.728914565818,-0.427455011614
1470133519394544162,-0.0105774328113,0.0124558601528,0.287825584412,-0.559416370036,0.02681775771,0.729281122412,-0.393043480165
1470133519473942568,-0.010578148067,0.0122635252774,0.287851393223,-0.544707711471,0.0265657027754,0.730499906716,-0.411044594647
1470133519550247688,-0.0106528308243,0.012045561336,0.287877440453,-0.524834905983,0.0217217261187,0.728994976673,-0.438910938643
1470133519623222676,-0.0105586778373,0.0118380086496,0.287830978632,-0.557865510116,0.0274739246675,0.729898964962,-0.394054256459
1470133519699847804,-0.0106017775834,0.0116425529122,0.287808418274,-0.536886336112,0.0248529934537,0.730039384541,-0.422111226848
1470133519784304159,-0.0105756558478,0.0114075299352,0.287877082825,-0.544792455399,0.0264056663685,0.730475082951,-0.410986708438
1470133519863950207,-0.0105787031353,0.0112385964021,0.287798762321,-0.532138054839,0.0260498754243,0.731330572353,-0.425800526684
1470133519938339619,-0.0105932028964,0.0109508521855,0.287920027971,-0.53967633793,0.0252088184738,0.730296265149,-0.418068571958
1470133520017391741,-0.0105662718415,0.0107402307913,0.287789434195,-0.537876616867,0.0267803147061,0.731338899558,-0.418467410638
1470133520091833405,-0.0106757115573,0.0105423135683,0.287918925285,-0.508690963684,0.0201219972708,0.729160269377,-0.457333478168
1470133520168147337,-0.0105799315497,0.0102266538888,0.287760078907,-0.535946626605,0.0261609639045,0.731020907209,-0.421527283365
1470133520244671503,-0.0106521733105,0.010074804537,0.287857115269,-0.50975549632,0.0212501257366,0.729953370425,-0.454825068717
1470133520320077114,-0.0105502353981,0.00987394712865,0.287807494402,-0.546349885304,0.0275866437704,0.731201377169,-0.407535674438
1470133520392502414,-0.0105991754681,0.00965165905654,0.287839710712,-0.533235821085,0.0244827079909,0.730167014614,-0.426516455592
1470133520469361912,-0.0106353452429,0.0095314309001,0.287831217051,-0.518911295482,0.022012716625,0.729893159916,-0.444412514267
1470133520547456577,-0.0105536142364,0.00930230971426,0.287778258324,-0.53562736025,0.0272130987971,0.731943284794,-0.420263971868
1470133520619613883,-0.0106249563396,0.00900188088417,0.288007557392,-0.519978530914,0.0234762459828,0.730872761711,-0.441470496694
1470133520691575485,-0.0105605591089,0.00885882880539,0.287982285023,-0.548522800749,0.0286627277525,0.731661788759,-0.403698169386
1470133520768689244,-0.0105764148757,0.00889390707016,0.288048326969,-0.550936125413,0.0280749724535,0.731009775634,-0.401629044721
1470133520847192949,-0.0107093444094,0.00903698708862,0.288186401129,-0.501606312771,0.0198328075571,0.729421064068,-0.464696328828
1470133520925717312,-0.0106051294133,0.00894444063306,0.287868589163,-0.532297911932,0.0245494897546,0.730476743317,-0.427153348317
1470133521003949244,-0.0105415405706,0.00883142370731,0.287591814995,-0.544532658543,0.0274050329368,0.731118800036,-0.410120041188
1470133521077535987,-0.0105445804074,0.00881497282535,0.287455886602,-0.538071006694,0.0259557926913,0.73071811062,-0.419352991396
1470133521156476743,-0.0105530600995,0.00881160888821,0.287282377481,-0.526822106148,0.0244477528911,0.730783506005,-0.433377714243
1470133521231968425,-0.0105012496933,0.00873415824026,0.287015616894,-0.550454822936,0.0260598555235,0.729771805734,-0.404664655476
1470133521303840177,-0.0106081720442,0.00879194308072,0.286900758743,-0.511871585389,0.0186072280053,0.727773828916,-0.456055375018
1470133521375524208,-0.0106152063236,0.00881644897163,0.286256402731,-0.502149347029,0.0211723690038,0.730860421722,-0.46178004291
1470133521450483881,-0.0106366695836,0.00881182029843,0.285588532686,-0.508062839964,0.0231208177442,0.73185332168,-0.45357281001
1470133521533432732,-0.0105616059154,0.00889050960541,0.285238623619,-0.531231529086,0.0272065893857,0.732554733814,-0.424754547905
1470133521610368886,-0.0105626629665,0.00894465576857,0.285045862198,-0.529390662008,0.0252335066586,0.73112535406,-0.429609722621
1470133521683734033,-0.0106252469122,0.00900821387768,0.284788310528,-0.489847221447,0.0186774547849,0.729198454475,-0.477462528702
1470133521755932570,-0.0104668522254,0.00905910227448,0.284338265657,-0.544414540974,0.0254994502973,0.729666660563,-0.412975967914
1470133521830541358,-0.0104119684547,0.00909340009093,0.284066587687,-0.551158734641,0.0270649165879,0.73012852149,-0.402993649609
1470133521904100971,-0.0103841219097,0.0090563967824,0.283770352602,-0.586746425386,0.0286545325993,0.727526647787,-0.354418575723
1470133521978964739,-0.0103987054899,0.00903810095042,0.28347992897,-0.570985128747,0.0283743137813,0.729050610523,-0.376372273638
1470133522055338376,-0.0104621620849,0.00895980466157,0.282674342394,-0.550214764261,0.0278453282309,0.731026567677,-0.402602171177
1470133522132559376,-0.0105130467564,0.00897881947458,0.282334297895,-0.526418451358,0.0266496072517,0.732595631151,-0.43067046999
1470133522206387545,-0.0105027901009,0.00893948413432,0.282133668661,-0.517323546861,0.0263439207601,0.733241776459,-0.4404984029
1470133522283904423,-0.0104644568637,0.008824092336,0.281979739666,-0.525339564195,0.027066740365,0.733184749791,-0.430959228386
1470133522362372624,-0.0105419475585,0.00902502890676,0.281784415245,-0.491586326714,0.0195437091638,0.730202841669,-0.474093595019
1470133522445282223,-0.0105640226975,0.00933376885951,0.281493812799,-0.467008088495,0.0154014259897,0.728061887454,-0.501589602559
1470133522517800526,-0.010341909714,0.00959501136094,0.281237751245,-0.552298675618,0.02695992059,0.730017254029,-0.401639321298
1470133522590232931,-0.0104702450335,0.00978319346905,0.281158417463,-0.504364289288,0.0177765913211,0.727332561214,-0.465067739034
1470133522662366422,-0.0103158252314,0.0100494632497,0.280704796314,-0.555716477119,0.0251726245038,0.728406585759,-0.399961725491
1470133522736521232,-0.010251428932,0.0102276047692,0.280261278152,-0.594559818893,0.028071026152,0.726414966481,-0.34355776184
1470133522812555300,-0.0103705190122,0.0103750815615,0.279514044523,-0.560823912103,0.0254767839808,0.728450612917,-0.392666751372
1470133522884930722,-0.0104919541627,0.0104723293334,0.278911888599,-0.481892363682,0.0190715406926,0.730806133751,-0.48305115778
1470133522959019876,-0.0104463826865,0.010478137061,0.278798282146,-0.503292640912,0.0213338946634,0.730857750519,-0.460530488729
1470133523031694156,-0.0103810401633,0.0105015570298,0.278646886349,-0.529259455003,0.024155622494,0.730590029717,-0.430742549175
1470133523104872953,-0.0103250788525,0.0105527145788,0.278441727161,-0.54822676277,0.026781942316,0.730474150624,-0.406371331935
1470133523177202525,-0.0104489857331,0.0107335224748,0.278315067291,-0.492220449385,0.017873579007,0.728373018179,-0.476311149114
1470133523255205058,-0.0103119732812,0.0108655896038,0.278130710125,-0.540758385832,0.0246220744504,0.729523878918,-0.418053862189
1470133523329278430,-0.0103266919032,0.0110556185246,0.277914524078,-0.539579808866,0.0217143130152,0.727584367332,-0.423087587727
1470133523403249576,-0.0102649359033,0.0111625958234,0.277684301138,-0.563279783446,0.0240018888122,0.726807156642,-0.392289627634
1470133523476303172,-0.0102221211419,0.0112528949976,0.277464151382,-0.593088986245,0.026767286509,0.725552700657,-0.347997478924
1470133523549081635,-0.0103354714811,0.0114197386429,0.277023613453,-0.576700445555,0.0214145582232,0.724225159136,-0.377433347316
1470133523620316138,-0.0103274295107,0.0116044580936,0.276225417852,-0.544755387075,0.0260696686137,0.730351518807,-0.411276791963
1470133523693484899,-0.0103535456583,0.0116772390902,0.276028573513,-0.532300617389,0.0243598147702,0.730294700431,-0.427471990514
1470133523769182593,-0.0103175472468,0.0117308432236,0.27582359314,-0.539964819882,0.0250201708602,0.730124810396,-0.418006872652
1470133523844933789,-0.0102991620079,0.0118132112548,0.275541305542,-0.542031319249,0.024404082759,0.72940547557,-0.416622301259
1470133523917961115,-0.0102606955916,0.0119150979444,0.275429904461,-0.554977235718,0.0266410832975,0.729584218614,-0.398744766065
1470133523989392080,-0.0103011364117,0.0121676856652,0.275338709354,-0.542606219055,0.0229143608965,0.728322679535,-0.417851047125
1470133524062683549,-0.0102351475507,0.0122299166396,0.27519261837,-0.554051847583,0.0257919444606,0.72925971717,-0.400676416455
1470133524134645212,-0.0102972947061,0.0121110128239,0.275097668171,-0.527817271753,0.0216069309653,0.728455949167,-0.436227003172
1470133524209447368,-0.010247644037,0.0115757063031,0.274751782417,-0.572287789333,0.0245763815753,0.726492468344,-0.379593705281
1470133524287518782,-0.0102835819125,0.0114203579724,0.274746239185,-0.585915318748,0.0238088080071,0.724893107904,-0.361478024272
1470133524361024915,-0.0101980268955,0.0113712977618,0.274678021669,-0.590466098853,0.0279690782214,0.726843811681,-0.349664968492
1470133524433859131,-0.010225540027,0.0113141620532,0.274655073881,-0.595340695782,0.0267994467874,0.725691546663,-0.343835752504
1470133524507631037,-0.0102428868413,0.0111671751365,0.274579286575,-0.579032039107,0.0264065241236,0.727033017377,-0.36803204319
1470133524579313470,-0.0102932509035,0.0110070956871,0.274440973997,-0.57556068112,0.0239450078147,0.726030376543,-0.375548174388
1470133524651077463,-0.0102204540744,0.0108481701463,0.274435192347,-0.581516834914,0.0282924077486,0.727991005428,-0.36203149917
1470133524722282386,-0.0102606797591,0.0106166452169,0.274263381958,-0.573081087096,0.0259286503543,0.727278216403,-0.376791943451
1470133524794895669,-0.0102925412357,0.0104556400329,0.274285107851,-0.564021609447,0.0249204780185,0.727747899415,-0.389411849781
1470133524866891201,-0.0102671626955,0.0103050516918,0.274307608604,-0.572658855098,0.0268937965697,0.727981476304,-0.376007353042
1470133524938842563,-0.0103136766702,0.0100696459413,0.274222016335,-0.560128320752,0.0237185622394,0.727208525227,-0.396057388436
1470133525009982069,-0.0102854352444,0.00995711050928,0.274313658476,-0.555800742209,0.0256390230914,0.728968904797,-0.398788805378
1470133525083217473,-0.0102633582428,0.00985166057944,0.274296849966,-0.562311135885,0.0269473125338,0.729116475833,-0.389190433434
1470133525160953163,-0.0103127369657,0.00963894557208,0.27423080802,-0.549622625211,0.0240731846632,0.728504175179,-0.408187601946
1470133525239873542,-0.0103417634964,0.00926369801164,0.273838013411,-0.531670405573,0.0255840484191,0.731216998864,-0.426607239596
1470133525313320857,-0.0103955436498,0.00889769382775,0.273733079433,-0.517675299162,0.0248336616697,0.731968795483,-0.442286396268
1470133525386521773,-0.0103681907058,0.0088433297351,0.273714512587,-0.532726338917,0.0265776821397,0.731907798952,-0.424036848009
1470133525462276413,-0.0103353708982,0.00906098168343,0.27400046587,-0.531553655117,0.0215033092401,0.728443920611,-0.431691758027
1470133525538742318,-0.0103516923264,0.00895321276039,0.273265361786,-0.501365451475,0.0221288230717,0.731386352601,-0.461754266344
1470133525612416853,-0.010301864706,0.00883049052209,0.273071527481,-0.527663222048,0.0233939136899,0.730008167092,-0.433719177441
1470133525685674444,-0.0102253546938,0.00868251454085,0.272785425186,-0.548317954454,0.02492276088,0.728924637667,-0.409139523164
1470133525759430866,-0.0101864673197,0.00859545078129,0.272458404303,-0.547458061027,0.0252048350934,0.729214848296,-0.409756138123
1470133525846125333,-0.0101732602343,0.00855014380068,0.272154986858,-0.542522149459,0.0242088437942,0.72904514114,-0.416625528994
1470133525933120290,-0.0101573215798,0.00848593283445,0.271952807903,-0.576541547682,0.0250280269604,0.726430510064,-0.373191848398
1470133526009779641,-0.0102745238692,0.00848209951073,0.271009773016,-0.536593758234,0.0213924007291,0.727853687387,-0.42642527314
1470133526089056166,-0.0102567775175,0.00840744096786,0.270511090755,-0.528100306266,0.0247369222182,0.731010872152,-0.431417727958
1470133526165431865,-0.0102400183678,0.00834152474999,0.270308077335,-0.518979154794,0.0235054265879,0.730820944417,-0.44272890013
1470133526238090245,-0.0102007053792,0.00827006902546,0.269918233156,-0.534557295409,0.022608584718,0.728755987918,-0.427378122856
1470133526315578857,-0.0101953707635,0.00827955827117,0.269708395004,-0.531361004791,0.0208129212257,0.727496951878,-0.43355563646
1470133526391120180,-0.01004632283,0.00833665207028,0.269265562296,-0.575340636891,0.0272114858152,0.727671305727,-0.372474371472
1470133526464072462,-0.0100226756185,0.00832479074597,0.268919587135,-0.58795103801,0.0274480261635,0.726690509451,-0.354233095907
1470133526540228222,-0.010111332871,0.00837271101773,0.268414080143,-0.562543727012,0.0251963307705,0.728000998653,-0.391055297976
1470133526617515891,-0.0102496836334,0.00844499561936,0.267677694559,-0.498791446316,0.0198102804625,0.729835242647,-0.467070834521
1470133526692592917,-0.0101523846388,0.00844581890851,0.267325788736,-0.524000414646,0.0232885441759,0.730372201406,-0.437535891755
1470133526771313461,-0.0100773880258,0.00842510163784,0.26702824235,-0.54144697821,0.0246910941225,0.729542681701,-0.417124675888
1470133526846775608,-0.0100290821865,0.00840528588742,0.266741067171,-0.549341990653,0.0258368647142,0.729544756723,-0.406595968579
1470133526920510117,-0.00999652873725,0.00836666114628,0.266502052546,-0.556887761587,0.0256837736719,0.728563047309,-0.398010365266
1470133526992941112,-0.0100718345493,0.00835007615387,0.265680968761,-0.549970293562,0.0234264482458,0.727701240075,-0.409187955485
1470133527068937654,-0.0101975332946,0.00841286033392,0.265002727509,-0.491679609047,0.0190555371018,0.729606255251,-0.474934480588
1470133527144038337,-0.010127287358,0.00841139815748,0.264728844166,-0.512768749355,0.0216167816979,0.729956236688,-0.451403164537
1470133527220051267,-0.0100228320807,0.00842469092458,0.264397829771,-0.543992248504,0.0254878225896,0.729960507399,-0.413013876408
1470133527293254084,-0.00998777803034,0.00839395821095,0.264207243919,-0.555871141394,0.0260162765609,0.729056521203,-0.398505980396
1470133527366688419,-0.0099567649886,0.00836970563978,0.264031291008,-0.559245876392,0.0264130467612,0.72894696523,-0.393932383259
1470133527445908571,-0.00992072280496,0.00835892558098,0.263805955648,-0.561837236346,0.0269878556512,0.72918217017,-0.389748557673
1470133527528277670,-0.00996543746442,0.00833763368428,0.263403773308,-0.562590519144,0.0244756858476,0.727326424868,-0.392287038099
1470133527605650845,-0.00996372755617,0.00838740542531,0.262874364853,-0.550166012853,0.024255530975,0.728332560793,-0.407750792038
1470133527678587279,-0.0100746257231,0.00840653665364,0.262288123369,-0.52626634224,0.0214924388958,0.728470195954,-0.438078743723
1470133527752671617,-0.0100413141772,0.00840480066836,0.26211103797,-0.534433917358,0.0226301965396,0.72852843326,-0.427918898991
1470133527829370999,-0.00997127499431,0.00842692796141,0.261788010597,-0.543972708592,0.0245131361288,0.729029553914,-0.414739325341
1470133527902899031,-0.00995083898306,0.00844378210604,0.261584162712,-0.543290077643,0.0243151576993,0.72895037775,-0.415783611292
1470133527976981185,-0.00992215052247,0.00847542379051,0.261336028576,-0.548086090686,0.0243624353564,0.728577267152,-0.410101541974
1470133528050420697,-0.00991256255656,0.00851477030665,0.260960310698,-0.561822602182,0.0227381354719,0.726184240282,-0.395594223971
1470133528127698395,-0.009884737432,0.00861134380102,0.260376602411,-0.543361027404,0.0251666344167,0.729770123804,-0.414199228408
1470133528202506902,-0.009954566136,0.00864594336599,0.259682327509,-0.533690931562,0.0245770992928,0.730216849518,-0.425855971472
1470133528275419100,-0.00992603600025,0.00867541693151,0.259341865778,-0.541004773788,0.0242769277118,0.729119811254,-0.418459993735
1470133528347091133,-0.00989149138331,0.00870656687766,0.258942425251,-0.53775970288,0.022884267136,0.728462882996,-0.42383091012
1470133528426393672,-0.00983993709087,0.00871124118567,0.258743137121,-0.555746722619,0.0246898834416,0.728044078765,-0.400609297606
1470133528507197927,-0.00982720591128,0.00862966571003,0.255326807499,-0.524547408247,0.0157059431036,0.724080640801,-0.447560683562
1470133528582074548,-0.00975443795323,0.00866970419884,0.253839403391,-0.536633462263,0.0232219684086,0.728905249068,-0.424478980921
1470133528654822592,-0.00971654709429,0.00867803394794,0.253527343273,-0.536768410542,0.0224721362424,0.728061412212,-0.425794852699
1470133528728098082,-0.00971680786461,0.00869149249047,0.253735303879,-0.544109009445,0.0239776962044,0.728765489229,-0.415055800628
1470133528801237180,-0.00968474335968,0.00866099540144,0.253489255905,-0.551039406333,0.0235099265158,0.727584090795,-0.407951279991
1470133528874794796,-0.00965562555939,0.00863322243094,0.253184109926,-0.573458038317,0.0236642816955,0.725445416401,-0.379887914895
1470133528944851533,-0.00975065585226,0.00866962503642,0.252453237772,-0.537865981969,0.0198569944675,0.726124079949,-0.427843085406
1470133529019866984,-0.00978878885508,0.00868846196681,0.251823544502,-0.527275343741,0.0213850318628,0.728253521652,-0.437230145914
1470133529094775962,-0.0097174057737,0.00869988556951,0.251573741436,-0.538437079075,0.0232537312942,0.728775348088,-0.422411254439
1470133529172506012,-0.00966353248805,0.00870761275291,0.25131252408,-0.541256824055,0.024007936282,0.729141521915,-0.418111600448
1470133529244902291,-0.00960944406688,0.00870649795979,0.250902682543,-0.55035938028,0.0240497187342,0.728371795259,-0.407431824281
1470133529321460344,-0.00966321583837,0.00867913849652,0.250602424145,-0.549297695513,0.0196108228379,0.725309742754,-0.414503599982
1470133529395165103,-0.00964497961104,0.00866185128689,0.250124037266,-0.56182879151,0.0217744877996,0.725619857239,-0.396673799857
1470133529472947153,-0.00971263460815,0.00866510905325,0.249403953552,-0.54171291273,0.0221130279823,0.72746641769,-0.420536259206
1470133529546883843,-0.00966808758676,0.00865798722953,0.249176025391,-0.547826842792,0.0230004483894,0.727511650554,-0.4124118427
1470133529620202066,-0.00960967037827,0.00867879204452,0.248790994287,-0.549990618997,0.0233523885608,0.727633149282,-0.409285945312
1470133529693219948,-0.00958694051951,0.00868842191994,0.248495563865,-0.550843914184,0.0225889378886,0.727085493281,-0.409154503276
1470133529766089240,-0.00961604341865,0.00870230421424,0.248060330749,-0.545476601922,0.0211279822489,0.726627264716,-0.417159086313
1470133529843517244,-0.00969667546451,0.00872586946934,0.247466802597,-0.52926667244,0.0220298032519,0.728816772713,-0.433840511047
1470133529919317557,-0.00961455050856,0.00871319975704,0.249070465565,-0.578021277744,0.0266423150184,0.726998678873,-0.369668108501
1470133529997731610,-0.00971410330385,0.00874055363238,0.249538272619,-0.551535473839,0.0238405049662,0.727863689998,-0.406761232424
1470133530071806658,-0.00967062544078,0.00874098017812,0.249286904931,-0.558899180857,0.0249449274768,0.727822906408,-0.396589552482
1470133530144801270,-0.00958126876503,0.00873200036585,0.248908415437,-0.576748874794,0.0277332207074,0.727753769173,-0.370089253217
1470133530220263680,-0.00965455640107,0.00867869891226,0.246162682772,-0.506450084844,0.016616685628,0.725843992986,-0.465169533791
1470133530292615970,-0.00960992276669,0.00870215240866,0.244783133268,-0.531788765876,0.0227163269139,0.728995057712,-0.430407809888
1470133530369888916,-0.00957016181201,0.00868990365416,0.244564309716,-0.539897404276,0.0229060556616,0.728344851778,-0.421307349044
1470133530444861258,-0.00952452421188,0.00867111142725,0.244265109301,-0.553029964269,0.0233404803713,0.727431627313,-0.405532129654
1470133530517210837,-0.00956024695188,0.00863355025649,0.243774816394,-0.557759480755,0.0195971586349,0.724325428528,-0.40481228562
1470133530589482512,-0.00962183251977,0.00863788183779,0.243070274591,-0.53931702874,0.0205642231676,0.726523653861,-0.425297114518
1470133530672585986,-0.00961623340845,0.00863887369633,0.24268810451,-0.531328618409,0.0212250473874,0.727675158945,-0.433276193297
1470133530747547872,-0.00954799260944,0.00865191500634,0.242421686649,-0.538109890758,0.0227248112743,0.728336128986,-0.423612808629
1470133530823074676,-0.00944894645363,0.00866151973605,0.242002099752,-0.560833139502,0.0254984082617,0.728124358423,-0.393256836537
1470133530893909749,-0.00948009919375,0.008674826473,0.241585880518,-0.54808144601,0.0230874256215,0.727832356051,-0.411501835723
1470133530969871789,-0.00955529604107,0.00866662152112,0.241157218814,-0.535936802715,0.0218950307267,0.728131453678,-0.426751610763
1470133531043827095,-0.00949222035706,0.00865134224296,0.242184624076,-0.567458811428,0.0261663832475,0.72783969899,-0.384129132317
1470133531122851707,-0.00959542300552,0.00865760818124,0.242744624615,-0.563688739805,0.0246272523695,0.727288551761,-0.390768301598
1470133531198419483,-0.00959175359458,0.00866274442524,0.242691740394,-0.552024909001,0.0237560231008,0.727769897471,-0.40626977188
1470133531272014765,-0.00951469037682,0.00868495739996,0.242371812463,-0.56514333165,0.0262269142782,0.728127707248,-0.386982177362
1470133531344889384,-0.00955881085247,0.00869058538228,0.241117984056,-0.501325102873,0.0194642429165,0.728992398291,-0.465686984692
1470133531417948134,-0.00942676141858,0.00857099890709,0.237775728106,-0.550656201233,0.0222538641778,0.726819278898,-0.409897852392
1470133531491979895,-0.00946882925928,0.00860717426986,0.238137573004,-0.548126024448,0.0227035193778,0.727451620276,-0.41213656922
1470133531563739733,-0.00941493175924,0.00858462322503,0.237862557173,-0.563826860929,0.0237471763243,0.726617523701,-0.39187028053
1470133531634708712,-0.00940533261746,0.00859061535448,0.237489923835,-0.554423256793,0.0226361912882,0.726593014134,-0.40517286062
1470133531711679211,-0.00957037881017,0.00859206728637,0.23653511703,-0.512555757052,0.0188352867371,0.727377676525,-0.455909578293
1470133531790473653,-0.00951263401657,0.0085933720693,0.236316993833,-0.524071020886,0.0205134095422,0.727850026824,-0.441772683117
1470133531864794921,-0.00945095252246,0.00859713740647,0.236138850451,-0.541002653988,0.0226137145415,0.728055325797,-0.420404794063
1470133531937628960,-0.00955522060394,0.0086179273203,0.236700385809,-0.546290030107,0.0222252528195,0.727280387453,-0.414893334689
1470133532015977460,-0.00942926481366,0.00868038274348,0.237817659974,-0.563437208742,0.0277645412052,0.729447022992,-0.386878123839
1470133532090070573,-0.00941502954811,0.00865950621665,0.237533032894,-0.567127460715,0.0271785986843,0.728674274396,-0.382964187503
1470133532167194845,-0.00951109547168,0.00865679141134,0.236947908998,-0.555957615276,0.0253860273046,0.72858152827,-0.39929392219
1470133532246192931,-0.00942642427981,0.00863023288548,0.235943257809,-0.520344919417,0.0215033347438,0.72901885347,-0.444196220962
1470133532329092124,-0.00937681645155,0.00858682394028,0.232895389199,-0.518803045479,0.0201233920065,0.728110049587,-0.447542405574
1470133532401027975,-0.00930497888476,0.00859595276415,0.233257293701,-0.551037273951,0.0252925867442,0.72892559466,-0.405445045873
1470133532474055164,-0.00936950836331,0.00860829465091,0.232845172286,-0.532849338744,0.0229109782383,0.72905951162,-0.428974239078
1470133532551355090,-0.00945550762117,0.00858731940389,0.23239056766,-0.52958898716,0.0208174509192,0.727861669432,-0.435108639983
1470133532621149291,-0.00939205847681,0.00857732910663,0.232163399458,-0.545977169362,0.0220053627059,0.727190417453,-0.415474176469
1470133532692391445,-0.00931538827717,0.00857416074723,0.231904104352,-0.569647441535,0.0238316413154,0.726103430028,-0.384327534958
1470133532762869441,-0.00926967617124,0.00864041037858,0.231657415628,-0.577366008928,0.0248377606626,0.726010227308,-0.372747538186
1470133532839854523,-0.0093689430505,0.00871523655951,0.232257261872,-0.557498254218,0.025678761531,0.728663387303,-0.396970988556
1470133532918715122,-0.00936206057668,0.00879307184368,0.233402267098,-0.535845468297,0.0250243207544,0.730266975472,-0.423029032115
1470133532992237831,-0.00945188943297,0.00876266695559,0.232960090041,-0.53333722446,0.0228840864297,0.729051720952,-0.42838220291
1470133533071292543,-0.00942742452025,0.00876460690051,0.232548177242,-0.54202743931,0.0246825467419,0.729471810742,-0.416494782985
1470133533144393706,-0.00936412345618,0.00874734390527,0.231692880392,-0.520281328059,0.0195942531566,0.727433091539,-0.446950223459
1470133533217497008,-0.00931741576642,0.00869018305093,0.228409841657,-0.537951738578,0.0219340544201,0.727740678839,-0.424876839308
1470133533290397359,-0.00924768391997,0.00876368768513,0.228814974427,-0.552329757342,0.0240752281466,0.727831051863,-0.405726733761
1470133533363736100,-0.00927408412099,0.00877525936812,0.228303730488,-0.561791432251,0.0249393435024,0.727651872412,-0.392799145073
1470133533437363742,-0.00930355768651,0.00880918186158,0.228035822511,-0.53921331488,0.0210544633881,0.727127041033,-0.424372450597
1470133533510195585,-0.00924365315586,0.00883353035897,0.227690339088,-0.540569075816,0.0218926431283,0.72755875171,-0.421857854328
1470133533586017966,-0.00920309219509,0.00885684322566,0.227240934968,-0.544994872348,0.0236045888779,0.728259381155,-0.414803189788
1470133533662906593,-0.00926928967237,0.0088614532724,0.226672232151,-0.538064428786,0.0223173741468,0.727907082062,-0.424428892949
1470133533736471346,-0.0093301422894,0.00884953420609,0.226302370429,-0.523869907097,0.0189545696375,0.726577604083,-0.44416892054
1470133533814105193,-0.00924932118505,0.00885281804949,0.226016566157,-0.538505199586,0.0210882934279,0.726903572149,-0.425650831899
1470133533887128754,-0.00928566325456,0.00892239809036,0.226552248001,-0.550624849164,0.0241580157942,0.728419347505,-0.406981473701
1470133533961602898,-0.00921914260834,0.008983544074,0.22740636766,-0.54852086605,0.0267218344009,0.730221408595,-0.406432648176
1470133534034234395,-0.00920029263943,0.00896857772022,0.227284371853,-0.544164765426,0.0264947765346,0.730541221149,-0.411694375826
1470133534106400354,-0.00926025863737,0.00895619764924,0.226806849241,-0.546273498371,0.0251480430662,0.729458231891,-0.410905742031
1470133534178330561,-0.00916372705251,0.00894867535681,0.225680589676,-0.542600065171,0.0238907293424,0.728642363471,-0.417246579954
1470133534253721511,-0.00911383796483,0.00892132148147,0.223460614681,-0.535921186554,0.0235778276113,0.728901648756,-0.425364495802
1470133534329313306,-0.00921471230686,0.00891930982471,0.223012417555,-0.505185410303,0.0190359822353,0.728084542987,-0.462945170468
1470133534403176683,-0.00921924039721,0.00890867877752,0.222540482879,-0.53370434789,0.0208772909019,0.727337794262,-0.430933336847
1470133534477203999,-0.0091266753152,0.00890775676817,0.222271054983,-0.554413669919,0.023463675174,0.727449306612,-0.403599361823
1470133534556815764,-0.00908615812659,0.00895212870091,0.22172011435,-0.537845074832,0.0233199720005,0.728778154119,-0.42315630264
1470133534634680291,-0.00915886927396,0.00895429775119,0.221345752478,-0.513954758823,0.0196830947672,0.728095433322,-0.453144702759
1470133534712914964,-0.00918182358146,0.00891650468111,0.220838442445,-0.546050582723,0.0215414440729,0.726770343286,-0.416136510553
1470133534791334570,-0.00910158082843,0.00892357807606,0.220533445477,-0.556581469399,0.0233749413963,0.72707162195,-0.401294825024
1470133534870805466,-0.009073340334,0.00892930943519,0.220129102468,-0.543023346723,0.0230384255026,0.72792970626,-0.4179871034
1470133534947948701,-0.00909044593573,0.00897987186909,0.21966534853,-0.508142819508,0.0211816802965,0.729662058226,-0.457094620607
1470133535029764783,-0.00912828184664,0.00894614122808,0.219195052981,-0.524990056485,0.0211095609746,0.728334839205,-0.4398501893
1470133535101287256,-0.00904567725956,0.00890493765473,0.218706026673,-0.567577766232,0.0241062349861,0.726502260898,-0.386611993639
1470133535173426383,-0.00902890879661,0.00891512073576,0.218415260315,-0.554968102552,0.024194013326,0.727678021369,-0.402380108959
1470133535245734170,-0.00904400087893,0.00890838820487,0.218281626701,-0.542890103078,0.0240806222237,0.728734089096,-0.416697836571
1470133535330857158,-0.00910133868456,0.0089308982715,0.219183072448,-0.568775628573,0.026743083949,0.728164561203,-0.381517317576
1470133535405342270,-0.00911226775497,0.00899991951883,0.219652086496,-0.53658806375,0.0256666244647,0.730603844459,-0.421464703968
1470133535474436395,-0.00913938228041,0.00896694418043,0.219320490956,-0.551188491763,0.0256083436964,0.729281639081,-0.404578484575
1470133535550143788,-0.00909817311913,0.00891411583871,0.219138711691,-0.549108560189,0.0258927773679,0.729851635039,-0.406356917055
1470133535621417597,-0.00903884600848,0.00868414994329,0.218801990151,-0.550985755205,0.0252458801668,0.729092214021,-0.405218319612
1470133535698811350,-0.0089920880273,0.0086283814162,0.218629688025,-0.560044826849,0.0255787219762,0.728332593033,-0.393988775001
1470133535773476901,-0.00895325094461,0.00859744753689,0.21845151484,-0.558682459717,0.0257785911733,0.728665462898,-0.395292317937
1470133535847014462,-0.00886910501868,0.00854539778084,0.21806421876,-0.552838533548,0.0261821232037,0.72970881597,-0.401508525619
1470133535920718465,-0.00884667597711,0.00848850607872,0.21777497232,-0.53995598701,0.0244124302393,0.729599838736,-0.418969737162
1470133535993217815,-0.00877966545522,0.00841458048671,0.217458620667,-0.542361810082,0.0255569771145,0.730141246304,-0.41483040912
1470133536065939551,-0.00874655880034,0.00834322813898,0.217116072774,-0.535307027714,0.0248882245785,0.73033219676,-0.423605765698
1470133536140016427,-0.00869968999177,0.00827461015433,0.216663822532,-0.529764772763,0.0253048040007,0.731340188306,-0.428777892857
1470133536217174825,-0.00867848563939,0.00819554552436,0.216080307961,-0.527823979049,0.0247833549612,0.731323612739,-0.431223150942
1470133536290057176,-0.00869107991457,0.00805969815701,0.215630054474,-0.540349755597,0.0244741730283,0.729666714678,-0.418341537468
1470133536362938080,-0.00863799732178,0.00795405264944,0.215341493487,-0.544602374104,0.0242195221448,0.729135872766,-0.413742127313
1470133536435990118,-0.00860623829067,0.00789803732187,0.214999035001,-0.538014040964,0.0247215097279,0.730155304204,-0.420479453035
1470133536507851797,-0.00860724784434,0.00782663468271,0.214502468705,-0.525094937195,0.0244948223458,0.7313178348,-0.43456821687
1470133536580145453,-0.00865223072469,0.00766083365306,0.213870301843,-0.537575433686,0.0243727804481,0.730067220757,-0.421213097905
1470133536651634031,-0.0086039332673,0.00757553335279,0.213566243649,-0.54544586104,0.0249333265473,0.729655899029,-0.411666625942
1470133536722521604,-0.00859330967069,0.00755866197869,0.213174268603,-0.531117635699,0.0253214328039,0.731382444928,-0.427027635337
1470133536792071991,-0.00861813034862,0.00747950607911,0.212644800544,-0.533750701491,0.0251094143653,0.731098115563,-0.424234901191
1470133536863494518,-0.00865006074309,0.00739307701588,0.21222434938,-0.535863764298,0.0236899137224,0.729771935546,-0.423936004828
1470133536936795538,-0.00856141280383,0.00727804377675,0.211966603994,-0.544325354748,0.0251918206999,0.730103712049,-0.412339483921
1470133537009155411,-0.00856457836926,0.0072079510428,0.211701318622,-0.527122668525,0.0239538381578,0.730735865159,-0.433120077271
1470133537080371268,-0.00863034836948,0.00720053771511,0.210744634271,-0.523787176987,0.0228070920549,0.730259957122,-0.438003681264
1470133537152127429,-0.00851058866829,0.00719195790589,0.210330560803,-0.551476757369,0.0255326648072,0.729585090818,-0.403642247994
1470133537224816548,-0.00845958478749,0.00722453650087,0.210122346878,-0.544479361393,0.0256653134578,0.730435877912,-0.411517854971
1470133537296669106,-0.00842744484544,0.00718307401985,0.209862858057,-0.539701868691,0.025023216006,0.730286968539,-0.418063003833
1470133537371357066,-0.00839632935822,0.00713832536712,0.209554627538,-0.536544666274,0.0240483954956,0.729763073033,-0.423068969559
1470133537445120940,-0.00838455557823,0.00719103170559,0.208919763565,-0.509882011903,0.0232655520179,0.731721839075,-0.451732440996
1470133537517797252,-0.00840232148767,0.00711434986442,0.208378776908,-0.530144531512,0.0241253414521,0.73062805788,-0.429589786478
1470133537603035925,-0.00838758423924,0.00706799281761,0.207989528775,-0.533614179509,0.0237777448703,0.729805220382,-0.426702316117
1470133537681969537,-0.00838285218924,0.00712426006794,0.207537770271,-0.507929734149,0.022786750139,0.731457368831,-0.454376789426
1470133537761488200,-0.00838923081756,0.00710574025288,0.207110509276,-0.522764797809,0.0227316996156,0.730077210001,-0.439531003961
1470133537837782675,-0.00833448022604,0.00707866391167,0.206555560231,-0.545329711299,0.0249319782058,0.729731295022,-0.411686943566
1470133537912982687,-0.00832538865507,0.00709440372884,0.206242755055,-0.531291062937,0.0244295253796,0.730671896713,-0.428078946091
1470133537984384221,-0.00832142308354,0.00711874989793,0.205916196108,-0.514021260231,0.0244320260911,0.73212009182,-0.446301905985
1470133538054211713,-0.00837661325932,0.00709998654202,0.205361738801,-0.516372450875,0.0223834033588,0.730343920328,-0.446605232025
1470133538130254294,-0.0083274031058,0.00710388552397,0.204976648092,-0.540862629077,0.0245905217223,0.729725679976,-0.417568383253
1470133538204962484,-0.00830221362412,0.0071006831713,0.20465554297,-0.531917565566,0.0247515281961,0.730677261561,-0.42727251811
1470133538279443076,-0.00828791316599,0.00709735089913,0.204367041588,-0.527695932748,0.0251107378405,0.731351539251,-0.431313551192
1470133538357306650,-0.00828162860125,0.00709830923006,0.204116821289,-0.530052993096,0.0256538533409,0.731515854427,-0.428100758047
1470133538431954531,-0.0083632580936,0.00708526512608,0.203817620873,-0.511136162999,0.0222311802245,0.730697637054,-0.452024955841
1470133538505999135,-0.00835016183555,0.00705913407728,0.203588843346,-0.534767289342,0.0232997502277,0.729338248858,-0.426083074812
1470133538581091417,-0.0083397962153,0.0070559438318,0.203496173024,-0.53929212365,0.0232917918673,0.728882082711,-0.421132291927
1470133538652996865,-0.00826620683074,0.00715404562652,0.203320115805,-0.547293465332,0.0243328732319,0.728925026167,-0.410543639963
1470133538729863159,-0.00828374736011,0.00716963037848,0.202999949455,-0.529191905169,0.0224579721687,0.729089921324,-0.433450635729
1470133538803058568,-0.00827047694474,0.00716372765601,0.202807158232,-0.516706405257,0.0215164574212,0.729557831778,-0.44754541995
1470133538881011749,-0.00822755601257,0.00719840964302,0.202601149678,-0.516157470464,0.0231988914147,0.731009035529,-0.445723083423
1470133538961157192,-0.00816980656236,0.00722187478095,0.20231063664,-0.522444097967,0.0236783019452,0.730729463527,-0.438777795302
1470133539037356981,-0.00813846942037,0.00724636483938,0.202137693763,-0.526527459063,0.0245314284119,0.731118075683,-0.433166715345
1470133539112758894,-0.00812345836312,0.00728356838226,0.201871946454,-0.525169846144,0.023777741901,0.730645028881,-0.43564790079
1470133539186388984,-0.00811675097793,0.00733035895973,0.201724350452,-0.513066324072,0.0223502085225,0.730552471359,-0.45006277548
1470133539265340994,-0.00803400203586,0.00737554905936,0.201682791114,-0.517099919553,0.0230686382517,0.730728339226,-0.445097298778
