%time,field.position.x,field.position.y,field.position.z,field.orientation.x,field.orientation.y,field.orientation.z,field.orientation.w
1470141525344411886,-0.0375574678183,0.373470336199,1.38037705421,-0.287649401338,0.0230598906722,0.780002051369,-0.555268280395
1470141525450835946,-0.0375713072717,0.373474568129,1.38053452969,-0.280898871602,0.0214976390384,0.78050870156,-0.558067954857
1470141525531745054,-0.0375785753131,0.373241722584,1.37965416908,-0.274601164554,0.0211534900429,0.780911656236,-0.560645802123
1470141525611578409,-0.0375789478421,0.372885078192,1.37832796574,-0.274739115654,0.0212861569462,0.781432444838,-0.559846989817
1470141525690717631,-0.0375785753131,0.373241722584,1.37965416908,-0.274601164554,0.0211534900429,0.780911656236,-0.560645802123
1470141525770073380,-0.0375800058246,0.372889667749,1.37834501266,-0.273849637989,0.0212088189222,0.78143992156,-0.560275120602
1470141525845592937,-0.037580281496,0.373606592417,1.38101089001,-0.272621107128,0.020862677588,0.780405285129,-0.56232559214
1470141525922069056,-0.0375785753131,0.373241722584,1.37965416908,-0.274601164554,0.0211534900429,0.780911656236,-0.560645802123
1470141526001240448,-0.0367087312043,0.37277045846,1.37792408466,-0.133656258403,0.0101705491544,0.782517394563,-0.608028857642
1470141526072678774,-0.0364687256515,0.372398972511,1.37630462646,-0.0841261179152,0.00846505718971,0.782111045457,-0.617376264255
1470141526146166025,-0.0356679484248,0.370907485485,1.36106050014,-0.247059256409,0.0259126668527,0.783473124647,-0.569614010076
1470141526217556964,-0.0352409407496,0.362236380577,1.34959220886,-0.296197599968,0.0323876791393,0.784420907187,-0.543968620768
1470141526287101869,-0.034347821027,0.351380050182,1.3331567049,-0.254591862271,0.0333143233224,0.792715375417,-0.552879257257
1470141526357988941,-0.0357699170709,0.331062018871,1.31970345974,-0.203895925252,0.0204053046412,0.790920585163,-0.576588851066
1470141526431340468,-0.0349301099777,0.314170002937,1.29559123516,-0.285389749922,0.034487596743,0.796919673536,-0.531302484693
1470141526504131910,-0.0342947766185,0.304938822985,1.29736912251,-0.170553755193,0.0227827732301,0.791810016351,-0.586028378016
1470141526582850195,-0.0331326201558,0.288486391306,1.27605450153,-0.190182064723,0.0215913885323,0.797074263361,-0.572745329868
1470141526656846258,-0.0323043204844,0.273446917534,1.26256370544,-0.203617699696,0.0315839170194,0.79813224931,-0.56615121758
1470141526730159628,-0.0316293649375,0.259792804718,1.24963474274,-0.230455217731,0.0314429741,0.799125919573,-0.554346008073
1470141526803460803,-0.0304557345808,0.245376288891,1.23061537743,-0.142357418843,0.0235179365794,0.80784627628,-0.571459242519
1470141526872800729,-0.0288403145969,0.228100687265,1.23614096642,-0.243244738612,0.0342167500636,0.799101247029,-0.548724346234
1470141526948480712,-0.028410891071,0.214987561107,1.22929906845,-0.10716255438,0.0140849052638,0.792777917382,-0.599850794859
1470141527022912453,-0.0283531658351,0.203452005982,1.22614264488,-0.190358841381,0.0272007398794,0.792109858045,-0.579297509097
1470141527099003990,-0.0277340356261,0.191479071975,1.21214318275,-0.269708679964,0.0382867187151,0.794632616357,-0.542540652988
1470141527176217528,-0.0269333682954,0.171137422323,1.169095397,-0.135235715599,0.0218994718514,0.804486303411,-0.577956314944
1470141527254407173,-0.0269854832441,0.162563353777,1.1698359251,-0.0876557642927,0.0110952543752,0.794100078786,-0.60133054736
1470141527328763747,-0.0269709005952,0.154539808631,1.16969585419,-0.109211868908,0.0145819923227,0.794580993116,-0.59707719649
1470141527402482054,-0.026750581339,0.145795017481,1.16447937489,-0.312668341082,0.044270874541,0.783569288084,-0.535068004018
1470141527478259083,-0.025459414348,0.13824467361,1.14298963547,-0.15057891711,0.0192892291994,0.794147275367,-0.588459021841
1470141527555215761,-0.025238102302,0.128544092178,1.13936972618,-0.225759263463,0.0308600622088,0.78768865733,-0.572387098592
1470141527629172688,-0.0250519812107,0.121426492929,1.1350723505,-0.336838186978,0.0394246379082,0.773130721656,-0.53596139875
1470141527701785046,-0.0246478747576,0.116085723042,1.1243622303,-0.371117121715,0.0479818406548,0.777990888999,-0.504678116795
1470141527776240573,-0.0246119014919,0.105779401958,1.09308338165,-0.30187384658,0.0401823049165,0.789370891271,-0.533058307445
1470141527846887788,-0.0245480202138,0.101397588849,1.09341752529,-0.244026914143,0.0228948800331,0.776186224093,-0.580914481804
1470141527919181375,-0.0240531060845,0.097352296114,1.08648741245,-0.28183814107,0.0310360749378,0.77199233935,-0.568886502104
1470141527992418827,-0.0245548374951,0.0922608450055,1.06368517876,-0.0511844867684,0.00452272038324,0.780679252267,-0.622815862349
1470141528064295693,-0.0244927946478,0.0885297730565,1.06321823597,-0.163708819272,0.0183038257632,0.777685892612,-0.606686941418
1470141528139012829,-0.0243541784585,0.0856753736734,1.05964374542,-0.291887811157,0.0256530038046,0.760166704268,-0.579905173986
1470141528209370463,-0.0242514275014,0.0820675492287,1.0357927084,-0.193387371983,0.0229759060295,0.783147229322,-0.590553849623
1470141528281034115,-0.0239601936191,0.0784452334046,1.02362084389,-0.297332572746,0.0321545614605,0.778420127991,-0.551925293586
1470141528356225060,-0.0235275998712,0.0761691629887,1.01839566231,-0.139614639577,0.0140604433753,0.779136414708,-0.610947218362
1470141528434914628,-0.0235505327582,0.0731384009123,1.01576781273,-0.112056509662,0.0133137504614,-0.579228961745,-0.80731647609
1470141528508562146,-0.0232469122857,0.0689604729414,0.986337959766,-0.264511132613,0.028482312881,0.777156644015,-0.570307083281
1470141528583393625,-0.0228313878179,0.0665785223246,0.979325592518,-0.257546933701,0.025096357853,0.776830748037,-0.5740851319
1470141528662647814,-0.0223477799445,0.0648789554834,0.973418951035,-0.30883444006,0.0328849318232,0.768742089748,-0.559084492131
1470141528737825721,-0.0224226471037,0.0636358931661,0.97420412302,-0.212070850013,0.0145916316116,0.753615595747,-0.62199402948
1470141528811619809,-0.0225345734507,0.0621406659484,0.955445587635,-0.14405404363,0.016269684707,0.77337690514,-0.617148193281
1470141528886298443,-0.0217381715775,0.0597526356578,0.934821724892,-0.402325265634,0.0557000257557,0.780437727181,-0.475340763826
1470141528970602601,-0.0216337107122,0.0593553334475,0.935373604298,-0.405303122087,0.0383035355559,0.761614942647,-0.504187363514
1470141529045282958,-0.0219621993601,0.0584360547364,0.918141663074,-0.0766765875057,0.00727571936728,0.776516417858,-0.625371903456
1470141529119673666,-0.0216108169407,0.05736355111,0.912542283535,-0.330073867704,0.0271739146742,0.758936905644,-0.560649260654
1470141529193978224,-0.021497124806,0.0562514662743,0.887502014637,-0.333095823997,0.0411474752479,0.781747609447,-0.525570863386
1470141529267483261,-0.0214241556823,0.0565019845963,0.886903166771,-0.227982105789,0.0204392882282,0.773935581216,-0.590449075759
1470141529347466861,-0.0211560837924,0.0551389344037,0.869359433651,-0.309704438219,0.0335061315825,0.766190228892,-0.562061414121
1470141529422421399,-0.0211868491024,0.0549087300897,0.86252874136,-0.210544422749,0.0146689377857,0.760000446673,-0.614699267424
1470141529504707309,-0.0205535814166,0.0545198693871,0.852709829807,-0.388946981568,0.0408393683739,0.768358741146,-0.506633236596
1470141529579101692,-0.0204086471349,0.0548340678215,0.850528240204,-0.0744051206646,0.0041870995815,0.751522460188,-0.655484811456
1470141529657316117,-0.0205296985805,0.0540147460997,0.834249138832,-0.246488647161,0.0251586206983,0.771485694807,-0.586020659477
1470141529730505866,-0.0204564705491,0.052533801645,0.813252449036,-0.252096948705,0.0198776205715,0.765788013458,-0.591287347318
1470141529805580619,-0.0200419612229,0.0523160211742,0.807716488838,-0.315221164521,0.0307114345938,0.769262644539,-0.554912073161
1470141529878913169,-0.0200180672109,0.0509058944881,0.78960442543,-0.301288011672,0.0240574781748,0.75936098233,-0.576209745042
1470141529957905293,-0.0196858476847,0.0507312901318,0.784632146358,-0.27675539325,0.0229195002567,0.76587363924,-0.579929924673
1470141530031849247,-0.0196747407317,0.0495495721698,0.767328858376,-0.318233541831,0.0387074992548,0.779718894528,-0.537836023218
1470141530103819213,-0.019641475752,0.0494604893029,0.767722427845,-0.291014637884,0.0184375977296,0.748499582302,-0.59558283288
1470141530178074985,-0.019391046837,0.0485974811018,0.747574090958,-0.356662118074,0.0390318893209,0.771709784606,-0.525102517125
1470141530258331684,-0.0191102456301,0.0479824878275,0.743850231171,-0.255176285485,0.0132133776191,0.745315940228,-0.615804042874
1470141530334529053,-0.0185774751008,0.0476172454655,0.730679094791,-0.343835013803,0.0316960809377,0.760946821298,-0.549302081638
1470141530412431191,-0.0185677409172,0.0473734140396,0.72182315588,-0.29575166624,0.0252382187088,0.76471292172,-0.571933677612
1470141530490477886,-0.0182588081807,0.0463772416115,0.703141033649,-0.366555437223,0.0353380851493,0.763145887502,-0.531033601167
1470141530565335554,-0.0185106936842,0.0459851399064,0.692337393761,-0.216865124969,0.0154549111234,0.761435273179,-0.61069385788
1470141530642212681,-0.0181868616492,0.0459437333047,0.687662661076,-0.430009867561,0.0403089129089,0.758237134794,-0.488408796768
1470141530715827786,-0.0184681862593,0.0457453653216,0.678649961948,-0.268027054088,0.02208118021,0.761331344165,-0.589956357834
1470141530792733547,-0.01816075854,0.0447020716965,0.661099016666,-0.491346950498,0.0434955690401,0.750836704804,-0.439238605348
1470141530869412453,-0.0183293148875,0.0444837063551,0.650955915451,-0.362217887931,0.03035782106,0.758751828025,-0.540529617904
1470141530942464201,-0.0182923711836,0.0445026010275,0.64448672533,-0.0500720717579,0.00363681632914,0.758105705467,-0.650196355369
1470141531015782089,-0.0181695148349,0.0432890579104,0.625919759274,-0.30983579325,0.0236367360411,0.75731897519,-0.574378843401
1470141531087028330,-0.0178649015725,0.0433615893126,0.621096313,-0.224523774379,0.0131176038194,0.750493755592,-0.621430708951
1470141531159571881,-0.0175914857537,0.0422564744949,0.607905864716,-0.48386487531,0.0405600641835,0.749609883694,-0.449794048318
1470141531232459044,-0.0174352601171,0.0420419313014,0.595980584621,-0.385920348295,0.0314952471461,0.755643254464,-0.528277205795
1470141531307222445,-0.0173504855484,0.0411785393953,0.584546923637,-0.474047952983,0.0380551981492,0.748888709113,-0.461514941827
1470141531383913553,-0.0172793958336,0.0409189946949,0.574459969997,-0.379773923867,0.0330154193191,0.758598668024,-0.528403075038
1470141531457039772,-0.017246356234,0.0400756336749,0.564142584801,-0.386203315996,0.0301666565869,0.754568487205,-0.529682329007
1470141531530985907,-0.0171495117247,0.0393663346767,0.553704500198,-0.286623846188,0.0177217559059,0.75248485393,-0.592705031842
1470141531608024312,-0.0167485419661,0.0392377376556,0.547040402889,-0.184470778598,0.010759816116,0.75123251208,-0.63364380451
1470141531684957594,-0.0164186619222,0.0383519604802,0.53010648489,-0.391267020133,0.027974923306,0.750661659005,-0.531633893128
1470141531761902636,-0.0161009058356,0.0379775539041,0.520112633705,-0.258262883306,0.0184086301019,0.751973146616,-0.606215961694
1470141531834872359,-0.0157866161317,0.0372291244566,0.507854044437,-0.357960787012,0.0315359535015,0.76156289772,-0.539343593097
1470141531912769975,-0.0153040476143,0.036674618721,0.50301939249,-0.407271162828,0.0303123967096,0.751111812281,-0.518692976612
1470141531990818892,-0.0149522749707,0.0351633653045,0.486316204071,-0.397546374118,0.0314926968419,0.753275741351,-0.523011231202
1470141532065946901,-0.0148622663692,0.0343812480569,0.476980477571,-0.352948952556,0.0248358444804,0.752965492469,-0.554845190003
1470141532142562663,-0.0147176198661,0.0337171442807,0.46854159236,-0.298678069198,0.0181643719135,0.750738542317,-0.588942363609
1470141532219041654,-0.0143558010459,0.0329999290407,0.45932507515,-0.383260226285,0.0284750533089,0.752952934832,-0.534193455796
1470141532293877786,-0.014123249799,0.0317475385964,0.444581657648,-0.387382599741,0.0279530931195,0.751697264368,-0.533014604626
1470141532370268463,-0.0137742813677,0.0312207881361,0.435662955046,-0.444205570987,0.0331768460198,0.7491195012,-0.490306720854
1470141532445377055,-0.0137247443199,0.0307527221739,0.42698174715,-0.293467493398,0.0168601904009,0.747944105116,-0.595123667753
1470141532520701309,-0.0134662417695,0.0300070755184,0.410979092121,-0.387763720343,0.0259408990681,0.750168875264,-0.534988808785
1470141532597029120,-0.0132459625602,0.0297143217176,0.403231024742,-0.322310954414,0.0168961553853,0.745847926305,-0.582701501134
1470141532670282831,-0.0130600044504,0.029158718884,0.392606168985,-0.415179065775,0.0270521094433,0.74741557583,-0.51794254867
1470141532744385329,-0.0124966958538,0.0285584926605,0.378558069468,-0.428072084753,0.0277794064756,0.745352101382,-0.5103262092
1470141532820647786,-0.0123231336474,0.0281894076616,0.368616968393,-0.386974277725,0.0242208214994,0.746399207423,-0.540881210012
1470141532894489356,-0.0122148711234,0.0278859660029,0.359071433544,-0.366241930635,0.0211794140876,0.745468471868,-0.556502505039
1470141532967351695,-0.011945432052,0.0275689177215,0.349608451128,-0.389852079197,0.0249406241798,0.746926427079,-0.538046683981
1470141533039598265,-0.0115375509486,0.0270331054926,0.335255891085,-0.413401079639,0.0253514335212,0.744966140582,-0.522955353312
1470141533112385230,-0.0112771028653,0.026822000742,0.326162159443,-0.405808264041,0.0233622484923,0.743133293007,-0.531532470322
1470141533189154442,-0.0111435363069,0.0266413670033,0.316817998886,-0.340109995237,0.0194023736844,0.745023929642,-0.573487648773
1470141533261482868,-0.0108974426985,0.0262825228274,0.30738902092,-0.430208235503,0.0238827722417,0.741525549635,-0.514286249606
1470141533339941507,-0.0108741018921,0.0261390116066,0.298000365496,-0.394520074543,0.0198517418218,0.741214529401,-0.542734594931
1470141533413124623,-0.0107067320496,0.0259569305927,0.287073075771,-0.361492969823,0.0198743173235,0.743279031154,-0.562551443093
1470141533499538407,-0.0108103724197,0.0260967556387,0.283279895782,-0.405376435797,0.0227101413566,0.742799760158,-0.532355812487
1470141533571238245,-0.0106643047184,0.0263258460909,0.283448696136,-0.45728834913,0.0274906669011,0.742177791376,-0.489186830334
1470141533645013452,-0.010521045886,0.0272624082863,0.284797787666,-0.437202336967,0.0255791496515,0.742379764976,-0.507022788647
1470141533716370650,-0.0105094788596,0.0279751885682,0.283663928509,-0.420207734837,0.0245782970849,0.742165288794,-0.521547745662
1470141533792823509,-0.0106204645708,0.0280163343996,0.283037096262,-0.445858029502,0.0247968763791,0.740003740125,-0.502981308849
1470141533870482280,-0.010526063852,0.0278708226979,0.283195912838,-0.427666534854,0.0252008023715,0.742298271468,-0.515227649396
1470141533943653445,-0.0105390753597,0.0278252884746,0.283071577549,-0.44904848452,0.0260905474382,0.740961826948,-0.498648486302
1470141534019552463,-0.0105274273083,0.0277218110859,0.282928526402,-0.457779531063,0.0269250639522,0.74085649998,-0.490759195846
1470141534098762901,-0.0105251660571,0.027588898316,0.28285625577,-0.45181818408,0.0263904004709,0.740674593628,-0.496553140813
1470141534173611744,-0.0105553725734,0.0274833738804,0.282891601324,-0.452332575925,0.0250221618552,0.739518564994,-0.497876916719
1470141534245905806,-0.0105881066993,0.027338642627,0.282904148102,-0.447037082121,0.0234885463945,0.738807477659,-0.503755542254
1470141534322701745,-0.0105416383594,0.0271402541548,0.282761514187,-0.462726661314,0.0263734391755,0.73945487097,-0.488257076154
1470141534404079109,-0.0105585940182,0.0269509777427,0.28297457099,-0.453051407442,0.0243966949309,0.738925140057,-0.49813538409
1470141534481224275,-0.0104794874787,0.0266353935003,0.282936096191,-0.452694448488,0.0262580939616,0.74007506772,-0.496655960348
1470141534554027920,-0.0104638356715,0.0261324662715,0.283059865236,-0.44764304857,0.0259722995276,0.740400059904,-0.500748332018
1470141534640145689,-0.0104960976169,0.0258256308734,0.28324046731,-0.420603061258,0.0223462918792,0.739452510474,-0.525170156095
1470141534713970486,-0.0104630161077,0.0255165416747,0.283251553774,-0.435945392169,0.0238139070495,0.739727194074,-0.512043153675
1470141534791905372,-0.0104600004852,0.0249806176871,0.283259749413,-0.437356070508,0.0234362205412,0.738997035165,-0.511911899817
1470141534871502525,-0.0104184225202,0.024570165202,0.283214956522,-0.452000426959,0.0256283680078,0.73981266021,-0.497710788084
1470141534949371777,-0.0104040447623,0.024198807776,0.283244907856,-0.455827771771,0.0262668233205,0.739726707482,-0.494303039352
1470141535022498569,-0.0103711560369,0.0236493702978,0.283224016428,-0.470699222867,0.0273774116287,0.73928208699,-0.48078551848
1470141535097933474,-0.0103613073006,0.0232450626791,0.283268392086,-0.474142977765,0.0272604162523,0.738585020914,-0.478474109251
1470141535177346117,-0.0104411309585,0.0228440705687,0.283302783966,-0.432766850964,0.021891958465,0.737478373136,-0.518034018205
1470141535253186619,-0.0103557026014,0.0222933515906,0.283228576183,-0.474879512453,0.0264782526669,0.73783437305,-0.478945496621
1470141535327622090,-0.0104227811098,0.0219408124685,0.283302485943,-0.444444512044,0.0228411590074,0.737662633148,-0.507741269572
1470141535403999461,-0.0103530725464,0.0216256976128,0.283202022314,-0.473431680497,0.0270851085953,0.73874420043,-0.47894242569
1470141535479652418,-0.0104249631986,0.0213157180697,0.283243477345,-0.4475178713,0.022965916185,0.737356015172,-0.505476437087
1470141535553582127,-0.0104082459584,0.020825503394,0.283129006624,-0.454348196631,0.024409430538,0.738125173172,-0.498139663798
1470141535633795023,-0.0103853866458,0.0205125510693,0.283110052347,-0.467499076378,0.025722664027,0.738076491835,-0.48582512321
1470141535714282382,-0.0104079339653,0.0203119982034,0.283157140017,-0.465040051758,0.0247146447045,0.737420456557,-0.489221838074
1470141535788413014,-0.0104484464973,0.0199453495443,0.283176124096,-0.43081832924,0.022028203485,0.73793237041,-0.519004953871
1470141535866679312,-0.0103638758883,0.0197791922837,0.283163934946,-0.48260343244,0.0265264864343,0.737169340214,-0.472198725499
1470141535944473420,-0.0103830611333,0.0195265281945,0.28324636817,-0.484343139851,0.0259103653224,0.736581437118,-0.471368393448
1470141536018253644,-0.0103644402698,0.019253237173,0.283151984215,-0.484344974448,0.0263669680065,0.736829529178,-0.470953260585
1470141536101191112,-0.0103702712804,0.019015070051,0.283149629831,-0.485778610133,0.026333818323,0.736752560629,-0.469596993556
1470141536178042875,-0.0104464087635,0.0188552569598,0.283264696598,-0.440119069766,0.0211817220821,0.736345131318,-0.513461183209
1470141536264659515,-0.0103641133755,0.0185373686254,0.283180177212,-0.476669841968,0.0252501432311,0.736568100819,-0.479182350344
1470141536343617033,-0.0104084108025,0.0184146389365,0.28323289752,-0.455866698573,0.0229322419459,0.736603314004,-0.499074366412
1470141536415733809,-0.0103989504278,0.0182863790542,0.283197492361,-0.468957688624,0.0224962946492,0.735194804228,-0.488938853891
1470141536490564588,-0.0103273289278,0.0180940665305,0.28310790658,-0.498177741844,0.0270268837664,0.735974801197,-0.457634763854
1470141536563562719,-0.0103681879118,0.0179717838764,0.283215254545,-0.482362026366,0.0246828134061,0.73543465974,-0.47524046071
1470141536642374444,-0.0103646190837,0.01789685525,0.283269613981,-0.486985397477,0.0242789207291,0.73462997283,-0.471778083077
1470141536716062552,-0.0103234760463,0.017716538161,0.283224493265,-0.512959628099,0.0262583458451,0.733886413007,-0.444515075131
1470141536795299133,-0.0102976774797,0.0175873450935,0.283187299967,-0.50930694619,0.0277241718274,0.73532319587,-0.446248364114
1470141536869694092,-0.0103290136904,0.017462708056,0.283243447542,-0.500259334946,0.0257189349939,0.734451954694,-0.457885859607
1470141536946541777,-0.0103763146326,0.0173756238073,0.283197879791,-0.474573498287,0.0236896676076,0.735513199778,-0.482948369212
1470141537024259880,-0.0103448266163,0.0171648617834,0.283181339502,-0.494485001853,0.0245000549939,0.734213510582,-0.464558770369
1470141537101695776,-0.0103406226262,0.0170423332602,0.28325432539,-0.495758597024,0.0246347753008,0.734203049807,-0.463208833007
1470141537183856292,-0.0103591037914,0.0169749390334,0.28323546052,-0.484907565997,0.0244129581022,0.734937824945,-0.473429037324
1470141537259209771,-0.0103423241526,0.0168629549444,0.283273071051,-0.505933705944,0.025084889336,0.733621941645,-0.452990816964
1470141537334942282,-0.0103455260396,0.016772357747,0.283250451088,-0.513678207204,0.02433904542,0.732282068076,-0.446436202705
1470141537409801008,-0.0103681096807,0.0167143512517,0.283298492432,-0.510616746955,0.0229526090295,0.731481570387,-0.451307464653
1470141537482510216,-0.0102875083685,0.0165400560945,0.283242404461,-0.533313107043,0.0273781433952,0.732507088948,-0.422209582744
1470141537555820770,-0.0103172175586,0.0164432544261,0.283331632614,-0.51499883958,0.0253151348842,0.732779461019,-0.444037836997
1470141537627016059,-0.0103001175448,0.0163555853069,0.283272862434,-0.52489371962,0.0261710520422,0.732655493877,-0.432455299921
1470141537701413113,-0.0103146806359,0.0162402521819,0.283271074295,-0.522504853503,0.0244498675657,0.731633185012,-0.437154165748
1470141537773110623,-0.0102685736492,0.0160592962056,0.283215671778,-0.531374918433,0.0278223446193,0.73298526746,-0.423791470993
1470141537846201661,-0.0102976942435,0.0159340836108,0.283347666264,-0.523729656993,0.0260324067296,0.732528631812,-0.434086815926
1470141537920599757,-0.0102962460369,0.0158418957144,0.283364206553,-0.532071403031,0.025990134866,0.731719282222,-0.425219269308
1470141538000676481,-0.0103392871097,0.0157466828823,0.283414930105,-0.522335674083,0.0233707777814,0.730741215467,-0.438903778001
1470141538074775160,-0.0102758584544,0.0155983930454,0.283272892237,-0.541951645079,0.0269394782577,0.731288640824,-0.413254888306
1470141538151530177,-0.0102672381327,0.0155263291672,0.283227652311,-0.531297488217,0.0272707094859,0.73255580735,-0.424666076508
1470141538226005310,-0.0102918380871,0.0154291791841,0.283389031887,-0.534947223368,0.0262354124312,0.731496761933,-0.421966418838
1470141538301221145,-0.0102723259479,0.0153203699738,0.283317774534,-0.546766504876,0.0266291437899,0.730659881871,-0.408011537669
1470141538381872196,-0.0102798296139,0.015119320713,0.283217668533,-0.533898193029,0.025426021528,0.731029512195,-0.424148664043
1470141538455609002,-0.0102785807103,0.0149733638391,0.28327614069,-0.529272841885,0.0258307146563,0.731736985631,-0.428677054301
1470141538533528522,-0.0102462274954,0.0148531636223,0.283164560795,-0.529641157971,0.026662134769,0.732615073875,-0.426666764446
1470141538613204181,-0.0103088440374,0.0147231910378,0.283250898123,-0.516553117445,0.0230876233355,0.730885889314,-0.445472395674
1470141538687296699,-0.0102413604036,0.0143921962008,0.283212184906,-0.533110392477,0.026788650751,0.732231656482,-0.422980471026
1470141538765095259,-0.0103163169697,0.0141854742542,0.283158302307,-0.507243694196,0.0216557868971,0.730679336556,-0.456445581338
1470141538844241607,-0.0102396244183,0.0139774903655,0.28319939971,-0.529959862291,0.026774481798,0.732516148997,-0.426433773221
1470141538924410587,-0.0102844890207,0.0137395029888,0.2830940485,-0.515775584311,0.0234531784331,0.731288156802,-0.445693983324
1470141538998069549,-0.0102334674448,0.0133815957233,0.283172756433,-0.532716571434,0.0263509908484,0.73192959429,-0.424025646399
1470141539080038160,-0.0102867372334,0.0131591055542,0.28315538168,-0.512923816105,0.02348750265,0.731401564417,-0.448786416528
1470141539153244585,-0.0102245453745,0.0129310265183,0.283180356026,-0.533675862473,0.0270929960284,0.732371196879,-0.422005300159
1470141539231941725,-0.0102283880115,0.012565003708,0.283170610666,-0.536207393232,0.0268438532035,0.731620937322,-0.42010932275
1470141539308974146,-0.010231374763,0.0123588172719,0.283087074757,-0.527744960506,0.0262669961719,0.73240820415,-0.429387382286
1470141539389813940,-0.0102432360873,0.0120572410524,0.283179551363,-0.525381268655,0.0257969961887,0.73205170532,-0.432908002088
1470141539464335051,-0.0102393645793,0.0118729276583,0.283072084188,-0.521839231841,0.0258202377897,0.732569726405,-0.436301188845
1470141539538575315,-0.0103224450722,0.0117401052266,0.283123493195,-0.496350610539,0.0214136923064,0.731119948223,-0.46759078959
1470141539612369175,-0.0102213546634,0.0115885799751,0.283197641373,-0.533248606494,0.0279237629449,0.732925293272,-0.42152900448
1470141539690105455,-0.0102623077109,0.0113854836673,0.283252984285,-0.531609645126,0.0261200123955,0.731845828772,-0.425570926017
1470141539763897553,-0.0103035978973,0.011279114522,0.28310367465,-0.496989825115,0.0221362965302,0.732007302055,-0.465485131714
1470141539836040322,-0.0103448983282,0.0112033626065,0.283127933741,-0.469403697765,0.0191725164865,0.731745647409,-0.493802481397
1470141539907673426,-0.0102079762146,0.0110575594008,0.283057630062,-0.531044248792,0.0276583277207,0.733115926976,-0.423990637098
1470141539987242907,-0.010223634541,0.0109536880627,0.283151805401,-0.54375050829,0.0280251363526,0.731921990345,-0.409683019561
1470141540061325113,-0.0102337859571,0.0108783748001,0.28311547637,-0.537314489379,0.0268013989397,0.73172881164,-0.418506595808
1470141540136725743,-0.0103241521865,0.0107786189765,0.283136218786,-0.489766479216,0.021304412743,0.731793546636,-0.473448120638
1470141540214498376,-0.0102806231007,0.0106380544603,0.283107608557,-0.511181977411,0.0239514622587,0.732217752801,-0.449417930116
1470141540290769805,-0.0103058265522,0.0106554832309,0.283149957657,-0.492763711305,0.0217029076182,0.732076386218,-0.469869208785
1470141540374440430,-0.0103137847036,0.0107095735148,0.282942533493,-0.468302412631,0.018818286346,0.731379393588,-0.495401761259
1470141540446961631,-0.0102468505502,0.0106476368383,0.282883703709,-0.509533043716,0.0225506414192,0.731019946484,-0.453296132539
1470141540520669246,-0.0101497396827,0.0104175582528,0.282735586166,-0.541949482349,0.0271942128378,0.731310107923,-0.413203048657
1470141540592627905,-0.0102280136198,0.0105396984145,0.28275462985,-0.513917895722,0.0219504409021,0.730133639042,-0.449790444251
1470141540666583982,-0.0101575246081,0.0107322512195,0.282461881638,-0.541888718236,0.0261264155096,0.730474821615,-0.414825942351
1470141540741485044,-0.0101755484939,0.0111534846947,0.282429337502,-0.530634636679,0.0241340590969,0.730318718315,-0.429510185243
1470141540818850661,-0.0101571977139,0.0112745752558,0.282297283411,-0.554150133958,0.0265825464504,0.729545610879,-0.399967747332
1470141540894381169,-0.0102025717497,0.0113830622286,0.282037764788,-0.549367491755,0.0255123583055,0.729342775021,-0.406944216202
1470141540973045114,-0.0102949151769,0.0115391099826,0.28166899085,-0.529752398338,0.0238029976373,0.73022220234,-0.430779931018
1470141541049700443,-0.0102127939463,0.0117217674851,0.281755149364,-0.543203570785,0.0259645983182,0.730298159249,-0.413425106782
1470141541122807426,-0.0102665601298,0.0119782043621,0.281631737947,-0.521980012286,0.0227804739539,0.730029466452,-0.440539322753
1470141541199500790,-0.0103926910087,0.0119170621037,0.281200140715,-0.457597342917,0.0183000762545,0.731806106458,-0.50470744151
1470141541271496639,-0.010331642814,0.0119685987011,0.28105789423,-0.502812656483,0.022854476904,0.73205631811,-0.459075867892
1470141541345836061,-0.0103188883513,0.0129242632538,0.280998557806,-0.505652912206,0.02277558353,0.731959960925,-0.456104177546
1470141541419524135,-0.0103884786367,0.0137508902699,0.280943393707,-0.473927833202,0.0181800688335,0.730634198269,-0.491157370232
1470141541494240028,-0.0103051159531,0.0143213877454,0.280878782272,-0.534282423651,0.0244964977783,0.730297098806,-0.424980424078
1470141541572006210,-0.0104196276516,0.0146273095161,0.280850410461,-0.456450561715,0.0163151489094,0.73015921362,-0.508187193257
1470141541648987031,-0.010293901898,0.0152867017314,0.280789732933,-0.533121119974,0.0245369075077,0.730412360546,-0.426236548373
1470141541721835899,-0.010281978175,0.0155340209603,0.280782312155,-0.539980783849,0.0248757093305,0.730087903335,-0.418059332587
1470141541796513822,-0.0102433487773,0.0155418682843,0.280701190233,-0.555013698091,0.0270673807638,0.73004932154,-0.39781294593
1470141541875268124,-0.0102862054482,0.0153696797788,0.280827641487,-0.545052274551,0.0255857750626,0.729958350313,-0.411611701644
1470141541949600725,-0.0103169707581,0.0148483347148,0.28095087409,-0.549017742518,0.0255722819146,0.729394831155,-0.407318986892
1470141542026203669,-0.0103268837556,0.0147932805121,0.280860513449,-0.540589764906,0.0244445022506,0.729275412436,-0.418715351049
1470141542101831607,-0.0103383865207,0.0146870454773,0.280779480934,-0.534049498256,0.0225500370633,0.728663425861,-0.428173143778
1470141542175591399,-0.0102334599942,0.0145351430401,0.280567526817,-0.5495669504,0.0271961176956,0.730670615628,-0.404174454497
1470141542250407352,-0.0101927695796,0.0139728253707,0.280235946178,-0.556546382742,0.0278210504515,0.730281550856,-0.395184728308
1470141542325309381,-0.0101869599894,0.013917317614,0.280161827803,-0.541763747899,0.026895751906,0.731286558992,-0.413507712901
1470141542402648378,-0.0102477297187,0.0139725878835,0.280193507671,-0.529263897297,0.0228134030473,0.729526298828,-0.432609124936
1470141542474456778,-0.0101871704683,0.0138893574476,0.280018657446,-0.533339972749,0.0251399724426,0.730617534698,-0.425575461282
1470141542547247991,-0.01019210089,0.0134557662532,0.279955148697,-0.531949092982,0.0244987524018,0.730191768882,-0.428077042439
1470141542625546987,-0.0101502984762,0.0128710148856,0.279836535454,-0.578890089147,0.0288043180863,0.728582118147,-0.36499955214
1470141542702375301,-0.010166416876,0.0126410648227,0.279857397079,-0.571482956957,0.0273658921419,0.728634137946,-0.37649784976
1470141542774729591,-0.0101783471182,0.0123174628243,0.279921144247,-0.56427424037,0.0267098010548,0.72883718985,-0.386881789278
1470141542854791518,-0.010194350034,0.0121073946357,0.279861330986,-0.564249912649,0.0255864711378,0.728018514586,-0.38853109398
1470141542928680758,-0.0101520121098,0.0118714673445,0.279832154512,-0.567186424278,0.0279590781271,0.729488853936,-0.381266130213
1470141543001638794,-0.010135772638,0.0117111103609,0.2797960639,-0.574150733995,0.0283557055389,0.728888271534,-0.3718450971
1470141543074691503,-0.0101584112272,0.0113649722189,0.279834032059,-0.567496624075,0.0271841068995,0.728901473664,-0.381983308126
1470141543150832255,-0.010134594515,0.0112128462642,0.279785960913,-0.574592881203,0.0283016159636,0.728833120831,-0.371273916919
1470141543225101210,-0.0102353645489,0.0110502364114,0.279796093702,-0.544105094463,0.0228223349066,0.728039479629,-0.416398010694
1470141543302299855,-0.0101485811174,0.0108682392165,0.279818087816,-0.562719466196,0.0276974705164,0.729661811571,-0.387521990636
1470141543375379290,-0.010154729709,0.0107253044844,0.279813349247,-0.569606401177,0.0277105995322,0.728922397605,-0.378751645121
1470141543448486175,-0.0101893041283,0.0106258718297,0.279774338007,-0.549748519815,0.0247249549541,0.728919428447,-0.407236673688
1470141543522939419,-0.010212299414,0.0104722846299,0.279757112265,-0.554823506754,0.0233661119962,0.727600922147,-0.402767674044
1470141543600841682,-0.0101280314848,0.0103737823665,0.279758989811,-0.566330748947,0.0281814723669,0.729673259176,-0.382167793325
1470141543677262209,-0.0101887183264,0.0101256016642,0.279715269804,-0.555968615262,0.0249515677869,0.728391975372,-0.399651658725
1470141543754823739,-0.0101621942595,0.00994371902198,0.279767155647,-0.553843783202,0.0253354338029,0.729039663097,-0.401393010944
1470141543829404165,-0.0100995944813,0.00987522583455,0.279672175646,-0.566204022213,0.0287057319459,0.729997841193,-0.381696395106
1470141543903181201,-0.010088997893,0.00984890852123,0.279630511999,-0.567353355757,0.0285767499835,0.729790864961,-0.380392997427
1470141543976879865,-0.0100309271365,0.0101945856586,0.279280900955,-0.582173948215,0.0291671535515,0.728474786841,-0.359926737144
1470141544049811262,-0.0100817950442,0.0102117471397,0.279013007879,-0.575638734738,0.0245912627069,0.726290899276,-0.374882443571
1470141544128881933,-0.0100907748565,0.0101271988824,0.278422027826,-0.568245960816,0.0262343399754,0.727963435144,-0.38272382277
1470141544203034664,-0.0101585853845,0.0101063745096,0.277677595615,-0.531692351806,0.0257750882757,0.731594532515,-0.425920565188
1470141544276382879,-0.0101959314197,0.0100827058777,0.277368843555,-0.501247050747,0.0207089611933,0.730456415885,-0.463417692299
1470141544354695048,-0.0102436803281,0.01007442642,0.277120441198,-0.450203705417,0.015916994622,0.730235924863,-0.513632910697
1470141544429215342,-0.0101557243615,0.010054259561,0.276810646057,-0.492154481794,0.0197103269421,0.730217014905,-0.473475004838
1470141544501146030,-0.0101289320737,0.00998514518142,0.276582032442,-0.508751884224,0.0202131175604,0.72902226349,-0.45748168216
1470141544577874877,-0.0100296763703,0.00994858611375,0.276011437178,-0.555036673351,0.0248628323365,0.728538229572,-0.400684637658
1470141544653360933,-0.0100725078955,0.00992179196328,0.275369644165,-0.551405525961,0.0254534888746,0.72926620737,-0.404320250088
1470141544727721672,-0.0100883236155,0.00993342977017,0.274793714285,-0.529636782623,0.025582931722,0.731559653922,-0.428545055801
1470141544801486820,-0.0100289694965,0.00990735925734,0.27445089817,-0.538103152004,0.0260774444342,0.730959226677,-0.418883723282
1470141544873628584,-0.0100131426007,0.00986418500543,0.274152904749,-0.539522386737,0.0256424972278,0.730420186621,-0.418024410199
1470141544946332869,-0.00998347811401,0.0097198355943,0.273948431015,-0.546476516868,0.026202620593,0.730093410273,-0.40943919141
1470141545017777867,-0.0100003443658,0.00960195064545,0.273850739002,-0.536020438149,0.0243009921061,0.729961549475,-0.423376532129
1470141545091721366,-0.00998244341463,0.00933048035949,0.273753106594,-0.54063365912,0.025231987205,0.729960322672,-0.417416483589
1470141545164738120,-0.00993913132697,0.00909279938787,0.273534655571,-0.560086425703,0.0269971777771,0.729434907022,-0.391789566673
1470141545247976308,-0.00991055555642,0.00917621143162,0.273426145315,-0.574506999256,0.0280383775114,0.728594265488,-0.371895083982
1470141545323151370,-0.00991647318006,0.00957271363586,0.273277699947,-0.567851113489,0.027624844527,0.729154358337,-0.380940812453
1470141545399203702,-0.0100650964305,0.0101288016886,0.272772043943,-0.532049818583,0.0204188554616,0.727683276395,-0.432415436985
1470141545472787175,-0.0102019552141,0.0106383692473,0.272086262703,-0.451401081241,0.0162920075343,0.730791642836,-0.511776522621
1470141545552378691,-0.0100962789729,0.0109582515433,0.27189680934,-0.510518284781,0.0211806589641,0.729876483719,-0.454095561643
1470141545631579855,-0.00999652780592,0.0112547585741,0.27164041996,-0.555984214447,0.0247990669316,0.728147150667,-0.40008534907
1470141545705260583,-0.0100064361468,0.0114149255678,0.271270036697,-0.543030779657,0.0223316450931,0.727488242441,-0.418783628003
1470141545788658662,-0.00992655847222,0.0115903941914,0.270859867334,-0.561216232312,0.0242708380262,0.727398064365,-0.394131098709
1470141545870481947,-0.00998363271356,0.011621657759,0.270584702492,-0.57211066388,0.0213365463596,0.724609460283,-0.383634292175
1470141545942393326,-0.00995927490294,0.0117181288078,0.270054072142,-0.567383815618,0.0248332026772,0.727244487306,-0.385453464769
1470141546013701190,-0.0100151402876,0.0117911845446,0.269327431917,-0.530032374574,0.0250549159392,0.731041653388,-0.428970901231
1470141546087096374,-0.00998374447227,0.0118329664692,0.268837839365,-0.533368416538,0.0236765166096,0.729694406661,-0.427204433133
1470141546160771425,-0.0100273545831,0.011811110191,0.268693000078,-0.515468567195,0.0196373172818,0.72799115516,-0.451592083647
1470141546238789710,-0.00990994926542,0.0118061732501,0.268263012171,-0.537018353692,0.0231040588343,0.728899382399,-0.424008467605
1470141546317327630,-0.00987371150404,0.0117751546204,0.26806563139,-0.575261960362,0.0248495323442,0.726290438654,-0.375444238766
1470141546390174428,-0.00986000429839,0.0118161477149,0.268029719591,-0.575841728891,0.0251963942241,0.726469940112,-0.374182938012
1470141546476282650,-0.00985669251531,0.0118499984965,0.26801943779,-0.581401321102,0.0255240035929,0.726143606634,-0.366109944696
1470141546551520160,-0.00985693838447,0.0122198881581,0.267968058586,-0.593438511922,0.0258327561665,0.725177352135,-0.348254517885
1470141546628130061,-0.00982220750302,0.0123809315264,0.267901271582,-0.597996333269,0.0277295149491,0.725782425998,-0.338926731773
1470141546698280890,-0.00992251187563,0.0121498042718,0.268105834723,-0.576974517149,0.0243034710909,0.725973694045,-0.373459426723
1470141546771101033,-0.00992383435369,0.0113437240943,0.268026262522,-0.548531333504,0.0241906781445,0.728495139255,-0.409662079448
1470141546844784798,-0.0099339960143,0.0107897911221,0.268161863089,-0.550749049441,0.022372976341,0.72717118067,-0.409141795068
1470141546918835712,-0.00985321495682,0.0109664462507,0.268170654774,-0.560107324693,0.026548308501,0.729162120541,-0.392297813032
1470141546998987235,-0.00985171552747,0.0109927654266,0.268202453852,-0.562782238726,0.0264388540103,0.72868783474,-0.389347117975
1470141547072534381,-0.00991308223456,0.0108232479542,0.268127053976,-0.536134563435,0.0224796642604,0.728533681646,-0.425785238462
1470141547146016010,-0.00986019708216,0.0106294052675,0.268238931894,-0.559065522207,0.0263173694478,0.729049137247,-0.394005702274
1470141547222698158,-0.00985737331212,0.0105419689789,0.268198668957,-0.55721188551,0.0262099801204,0.729073519582,-0.396585116503
1470141547298135013,-0.00989464856684,0.0104080447927,0.268144637346,-0.549368538717,0.0239966475934,0.728336391739,-0.408833058888
1470141547371038404,-0.00984722841531,0.0102513935417,0.268166363239,-0.557639978101,0.0265265742139,0.729343840113,-0.395463725988
1470141547443298987,-0.00991247687489,0.00983834546059,0.268055737019,-0.552952899712,0.0228909167986,0.727394552067,-0.405729296763
1470141547518343553,-0.00987720768899,0.00953774061054,0.267736583948,-0.57245976128,0.0265292257685,0.727698396542,-0.376883358037
1470141547593566916,-0.00990794040263,0.0096318917349,0.267699658871,-0.564812384484,0.0239426270394,0.726872432443,-0.389961777484
1470141547667772258,-0.00981594715267,0.00945526268333,0.26756927371,-0.583381479174,0.0267425249084,0.726644577239,-0.361854315281
1470141547740824528,-0.00996939558536,0.00911138579249,0.266470193863,-0.515633690377,0.0226781189911,0.730598182826,-0.447027846468
1470141547816069777,-0.00989408884197,0.0088997874409,0.266265064478,-0.543303720062,0.0258919135823,0.730326147612,-0.413248587043
1470141547893496284,-0.00988296978176,0.00880969222635,0.265981882811,-0.535433977402,0.0251404075371,0.73044705341,-0.423232226936
1470141547967862518,-0.00983272399753,0.00875957589597,0.265764296055,-0.547929639984,0.0261116302271,0.730020481753,-0.407628984022
1470141548041774725,-0.00978543329984,0.0086861718446,0.265311211348,-0.56538177504,0.0266508631452,0.728711387494,-0.385503428886
1470141548121128019,-0.0097929853946,0.00864089280367,0.264902800322,-0.556723754985,0.0254837023293,0.728761402615,-0.397889506786
1470141548197062875,-0.00992911867797,0.00864844676107,0.264204472303,-0.511041921089,0.0200182872792,0.728702544496,-0.455442668959
1470141548271550832,-0.00996070168912,0.00860816426575,0.263665914536,-0.491952246676,0.0184168979804,0.728769441914,-0.47596103348
1470141548345220018,-0.00988205615431,0.00859952624887,0.26340046525,-0.516688003749,0.0209722707819,0.728978845132,-0.448534852593
1470141548415614741,-0.00979474466294,0.00857723597437,0.263082653284,-0.544076257361,0.0239891610608,0.728789484718,-0.415055939957
1470141548487311305,-0.009730306454,0.00858322903514,0.262800753117,-0.5497972048,0.0258284681478,0.729646981238,-0.405797001711
1470141548559113265,-0.00968679133803,0.00856520421803,0.262495756149,-0.552198120712,0.0261591503325,0.729578151412,-0.402627191479
1470141548630992883,-0.00969616323709,0.0085132336244,0.261807471514,-0.547342126734,0.024673360368,0.728969034748,-0.410380272392
1470141548704636711,-0.00978624913841,0.00855823699385,0.26099100709,-0.525270725536,0.0237926284246,0.730470703264,-0.435817768569
1470141548774009826,-0.00977257359773,0.00850513670594,0.260650366545,-0.525628221582,0.0225285483131,0.729376953936,-0.437283313488
1470141548846606614,-0.00970225781202,0.00841274019331,0.26052325964,-0.555043629341,0.0255164064386,0.728737981773,-0.400270454134
1470141548919201956,-0.00969835557044,0.00824799481779,0.260515958071,-0.548276161223,0.0253048909766,0.729249655475,-0.408592527486
1470141548990907280,-0.00968325790018,0.00819384865463,0.260352611542,-0.555344796946,0.0254892683681,0.728634984841,-0.400041888518
1470141549068111093,-0.00963746570051,0.0082225156948,0.259989053011,-0.553635207952,0.0258731377584,0.729089252427,-0.4015563463
1470141549142665417,-0.00969786290079,0.00828075688332,0.259799718857,-0.523878887059,0.0206392991407,0.728139144569,-0.441518195742
1470141549216461984,-0.0096147172153,0.00840358249843,0.259565144777,-0.567847125324,0.0261653762808,0.728074589146,-0.383108872235
1470141549289597942,-0.0096330223605,0.00857688114047,0.258991748095,-0.537533999712,0.0245358185272,0.730010708619,-0.421354432829
1470141549362007592,-0.00972731038928,0.00866165012121,0.258292287588,-0.524547872967,0.0230986392984,0.730112390106,-0.437323541147
1470141549434297391,-0.00965184438974,0.00871701631695,0.257955819368,-0.541860991099,0.0238490319088,0.728815197017,-0.417907045405
1470141549510130487,-0.00962544512004,0.00877442676574,0.25758844614,-0.543283276474,0.0230767783909,0.72817836177,-0.417213395342
1470141549581538660,-0.00958563107997,0.00880980119109,0.257303237915,-0.555689803291,0.0239044144229,0.72768354761,-0.401390179286
1470141549652553457,-0.00956414360553,0.00883971713483,0.256958544254,-0.545969815816,0.0249716229109,0.729326261966,-0.411553862665
1470141549723158690,-0.00956613384187,0.00885972380638,0.256504178047,-0.541190487987,0.0255996424284,0.730413068878,-0.415877701773
1470141549801993268,-0.00961501523852,0.00890203379095,0.255754947662,-0.541065275523,0.0264770523479,0.731040780899,-0.414881561394
1470141549880424130,-0.00965025275946,0.00891707930714,0.255362033844,-0.514771506032,0.0215340657089,0.729921131535,-0.449178942438
1470141549951466294,-0.00958903133869,0.00889407843351,0.255166500807,-0.532553391012,0.0231052289397,0.72940348148,-0.428746539721
1470141550025577528,-0.00954520236701,0.008883273229,0.254985570908,-0.545642020755,0.0244055326841,0.728990274366,-0.412616450278
1470141550097073464,-0.00950266607106,0.00888918060809,0.254738211632,-0.543878066198,0.0244030722637,0.729063045205,-0.414811059748
1470141550173936730,-0.00950225163251,0.00891572609544,0.254029273987,-0.563197133888,0.0252588655541,0.727692716863,-0.390684384019
1470141550249734611,-0.00961543340236,0.00896158628166,0.253442198038,-0.532962740911,0.021538949031,0.727935153675,-0.430809937815
1470141550324478489,-0.00960361864418,0.00898471288383,0.253130197525,-0.531562221172,0.0229378283663,0.729147785418,-0.430417202342
1470141550395936761,-0.00953304022551,0.00901510473341,0.2528193295,-0.534013873324,0.024275142185,0.730040928879,-0.425770058519
1470141550465866118,-0.00944324396551,0.00905950460583,0.2524548769,-0.557121977397,0.02731464012,0.729809044313,-0.395281888751
1470141550536804892,-0.00951833836734,0.00907541904598,0.25191539526,-0.528879851638,0.0219143162914,0.728826070027,-0.434302227628
1470141550608998635,-0.00953638553619,0.0090872021392,0.251405954361,-0.531822062882,0.023346136832,0.729601724332,-0.429303593252
1470141550683449368,-0.00954292714596,0.00908163562417,0.250952333212,-0.54297090284,0.024196084075,0.729015907967,-0.416092482647
1470141550754916752,-0.0094873458147,0.00906618405133,0.250667661428,-0.56529689305,0.0259281059978,0.727938984551,-0.387133040178
1470141550826305438,-0.00946615077555,0.00909518823028,0.250322937965,-0.563874088399,0.0254173169158,0.727772657047,-0.389547085842
1470141550899718928,-0.0094795152545,0.00912135001272,0.24981418252,-0.530867363491,0.0220903348922,0.728668536023,-0.432127323938
1470141550974873641,-0.00948199816048,0.00910417549312,0.249390289187,-0.538546503479,0.0233020854217,0.728808871855,-0.422211208651
1470141551052787046,-0.00953376293182,0.00912107620388,0.248715728521,-0.523639182488,0.0237308201687,0.730627654239,-0.437518097452
1470141551130492301,-0.00947959069163,0.00912364386022,0.248444095254,-0.542941250989,0.0255903011598,0.73001491466,-0.414292359132
1470141551205798602,-0.00946027413011,0.00915277563035,0.248139321804,-0.540599023581,0.0244117910147,0.729500648182,-0.418312759147
1470141551281328202,-0.00945246685296,0.00913068279624,0.247765421867,-0.535751118565,0.0214340330073,0.727611752184,-0.42789304653
1470141551354349718,-0.00945514347404,0.00912989396602,0.247338145971,-0.525234637789,0.0220946455591,0.728982408564,-0.438434772695
1470141551426743189,-0.00945727806538,0.00912464782596,0.246820777655,-0.543941335596,0.0245248295852,0.729141091341,-0.414583676815
1470141551498906346,-0.00944031495601,0.00913758669049,0.246275544167,-0.545282552388,0.0259197639475,0.729993745637,-0.411222853485
1470141551571782698,-0.00940337404609,0.00915491953492,0.245826199651,-0.541403665579,0.0252478503322,0.729949078524,-0.416436021152
1470141551643299977,-0.00942892022431,0.0091408342123,0.245579838753,-0.530403640472,0.0218196810161,0.728446729045,-0.433083413026
1470141551715552340,-0.0094029866159,0.00913708191365,0.245192661881,-0.535383770073,0.0229081834481,0.728750103265,-0.426336394019
1470141551788624170,-0.0094294315204,0.00912061147392,0.244750499725,-0.532971150265,0.0234759944773,0.729414125746,-0.428188817965
1470141551863016821,-0.00939359888434,0.00910606887192,0.244059756398,-0.562040767675,0.0262596334308,0.728500449422,-0.390778328871
1470141551943807275,-0.00933889485896,0.00910156592727,0.243766486645,-0.56424481179,0.027512148739,0.729132482487,-0.38631165789
1470141552017373745,-0.0093840546906,0.00911617372185,0.243586018682,-0.544374705126,0.0235816449931,0.728522817704,-0.415156103801
1470141552092220755,-0.00937995035201,0.00913078989834,0.243228301406,-0.521736662737,0.0218223195321,0.729355788442,-0.441989564348
1470141552166518872,-0.0093702794984,0.00901640485972,0.239619240165,-0.518176829885,0.0211393589121,0.728918428519,-0.44690471584
1470141552240818035,-0.0093017462641,0.0090126702562,0.238956049085,-0.532432180534,0.0195619096458,0.726357316112,-0.434210034607
1470141552316428216,-0.0093326093629,0.00907078105956,0.239587128162,-0.548392418707,0.0246473261092,0.728774167945,-0.409324414807
1470141552389481522,-0.00933448597789,0.00911783706397,0.24063834548,-0.547486631523,0.024177961449,0.728585896901,-0.410897073878
1470141552466530140,-0.00933415070176,0.00914541911334,0.241149693727,-0.536231893894,0.0227430969172,0.728608332801,-0.425520863045
1470141552541560242,-0.00928482040763,0.00917496718466,0.240756347775,-0.535766268453,0.0247542913558,0.730103922314,-0.423426490986
1470141552615843701,-0.009311536327,0.00917247124016,0.23989482224,-0.540291727525,0.0265490301439,0.731135747507,-0.41571687106
1470141552691776307,-0.00932083651423,0.00916867982596,0.239528432488,-0.538955196636,0.024967678821,0.730142530924,-0.419280092025
1470141552764680904,-0.00932400953025,0.0091451536864,0.239360630512,-0.535903970472,0.0236385102992,0.729404863539,-0.424519375657
1470141552841257512,-0.00932741351426,0.00913341995329,0.239168092608,-0.526714618267,0.0219854206541,0.728983329687,-0.43665965834
1470141552915519646,-0.00929258391261,0.00914021302015,0.238710671663,-0.523149392796,0.0225708040679,0.729657393774,-0.439778761802
1470141552992708389,-0.0092452056706,0.0091136470437,0.23838545382,-0.554447469009,0.0251137279125,0.728434410847,-0.401672271725
1470141553068368632,-0.00923597998917,0.00916886609048,0.237886816263,-0.554969440552,0.0272143213666,0.729951624142,-0.398043875945
1470141553146444294,-0.00930426176637,0.0092208692804,0.23742261529,-0.521938817153,0.0231195409942,0.730418057072,-0.439925925441
1470141553223196750,-0.00923958327621,0.00923243910074,0.237047061324,-0.534036097445,0.0241791348935,0.730156491376,-0.425549426228
1470141553307947273,-0.00918517913669,0.00925629306585,0.236661538482,-0.538102152394,0.0262251553738,0.731031102506,-0.418750333712
1470141553384344306,-0.00918445363641,0.00924954470247,0.236210420728,-0.549354366213,0.0264713846223,0.730021824949,-0.405681132439
1470141553456940208,-0.00933026894927,0.00925295613706,0.235525712371,-0.519530920163,0.0207391930847,0.728594470249,-0.445878466386
1470141553531483786,-0.00922879483551,0.00924202334136,0.235169500113,-0.546744983222,0.0239896965197,0.728489719755,-0.412064492518
1470141553612640206,-0.00917658023536,0.00927481520921,0.234841912985,-0.542093505691,0.0255743753394,0.72998871018,-0.41544802975
1470141553688294713,-0.00914590712637,0.0092887384817,0.234401270747,-0.545724046926,0.0266906509705,0.730498378807,-0.409688896991
1470141553762672744,-0.009173380211,0.00929231382906,0.234092533588,-0.536583783553,0.0253990272241,0.730545045372,-0.42158826991
1470141553834341717,-0.00927459355444,0.00926986988634,0.233585253358,-0.526634697972,0.0226644811493,0.729555189649,-0.435765351356
1470141553907689146,-0.00925993639976,0.00928073003888,0.233404368162,-0.521957389988,0.0220256049247,0.729544352546,-0.441407287472
1470141553980200308,-0.0091398190707,0.00930881034583,0.233006119728,-0.550618740305,0.0263026068194,0.729835771713,-0.404310427801
1470141554052810149,-0.00911189895123,0.00932244956493,0.232773095369,-0.55289520779,0.0265429508637,0.72965950561,-0.401496409491
1470141554124435013,-0.00910435430706,0.00934215914458,0.232601031661,-0.546713244362,0.0256446574004,0.729660569231,-0.409929791179
1470141554196544190,-0.00921308342367,0.00938942469656,0.232145264745,-0.51032868418,0.0213608593982,0.729949011179,-0.454183651036
1470141554269710627,-0.00916421134025,0.00939537677914,0.231419563293,-0.551030809942,0.0261462521109,0.729677889228,-0.404044054488
1470141554343489295,-0.0091144470498,0.00940848514438,0.231160700321,-0.551774510362,0.0265548525642,0.729878102208,-0.402638405319
1470141554416690915,-0.0091511849314,0.00945987924933,0.230824828148,-0.529230409246,0.0238320988265,0.73015396631,-0.431534923822
1470141554493847981,-0.00913033261895,0.00948637071997,0.230412825942,-0.521117568368,0.0232445252672,0.730397900056,-0.440925253957
1470141554570072815,-0.0091335196048,0.00950428657234,0.229921773076,-0.522822125655,0.0245516542638,0.731307446866,-0.437314142644
1470141554641602247,-0.00911395438015,0.0094694364816,0.229342401028,-0.550216250561,0.0253134694678,0.729189293469,-0.406084080177
1470141554714665132,-0.00913417339325,0.00949600897729,0.229053661227,-0.526766929415,0.022675657903,0.729609425019,-0.435514068127
1470141554791609852,-0.00913016777486,0.00950709078461,0.22878728807,-0.513691665998,0.0225610240001,0.730655349565,-0.449171050527
1470141554869517765,-0.00907464884222,0.00952040497214,0.228490263224,-0.52036394313,0.024256251504,0.731302131689,-0.440261505403
1470141554942221605,-0.0090989228338,0.0094837686047,0.227604463696,-0.547939348251,0.0258857743411,0.729813670464,-0.408000494764
1470141555015437598,-0.00909757427871,0.00948117300868,0.2274004668,-0.546531660533,0.0247924099173,0.729176543903,-0.411083991742
1470141555092503996,-0.00911694020033,0.00947755947709,0.227216854692,-0.524891865498,0.0230173525395,0.729886396998,-0.437292326132
1470141555167068807,-0.00910033565015,0.00948853604496,0.22696082294,-0.51961612998,0.0219970378049,0.729541294366,-0.444167431952
1470141555241015793,-0.00904176663607,0.00954283867031,0.226394101977,-0.526906944684,0.0252180552145,0.7312658181,-0.432415800606
1470141555312612416,-0.00907084625214,0.00952364318073,0.22608935833,-0.542475078819,0.0259245683327,0.730403800882,-0.414196805003
1470141555384650799,-0.00907627027482,0.0094535741955,0.225851476192,-0.546273926272,0.0259873106847,0.730099574398,-0.409712177781
1470141555456790478,-0.00911390315741,0.00929945707321,0.225688487291,-0.529444695071,0.0232146321004,0.729675563384,-0.43211453102
1470141555529516668,-0.00904934015125,0.00949838198721,0.225389569998,-0.537928676221,0.0235673944726,0.729346845746,-0.422055086235
1470141555601022861,-0.00898182485253,0.00967640336603,0.225139856339,-0.547567512543,0.0263425905682,0.730233640987,-0.407718918742
1470141555672082148,-0.00899325124919,0.00971847213805,0.225029885769,-0.537679928319,0.0258512537903,0.730786745818,-0.419741276857
1470141555746231769,-0.0089600449428,0.00966541469097,0.224923223257,-0.543398213795,0.0261436645978,0.730493908406,-0.412811748654
1470141555817260626,-0.00901426747441,0.00980197824538,0.224635511637,-0.513835717096,0.0222854429676,0.730199392664,-0.449761116396
1470141555888677661,-0.00904522370547,0.00997179094702,0.224115043879,-0.524340432621,0.0232096440338,0.730107637999,-0.437574290924
1470141555960340306,-0.00902627035975,0.0100681139156,0.223706528544,-0.545518225433,0.0249067629361,0.729437347938,-0.41195955422
1470141556033008955,-0.008958671242,0.0101406108588,0.223457917571,-0.556578746973,0.0263000852556,0.729322969288,-0.397009332891
1470141556104476643,-0.00894850213081,0.0102605139837,0.223049819469,-0.544007798598,0.0248593646893,0.729680720198,-0.413525783505
1470141556176588520,-0.00896046496928,0.010372556746,0.222605198622,-0.528432766889,0.0251192194961,0.731198880284,-0.430669285138
1470141556252951584,-0.00903571769595,0.0103947650641,0.222147718072,-0.529924507077,0.0228288306795,0.729536736025,-0.431781208575
1470141556329786151,-0.00896940845996,0.0104198521003,0.221803382039,-0.549563554212,0.0249418502548,0.729041737783,-0.407254157201
1470141556404333872,-0.00892269331962,0.0104627115652,0.221518620849,-0.551988598911,0.0260558600876,0.729573094971,-0.402930239524
1470141556477116202,-0.00892543885857,0.0104844393209,0.221078842878,-0.528584358557,0.0252238082146,0.731190088038,-0.430492033078
1470141556551833939,-0.00894241221249,0.0105121424422,0.220737934113,-0.514236879462,0.0232426805352,0.731127992628,-0.447741072494
1470141556621166556,-0.00897009670734,0.0104955071583,0.220369145274,-0.523733487266,0.0236270818101,0.730631054511,-0.437405141152
1470141556695612906,-0.00894694589078,0.0103965234011,0.220008864999,-0.531791118239,0.0237688635228,0.729909044091,-0.428796029649
1470141556766829351,-0.00885382574052,0.0103471530601,0.219802305102,-0.533889009883,0.0237860997681,0.729764864334,-0.426427003563
1470141556838630329,-0.00879777036607,0.0102557437494,0.219501510262,-0.529457930188,0.0234553681968,0.729904318525,-0.431698774218
1470141556911364139,-0.00876619201154,0.0101380385458,0.219081148505,-0.513033273696,0.0216088104526,0.73002526855,-0.450991160301
1470141556981952239,-0.00870165694505,0.0100805144757,0.218787804246,-0.530468728459,0.0230727768072,0.729718491048,-0.430791711759
1470141557056317016,-0.00863811187446,0.009949689731,0.218516454101,-0.535561894838,0.0232337930358,0.729235427434,-0.425263846376
1470141557129011894,-0.00851051416248,0.009765625,0.218035668135,-0.536563718313,0.0249466175586,0.730674630248,-0.421416216079
1470141557201153164,-0.00846539624035,0.00963408406824,0.217780560255,-0.538233212383,0.0250396064336,0.730415779489,-0.41972707355
1470141557272444463,-0.0084207765758,0.00958297494799,0.217540383339,-0.536247146789,0.0255148129138,0.730992932433,-0.421233100094
1470141557344173184,-0.00840993225574,0.00947816018015,0.217308849096,-0.528611268312,0.0252060671277,0.731509856612,-0.429916399865
1470141557413277218,-0.00845853518695,0.00933356024325,0.21716336906,-0.535562551422,0.0237464599992,0.729695890356,-0.424444067869
1470141557484261399,-0.00850775185972,0.00926522351801,0.216977447271,-0.519224994257,0.0221876346375,0.730170932609,-0.443580346026
1470141557557344950,-0.00857944134623,0.00908972416073,0.21643319726,-0.506971905694,0.0204634015078,0.729774617257,-0.458246379193
1470141557634010767,-0.00844374299049,0.0088999317959,0.216143861413,-0.543891869001,0.0251554876656,0.729991775582,-0.413111176146
1470141557704799727,-0.00845580454916,0.00872611347586,0.215885549784,-0.532063501768,0.0239683780308,0.730270814495,-0.427829971412
1470141557774600782,-0.00844228081405,0.00864957179874,0.215628921986,-0.533665371807,0.0240258950588,0.73023052845,-0.42589599977
1470141557845753298,-0.00853259675205,0.00850393157452,0.215012252331,-0.523361954535,0.0230070078101,0.730573393463,-0.437978833851
1470141557917547915,-0.00854692794383,0.00831777136773,0.214627027512,-0.510257826508,0.0209729951959,0.730352929349,-0.453631659556
1470141557993378790,-0.00856278184801,0.00819827616215,0.2143779248,-0.511539632684,0.020420110724,0.729614386078,-0.453401666185
1470141558069283129,-0.0085881203413,0.00798190571368,0.213532432914,-0.5286523347,0.0240532346209,0.730875942945,-0.431008708665
1470141558142160920,-0.00856967642903,0.00788442511111,0.213123351336,-0.540020916919,0.0246383605639,0.730335344332,-0.41758908666
1470141558215893389,-0.00864422880113,0.00781776104122,0.212620347738,-0.530657795395,0.0234142136332,0.730267627278,-0.429608276614
1470141558289595353,-0.00869398005307,0.00778208114207,0.212360963225,-0.511504450989,0.0213555414169,0.730349815688,-0.452212653729
1470141558375209227,-0.00858143344522,0.00771300401539,0.212083354592,-0.526889003864,0.024300845841,0.731328743665,-0.432383759164
1470141558450279183,-0.00855175685138,0.00762120774016,0.211945399642,-0.53817702204,0.0250098064423,0.73068574843,-0.41933082354
1470141558523187004,-0.00850773788989,0.00759410811588,0.21184155345,-0.5416824505,0.0254587966921,0.730691964638,-0.414754415655
1470141558601007840,-0.00850034691393,0.00760578643531,0.211774200201,-0.531780714318,0.0242068114591,0.730738669246,-0.427369043599
1470141558674155898,-0.00849230587482,0.00761275552213,0.211673036218,-0.527542880398,0.0234897406631,0.730580024011,-0.432896719716
1470141558747642836,-0.0084666274488,0.00763164646924,0.211620375514,-0.514100531684,0.0216087995555,0.730480040725,-0.449035202636
1470141558823064928,-0.00840928219259,0.0076406756416,0.211644396186,-0.507618001928,0.0209494929078,0.730490968462,-0.456363920419
1470141558897372254,-0.00837744772434,0.00744683435187,0.210753902793,-0.497991424211,0.0202149917984,0.730687717724,-0.466574061309
1470141558971073644,-0.00815803278238,0.00741912610829,0.209597915411,-0.518533886235,0.0241957594963,0.731795074825,-0.441602924028
1470141559044343791,-0.00811979733407,0.00742671638727,0.209705635905,-0.521519921415,0.0250122993335,0.73213441336,-0.437459206355
1470141559116958832,-0.00816227775067,0.00736502278596,0.209562823176,-0.50864545295,0.0236687677682,0.73230753364,-0.452156243791
1470141559188338372,-0.00818721111864,0.00729673355818,0.20871989429,-0.520841452905,0.0231355071933,0.730686048944,-0.440779794366
1470141559260393670,-0.00815472565591,0.0073042861186,0.208207860589,-0.509639779859,0.0217121221189,0.730615089974,-0.453869440303
1470141559329607495,-0.00811681896448,0.00731468340382,0.207855686545,-0.51824258828,0.0236118932169,0.731289125689,-0.442812954689
1470141559403183517,-0.0081022195518,0.0073270057328,0.207553505898,-0.507565934828,0.0235194517421,0.73223027215,-0.45350025991
1470141559479870881,-0.0081259906292,0.00727843213826,0.207088172436,-0.52218406716,0.0238862375852,0.731214612382,-0.438267541916
1470141559554496587,-0.00810329988599,0.00720995664597,0.206927403808,-0.525630248143,0.0233242717717,0.730298704098,-0.435697857897
