%time,field.position.x,field.position.y,field.position.z,field.orientation.x,field.orientation.y,field.orientation.z,field.orientation.w
1470148072485586057,-0.0378360040486,0.374558150768,1.35844314098,-0.175597112654,0.0158307993188,0.789049297885,-0.58848640199
1470148072611479251,-0.0378360040486,0.374558150768,1.35844314098,-0.175597112654,0.0158307993188,0.789049297885,-0.58848640199
1470148072688230812,-0.0378360040486,0.374558150768,1.35844314098,-0.175597112654,0.0158307993188,0.789049297885,-0.58848640199
1470148072771508299,-0.0378360040486,0.374558150768,1.35844314098,-0.175597112654,0.0158307993188,0.789049297885,-0.58848640199
1470148072853224997,-0.0378360040486,0.374558150768,1.35844314098,-0.175597112654,0.0158307993188,0.789049297885,-0.58848640199
1470148072928604283,-0.0378360040486,0.374558150768,1.35844314098,-0.175597112654,0.0158307993188,0.789049297885,-0.58848640199
1470148073007669139,-0.0378360040486,0.374558150768,1.35844314098,-0.175597112654,0.0158307993188,0.789049297885,-0.58848640199
1470148073080576854,-0.0378360040486,0.374558150768,1.35844314098,-0.175597112654,0.0158307993188,0.789049297885,-0.58848640199
1470148073158595103,-0.037276469171,0.372738927603,1.35079610348,-0.267216220931,0.0282015375871,0.787033724661,-0.555317999705
1470148073237164691,-0.0365843661129,0.372201561928,1.34595704079,-0.00248816801344,0.00396070038166,0.374672905423,0.927145261442
1470148073316189507,-0.0362362153828,0.379605293274,1.36959862709,-0.194434546123,0.0195510482871,0.780640562422,-0.593644065149
1470148073395512002,-0.0353085882962,0.368188291788,1.35113048553,-0.287069194904,0.0310976704318,0.785667279159,-0.54712991025
1470148073474148943,-0.0360040515661,0.353751659393,1.32644343376,-0.258990579923,0.0309535009987,0.785223773212,-0.561595393739
1470148073550403278,-0.0361042879522,0.341275781393,1.30550146103,-0.0560221795246,0.0194157268543,-0.402831019676,-0.913351911663
1470148073624336924,-0.035078663379,0.334346830845,1.29282987118,-0.281789146513,0.0233814814272,0.783312138093,-0.553597577262
1470148073699062093,-0.0345481000841,0.317952603102,1.26444530487,-0.132387403628,0.0197392148569,0.801925724529,-0.582236267418
1470148073774023905,-0.034381929785,0.309249997139,1.26134324074,-0.176392447976,0.0233479867798,0.794316092616,-0.580863599154
1470148073849138363,-0.0335317254066,0.299729257822,1.24603736401,-0.181351111453,0.0185250338566,0.792859332234,-0.581500366969
1470148073925121934,-0.032517798245,0.286018043756,1.23651599884,-0.0194135270928,0.00331372900968,-0.411998580548,-0.910971626228
1470148074000349243,-0.0317612886429,0.275363087654,1.22047460079,-0.254375707839,0.0324612035469,0.797180525656,-0.54657339767
1470148074074027458,-0.0305349994451,0.267618238926,1.21873033047,-0.20843143912,0.0246931968887,0.785847013339,-0.581713892596
1470148074149193416,-0.0304611828178,0.263355791569,1.2285567522,-0.202998822943,0.0236303444307,0.779590249999,-0.592006863821
1470148074223984338,-0.0295251496136,0.248009204865,1.21091794968,-0.230572437583,0.0206994203444,0.779034657277,-0.582677344494
1470148074300955559,-0.0287223998457,0.236100748181,1.18495202065,-0.220541252242,0.0294469109113,0.790409592232,-0.570742596978
1470148074374177010,-0.028678715229,0.23127399385,1.19456124306,-0.136822852847,0.0113234295725,0.770257353905,-0.622779973696
1470148074450464291,-0.0282604210079,0.218245640397,1.15670502186,-0.199642910074,0.0222373526585,0.791664309256,-0.576988587456
1470148074526143831,-0.0273021906614,0.206513866782,1.14133381844,-0.0914261662421,0.0105959947878,0.787251754828,-0.609724245492
1470148074602058205,-0.0271100215614,0.200590163469,1.13783860207,-0.251530217536,0.033032761452,0.784699078552,-0.565587077697
1470148074678274567,-0.0269040893763,0.19505611062,1.13376510143,-0.256779754118,0.0316851802183,0.783894214168,-0.564420116777
1470148074758665997,-0.0260744746774,0.188013985753,1.11980223656,-0.205776927347,0.0218973349991,0.784997123436,-0.58391427375
1470148074833905668,-0.0256334580481,0.179591983557,1.11331760883,-0.187885381122,0.0230789776501,0.783204599919,-0.592247413685
1470148074907679668,-0.0256111156195,0.174650683999,1.11272001266,-0.195333771629,0.0174721284604,0.767079350354,-0.610842625108
1470148074987674607,-0.0249206423759,0.168642729521,1.09862029552,-0.286732630863,0.0304100627629,0.777638301096,-0.558693385633
1470148075062106012,-0.0245044603944,0.157087936997,1.06397116184,-0.113919453568,0.0136822564627,0.785558179685,-0.608057152155
1470148075134565232,-0.024461755529,0.153480514884,1.06284224987,-0.194684340128,0.023393384208,0.782139469469,-0.591446200075
1470148075213803143,-0.024472894147,0.150240242481,1.06292521954,-0.20548057377,0.0209460926647,0.771378473028,-0.601925449167
1470148075294999273,-0.0244404561818,0.146583050489,1.06058967113,-0.218441770742,0.0213989757474,0.767540182817,-0.602251894471
1470148075374159070,-0.0243357066065,0.13802793622,1.03063213825,-0.252749862435,0.0247607130775,0.776105846259,-0.577203715797
1470148075464910507,-0.0239502973855,0.134013876319,1.02346515656,-0.35511007122,0.0364837302618,0.771576443366,-0.526531638922
1470148075542347578,-0.0236048512161,0.130055293441,1.01485145092,-0.336386207639,0.036052558901,0.770381259288,-0.540423211608
1470148075622527539,-0.0237574409693,0.125286817551,0.995230078697,-0.169073202691,0.0208609829693,0.782563322901,-0.598810251392
1470148075704972439,-0.0237674564123,0.121343530715,0.994728386402,-0.210906568217,0.0198618936606,0.766298251106,-0.606556604955
1470148075781359121,-0.0237831007689,0.11740090698,0.976817131042,-0.260860615211,0.032732575823,0.776991088323,-0.571983536982
1470148075858655579,-0.0232324525714,0.112914614379,0.959940671921,-0.290136798159,0.0325611127591,0.780698166706,-0.552513153502
1470148075935736251,-0.022660728544,0.1100852862,0.952518701553,-0.335171988143,0.0366822138027,0.767809709437,-0.544777389076
1470148076011569943,-0.0226382017136,0.107632763684,0.949766933918,-0.365884370153,0.0375933192706,0.762172395696,-0.532736904356
1470148076088329051,-0.0227156262845,0.103853948414,0.928394138813,-0.293734021973,0.0263924794767,0.765640062275,-0.571680904353
1470148076164421020,-0.0221328642219,0.101069316268,0.919955551624,-0.250790581283,0.0204961837519,0.766288650554,-0.591173151305
1470148076237570438,-0.0221413783729,0.0975021347404,0.898541927338,-0.246824611809,0.0296143079549,0.779392871581,-0.575106386243
1470148076326870057,-0.0219268035144,0.0960579067469,0.894617915154,-0.209544534139,0.0192626385124,0.774061473093,-0.597117136618
1470148076406054847,-0.0212422367185,0.0932771489024,0.882203817368,-0.427520412236,0.0524944522737,0.771510371077,-0.468233250553
1470148076480899144,-0.021403985098,0.0898977145553,0.866728186607,-0.202313800437,0.0207299886844,0.772629117388,-0.60140139731
1470148076558186104,-0.0213032700121,0.0885063782334,0.864980518818,-0.251368832639,0.0228965671859,0.765653485407,-0.59166223259
1470148076633220603,-0.0210952516645,0.0870793610811,0.860086917877,-0.241688993976,0.0164007318561,0.756773867215,-0.607133230919
1470148076707923999,-0.0207388382405,0.0827814489603,0.836143553257,-0.366656547812,0.0328440030021,0.761550779916,-0.533408527325
1470148076786046452,-0.0210288576782,0.0805500522256,0.822074770927,-0.0580352127611,0.00479938783008,0.764808045631,-0.641621019991
1470148076861144968,-0.0207330193371,0.0792260915041,0.816936314106,-0.277935717777,0.0180995825148,0.75345057741,-0.595597489331
1470148076934161231,-0.0206407047808,0.0766840428114,0.797167003155,-0.292575288568,0.0231884154504,0.763253832802,-0.575591508468
1470148077010932575,-0.0202781967819,0.076014764607,0.793200969696,-0.277707093557,0.0236289795364,0.759346197681,-0.587974313709
1470148077090070645,-0.0201483499259,0.0752434283495,0.789619624615,-0.178220631205,0.0104526704993,0.751358458257,-0.635286246898
1470148077162192339,-0.0197479724884,0.0727583020926,0.768556654453,-0.316408778524,0.0257462825661,0.761187314572,-0.565523196644
1470148077241973451,-0.019412279129,0.0726335123181,0.764297425747,-0.356945629198,0.0298295599792,0.755876438053,-0.548042722372
1470148077315007747,-0.0192471966147,0.0705336406827,0.745549142361,-0.269351416044,0.0194584202903,0.7602442022,-0.590846797043
1470148077392859578,-0.0188828743994,0.0701126009226,0.742001593113,-0.29316102404,0.0244613281023,0.757256918847,-0.583112524535
1470148077469336408,-0.0186425969005,0.0680924877524,0.722616076469,-0.370617491432,0.0370616297783,0.766832938237,-0.52272015025
1470148077544055839,-0.0184479001909,0.0673094168305,0.719972610474,-0.413344895987,0.0272328097103,0.746014132194,-0.521408942773
1470148077617811352,-0.0185630097985,0.0663818493485,0.707432866096,-0.236924304218,0.0190208229565,0.76187190033,-0.602541525417
1470148077699386778,-0.0185198355466,0.0648054331541,0.692156434059,-0.346702656556,0.0272656760952,0.758083348345,-0.551691478823
1470148077771742821,-0.0186089742929,0.0632824152708,0.67940300703,-0.442509702866,0.036525926857,0.753034756313,-0.485581790558
1470148077843706834,-0.0188919696957,0.0627323389053,0.66993278265,-0.329408491878,0.0280616611462,0.762042241899,-0.556771236877
1470148077916119571,-0.0189734753221,0.0613748803735,0.658841669559,-0.330205599667,0.0246202730883,0.752709070064,-0.569022987185
1470148078005631782,-0.0188150685281,0.0605767667294,0.644145667553,-0.290335637995,0.0257417248538,0.766856381792,-0.571816290969
1470148078082650464,-0.0184663534164,0.0598924122751,0.6409740448,-0.392472450619,0.0234842715099,0.741639645189,-0.543492871325
1470148078156180567,-0.0182601176202,0.0583798401058,0.626129031181,-0.442016002161,0.0350661748615,0.750928431899,-0.489386051476
1470148078230362467,-0.0182778369635,0.0577603206038,0.615614175797,-0.277527627755,0.020897351399,0.758431737279,-0.589341171501
1470148078304115044,-0.0179789047688,0.0563931800425,0.601507544518,-0.327930263797,0.0243194727026,0.755986736814,-0.565998550436
1470148078382347145,-0.0177925601602,0.0551565662026,0.591197907925,-0.289371378696,0.0220713768372,0.755316122717,-0.587600726922
1470148078460967707,-0.0177488513291,0.0538519360125,0.578463435173,-0.273782849757,0.0172568102645,0.752929803289,-0.598198850716
1470148078538989355,-0.0173398964107,0.0526842027903,0.568444669247,-0.339468386315,0.0263836164583,0.754189499342,-0.561483141829
1470148078614101835,-0.0169784445316,0.0517131015658,0.560896813869,-0.414542246822,0.0244453450431,0.743066830979,-0.524794088576
1470148078691765780,-0.0168657619506,0.0509196072817,0.550765872002,-0.391256802605,0.0244425186153,0.74476740036,-0.540039069939
1470148078764943906,-0.0166395381093,0.0502079166472,0.538887262344,-0.373881970629,0.0241299793293,0.74831122244,-0.54741239528
1470148078840911208,-0.0163852032274,0.048998657614,0.525115430355,-0.30207171222,0.0204162377217,0.752677208385,-0.584647652771
1470148078914809230,-0.0162967462093,0.0478053241968,0.512095034122,-0.284026084641,0.0192240488593,0.754680462953,-0.591115063271
1470148078994746879,-0.0157491993159,0.0471762791276,0.506339132786,-0.478347692283,0.0288921200855,0.740035597827,-0.471906817743
1470148079069215332,-0.0156267527491,0.0465713888407,0.491112887859,-0.333329145973,0.0243133809798,0.754959823987,-0.564212906726
1470148079142227985,-0.0153532596305,0.0457785800099,0.481112539768,-0.368707286336,0.0250938389148,0.75133540741,-0.546736080595
1470148079221064701,-0.0150438193232,0.045400083065,0.47190785408,-0.388712000699,0.0284318743235,0.753131707477,-0.529987962342
1470148079296748812,-0.0148363411427,0.0446046106517,0.457195788622,-0.292105337295,0.0197229664695,0.75333436387,-0.588874190919
1470148079370304233,-0.0145046422258,0.0438483543694,0.447839647532,-0.393505996883,0.0261867735039,0.747858784309,-0.534017342454
1470148079442874628,-0.0142629146576,0.0431922860444,0.439425647259,-0.404752073192,0.0217029752238,0.740661871579,-0.535840211353
1470148079521907791,-0.0138843888417,0.0429784469306,0.43066623807,-0.414301464379,0.0267556602367,0.745561643028,-0.521321654744
1470148079605383407,-0.0135288555175,0.0416079387069,0.41598585248,-0.440434668327,0.0249484770234,0.740700481411,-0.50671261408
1470148079678689433,-0.0134328380227,0.0409849695861,0.405287176371,-0.437117177046,0.0272490420099,0.744830527824,-0.503401974631
1470148079750593828,-0.0131338313222,0.0406857654452,0.396939486265,-0.397233352617,0.0249580144561,0.74596832998,-0.533960683711
1470148079823358726,-0.0129298139364,0.0400538109243,0.386541366577,-0.405314355312,0.0251160754197,0.745528677071,-0.528466127389
1470148079903684134,-0.0125688556582,0.0394604839385,0.372622191906,-0.356012394424,0.0210652458543,0.745577069217,-0.562962045161
1470148079980865872,-0.0123533196747,0.0388874337077,0.362815350294,-0.38779348673,0.0234533703861,0.745298039671,-0.541845903491
1470148080054519547,-0.0121851991862,0.0383475832641,0.353063702583,-0.38198446427,0.0214321236014,0.742206529223,-0.550234496477
1470148080128431880,-0.011964163743,0.0376979336143,0.338065385818,-0.393026593902,0.0240999567282,0.746257659473,-0.536701774032
1470148080205607245,-0.0116693340242,0.0372316353023,0.328905522823,-0.405461711705,0.0237954541401,0.744062805447,-0.530476312623
1470148080278923627,-0.0114053422585,0.0366015359759,0.320114284754,-0.435415391837,0.0218131981842,0.738333205062,-0.514588864278
1470148080354821330,-0.0111203817651,0.0354510098696,0.305475860834,-0.453629211643,0.0244631887895,0.738405969317,-0.498376078093
1470148080431437527,-0.0110126985237,0.0350287035108,0.295962572098,-0.397779047019,0.0200335474186,0.739894922455,-0.542149417094
1470148080505036307,-0.0108736138791,0.0343643091619,0.286922007799,-0.440700711242,0.0230285665384,0.739405997275,-0.50845977169
1470148080581169267,-0.0106851812452,0.0339085198939,0.280479073524,-0.457553129271,0.024881367505,0.73857291467,-0.494505916204
1470148080653497147,-0.0106829684228,0.0339126028121,0.274434179068,-0.430147737757,0.0245810007888,0.741531767476,-0.51429498921
1470148080730318832,-0.0106151578948,0.0343053080142,0.274795264006,-0.447995595102,0.0246035056541,0.739837798067,-0.501332870287
1470148080804392455,-0.0105821918696,0.0354920402169,0.275134623051,-0.4525481039,0.023953912418,0.739000236896,-0.498502832093
1470148080885255485,-0.0105213737115,0.0364814214408,0.274388104677,-0.459578784235,0.0238811248033,0.73765256039,-0.49405033459
1470148080964370405,-0.0105338757858,0.0368440970778,0.273527294397,-0.447194447702,0.0252163707395,0.739264337106,-0.502861313361
1470148081044683093,-0.0105175962672,0.0364989601076,0.273431867361,-0.456589027024,0.0243720800092,0.737809345966,-0.496557983647
1470148081119197509,-0.010535207577,0.0362857580185,0.273014068604,-0.468758129616,0.0263103356834,0.738675432034,-0.483665368064
1470148081192012072,-0.0105656059459,0.0358334667981,0.272918492556,-0.477403789027,0.0263646692605,0.737820590905,-0.476457030669
1470148081264452728,-0.010551340878,0.0351518169045,0.272706151009,-0.504032066508,0.0279307818989,0.736629515945,-0.450053889654
1470148081338175818,-0.0105462223291,0.0347833968699,0.272716939449,-0.509606426878,0.0280302763277,0.736072796249,-0.444648661209
1470148081414471992,-0.0105549981818,0.0343712233007,0.27270963788,-0.501865633726,0.0273650805405,0.736366338691,-0.452931179424
1470148081489629251,-0.0105430753902,0.0336736701429,0.272813856602,-0.482370633409,0.0259042059763,0.736662742636,-0.473260549538
1470148081563146152,-0.0105301290751,0.0331532359123,0.272836744785,-0.479554473278,0.0258322798586,0.736601215564,-0.476213029753
1470148081636099086,-0.0105126406997,0.03266036883,0.272955268621,-0.466270672909,0.0248392558669,0.737096792105,-0.488531462673
1470148081709898638,-0.010487315245,0.0321302488446,0.273133575916,-0.472909523665,0.0246747601406,0.73651033224,-0.483011665638
1470148081781627556,-0.0104368561879,0.0314908921719,0.273015260696,-0.486216374481,0.0267648782979,0.736899371162,-0.468888681092
1470148081857140237,-0.0104263080284,0.0306111834943,0.273126125336,-0.485970072721,0.0253711477424,0.735733312507,-0.471047647429
1470148081933674343,-0.0104074990377,0.0300446823239,0.273123711348,-0.48392018038,0.026108420535,0.736364202849,-0.472130670643
1470148082009372859,-0.0103895971552,0.0293813347816,0.273158609867,-0.484458753641,0.0260481148555,0.736464595087,-0.471424555911
1470148082086118818,-0.0103379702196,0.0287084262818,0.273252248764,-0.509501185774,0.027738165504,0.735388570581,-0.445917914115
1470148082159967544,-0.0103681050241,0.0278443060815,0.273286670446,-0.496585991985,0.0255044956497,0.735061164676,-0.460908838548
1470148082231185441,-0.0103376833722,0.027121881023,0.273225963116,-0.507828640754,0.0273830761367,0.734868739765,-0.448696082095
1470148082305821458,-0.0103317163885,0.0265668872744,0.273273020983,-0.508860882942,0.0273488419551,0.735151234712,-0.447062976276
1470148082379345626,-0.0103177800775,0.0260593257844,0.273295909166,-0.509056164087,0.0276047311025,0.735438587043,-0.446351750656
1470148082457157783,-0.0102841742337,0.0251019075513,0.273309618235,-0.529621629778,0.0289205144894,0.734260094548,-0.423705849224
1470148082532653439,-0.0102902548388,0.0246002972126,0.273272335529,-0.520152929114,0.0278589650711,0.734468360251,-0.434995443872
1470148082605630041,-0.0102779241279,0.0241539422423,0.273205578327,-0.524169509028,0.0290213940788,0.734840483237,-0.429433986413
1470148082679105980,-0.0102826328948,0.0236961580813,0.273214548826,-0.52354074005,0.0287538837318,0.734736254024,-0.430396264739
1470148082751504004,-0.0103363320231,0.0229414626956,0.273209750652,-0.510992826158,0.0252245915819,0.733066457574,-0.448178112333
1470148082824205163,-0.0103377914056,0.022481398657,0.273177027702,-0.49961519536,0.0250503057052,0.73404898678,-0.45927031665
1470148082895667039,-0.0103232776746,0.0220256969333,0.273178100586,-0.505019896135,0.0249677612312,0.73337802841,-0.454409708142
1470148082967475255,-0.0103000150993,0.0216246042401,0.273146182299,-0.516697262462,0.0267034059155,0.733790374291,-0.440298255362
1470148083039886323,-0.0103194126859,0.0209754295647,0.273246794939,-0.513747740783,0.0255188938678,0.733171858882,-0.444827011589
1470148083112304546,-0.0103335818276,0.0206172075123,0.273176044226,-0.493339913432,0.0243298611157,0.734055177682,-0.466033028649
1470148083183977494,-0.0102980481461,0.0202002674341,0.273169755936,-0.511480374415,0.026437002057,0.734142199273,-0.445784861517
1470148083259589218,-0.0102523015812,0.0198039729148,0.273176401854,-0.529464589781,0.0281077351141,0.733574529311,-0.425141874368
1470148083336484691,-0.0102504594252,0.0194585099816,0.27312797308,-0.525281449941,0.0285084679541,0.734425905955,-0.428818439744
1470148083413121974,-0.0103197330609,0.0191141217947,0.27326464653,-0.5012661076,0.0240214219768,0.733297996294,-0.458725745178
1470148083485258343,-0.0103162685409,0.0187035854906,0.273221880198,-0.507618823589,0.0247099554211,0.733110103456,-0.451953674895
1470148083559129141,-0.0103084435686,0.0182173382491,0.273228734732,-0.510051473137,0.0245830730104,0.732624617485,-0.450004819004
1470148083636557608,-0.0102463122457,0.0180076304823,0.27314722538,-0.531463030586,0.0285569954762,0.733744890164,-0.422315026122
1470148083710810597,-0.010328033939,0.0176966376603,0.273243606091,-0.505643315582,0.0240504780033,0.732793927334,-0.454708117342
1470148083785849478,-0.0102679301053,0.0173603650182,0.273112386465,-0.523829342765,0.0274272831297,0.733536857309,-0.432173857107
1470148083864001486,-0.0102227637544,0.0170397367328,0.273092150688,-0.538738338944,0.0296959502209,0.733830736336,-0.412760951522
1470148083944592942,-0.010329304263,0.0168068669736,0.273234575987,-0.495271970267,0.0238974825249,0.733718327382,-0.464534177279
1470148084022123694,-0.0102587547153,0.0165299791843,0.273109316826,-0.530865771732,0.0284037145265,0.733620666878,-0.423291245519
1470148084096035031,-0.010323099792,0.0163193717599,0.273237258196,-0.504691814544,0.0244215314621,0.73324965954,-0.455010656929
1470148084168681700,-0.0102481711656,0.016027636826,0.273031294346,-0.534382642085,0.0284350170318,0.733231371276,-0.419521629742
1470148084240843716,-0.0103107644245,0.0158545877784,0.273218125105,-0.51289129357,0.0251448548726,0.732912560483,-0.44626162275
1470148084314705051,-0.0102844573557,0.0156487934291,0.273178368807,-0.536762289612,0.0276823517921,0.73252052435,-0.417772202589
1470148084391824878,-0.0103180874139,0.0154065890238,0.273234933615,-0.50860465672,0.025333402118,0.733610350981,-0.449994860897
1470148084471181151,-0.0103324549273,0.0152384629473,0.273186445236,-0.518063019964,0.0242174716863,0.73185854979,-0.442048961666
1470148084543606808,-0.0102988677099,0.0150290252641,0.273215085268,-0.521614443883,0.0267285070832,0.733085933019,-0.435647763281
1470148084619092374,-0.0103149134666,0.014909398742,0.273192882538,-0.509093067539,0.0250553455922,0.733360174511,-0.449865905223
1470148084692874446,-0.0102680502459,0.0146524338052,0.273102104664,-0.533448059525,0.0280157784197,0.733153064005,-0.420873934438
1470148084766325688,-0.0102907912806,0.0144784841686,0.273142516613,-0.520520230942,0.0264008603022,0.73319523765,-0.436791056734
1470148084843535344,-0.0103419823572,0.0143353966996,0.273219376802,-0.509029223094,0.02392131082,0.732519501979,-0.451367034846
1470148084922850159,-0.0102660898119,0.0141342552379,0.273127436638,-0.530491546517,0.0281062023474,0.733211936457,-0.424486768581
1470148084997105913,-0.0103268669918,0.0138967595994,0.273198753595,-0.507048242858,0.0243447342261,0.733056839056,-0.452699772523
1470148085079719028,-0.0102733932436,0.0137279834598,0.273139476776,-0.528604289566,0.0275025983366,0.733112353027,-0.427044950768
1470148085153966880,-0.0103035494685,0.0135065140203,0.273224413395,-0.525147661678,0.0265107324049,0.732838849736,-0.431815162794
1470148085226972481,-0.0103434091434,0.013337935321,0.273155659437,-0.508011390389,0.0238736484511,0.732521353499,-0.452511815107
1470148085304897506,-0.0102770039812,0.0132055627182,0.273011773825,-0.522861266097,0.0284385621552,0.734399087589,-0.431816309033
1470148085379172982,-0.0103207845241,0.0130475014448,0.273149192333,-0.510603226673,0.0258892571661,0.733808150282,-0.447369746244
1470148085451637127,-0.0103372782469,0.0129295745865,0.273102939129,-0.508247672717,0.0251553896067,0.733621647489,-0.450389595669
1470148085527792673,-0.0103573454544,0.0128618655726,0.27303943038,-0.499474582145,0.023480231294,0.732952829244,-0.461252610434
1470148085604052098,-0.0102896727622,0.0127643439919,0.273081034422,-0.529546353358,0.0273090362641,0.732793755434,-0.426436616838
1470148085679392531,-0.0102866822854,0.0127311749384,0.273017138243,-0.518192679507,0.0280924472791,0.734539289885,-0.437194685383
1470148085752641392,-0.0103040486574,0.0125726163387,0.273198068142,-0.521171259869,0.026748144169,0.733542177316,-0.435408921325
1470148085824871550,-0.0103266062215,0.0124695152044,0.273207187653,-0.524149252841,0.0260250516016,0.732662176691,-0.433354811075
1470148085898743575,-0.0103673152626,0.0123428301886,0.273056447506,-0.499559347355,0.0244581034129,0.733448754559,-0.460320740444
1470148085975272984,-0.0103426584974,0.0121303331107,0.273008495569,-0.507543643779,0.0264985544756,0.734475824921,-0.449713841101
1470148086049431168,-0.0103691639379,0.0120375268161,0.273045390844,-0.501084610473,0.0257438400351,0.73473528264,-0.456525500155
1470148086123962746,-0.010389813222,0.0119690261781,0.272859364748,-0.487151492138,0.0246235824051,0.735046090237,-0.470939856164
1470148086196676146,-0.0103699266911,0.0118480930105,0.27282372117,-0.49366188196,0.0257668356888,0.735157542926,-0.463872184504
1470148086277081679,-0.0103720957413,0.0117952292785,0.27291238308,-0.502859867508,0.0272589814471,0.73529474081,-0.453575292225
1470148086352705707,-0.0103742918,0.0117689669132,0.272948920727,-0.503928189453,0.0271497438093,0.735317460123,-0.452357716994
1470148086431110185,-0.0104119246826,0.0118180373684,0.272852212191,-0.482795447301,0.0247691168291,0.735288551957,-0.475021886104
1470148086506014276,-0.0103566171601,0.0117610022426,0.272887080908,-0.511803905453,0.0281314395504,0.735205294618,-0.443552205763
1470148086582200519,-0.0103855840862,0.011725647375,0.272876381874,-0.501501616953,0.0264937743451,0.735034265183,-0.455542354914
1470148086658254211,-0.01038606558,0.0116858482361,0.272877335548,-0.493101807706,0.0263355545392,0.735900602167,-0.463257325398
1470148086735086369,-0.0104116043076,0.011518554762,0.272849440575,-0.495036759311,0.0251698528543,0.734623534865,-0.463285384467
1470148086813942323,-0.0103627564386,0.0112498542294,0.272780686617,-0.510038507269,0.0278205834615,0.735279486191,-0.445478185129
1470148086892292193,-0.0103711783886,0.0111279860139,0.272779166698,-0.486824283414,0.0256372631558,0.736097703699,-0.469579618835
1470148086964992836,-0.0103447269648,0.0110339717939,0.272795915604,-0.501599601252,0.0255962611725,0.734246093191,-0.456755236501
1470148087037535069,-0.0103602511808,0.0110162571073,0.272681325674,-0.488219968809,0.0250136898122,0.735270736793,-0.469459818295
1470148087120656893,-0.0103632463142,0.0109770158306,0.27273607254,-0.488702045542,0.0239575444897,0.734046210648,-0.470927284597
1470148087193701206,-0.0103172361851,0.0111887296662,0.272722810507,-0.509972363212,0.0268246504896,0.734624501764,-0.446693931339
1470148087270696304,-0.0103945359588,0.0113195916638,0.272654742002,-0.486269028448,0.0221007371228,0.732676707987,-0.475645698986
1470148087347622862,-0.0103598283604,0.0114383231848,0.27261286974,-0.490022872144,0.02447490768,0.734545884725,-0.468743967324
1470148087422158023,-0.0103380838409,0.0115053066984,0.272744715214,-0.511713784867,0.0259292319476,0.733628901942,-0.446391433098
1470148087497121960,-0.0103949606419,0.011392628774,0.272663712502,-0.481300531965,0.0226718801929,0.733446680765,-0.479470280887
1470148087577531298,-0.0102675883099,0.0110947275534,0.272678941488,-0.525549300838,0.0271762030386,0.733048475252,-0.430928438732
1470148087657103394,-0.0103220185265,0.0108302338049,0.272523909807,-0.499636371311,0.0232675129495,0.732463983259,-0.461864300994
1470148087731246646,-0.010323246941,0.0108368536457,0.272466391325,-0.520951378656,0.0243986940893,0.731275950436,-0.439601921194
1470148087804801663,-0.0104051735252,0.0111995749176,0.272201836109,-0.483700538129,0.0223570051865,0.733689953841,-0.476689632114
1470148087877447192,-0.0104129053652,0.011414218694,0.272110551596,-0.511584163421,0.0249587612956,0.732736270409,-0.448058324327
1470148087952248919,-0.0104368906468,0.0117693170905,0.272003114223,-0.501558534736,0.0237909314233,0.732839261109,-0.459151004782
1470148088036798680,-0.0104334102944,0.0120166223496,0.271988093853,-0.516318179995,0.0247648318274,0.732291277693,-0.443341544101
1470148088111572917,-0.0104401055723,0.0122429449111,0.271966844797,-0.517117319098,0.0244588187925,0.731914395737,-0.44304938978
1470148088189285872,-0.0104046771303,0.0124496901408,0.272007197142,-0.53422929968,0.0276068647114,0.732640867667,-0.42080194321
1470148088263526484,-0.0104386918247,0.0127946492285,0.27202090621,-0.51829028108,0.0246001473486,0.73180570442,-0.441848874918
1470148088341195170,-0.010468413122,0.0130186397582,0.272038072348,-0.510363932307,0.0226645431929,0.731308101878,-0.45188874207
1470148088417377607,-0.0104397572577,0.0131605444476,0.272105902433,-0.53191476439,0.0239299296036,0.729864310163,-0.428709844351
1470148088495076472,-0.0104006985202,0.0133333932608,0.27206364274,-0.541961053672,0.0265726043954,0.731010750848,-0.413757652669
1470148088569697561,-0.0104690389708,0.0136181591079,0.271966606379,-0.515898783974,0.0233318968026,0.731024203492,-0.445990673888
1470148088642921462,-0.0104248793796,0.0138828717172,0.272110134363,-0.535636526026,0.0252521866198,0.730716944763,-0.422502764126
1470148088716165639,-0.0104482779279,0.0141221256927,0.272095173597,-0.519361575054,0.0231322426929,0.73027537467,-0.443200102501
1470148088787041012,-0.0103105008602,0.0144856832922,0.27257874608,-0.564515566423,0.0239181295447,0.726766711736,-0.39058961207
1470148088858626440,-0.0102758016437,0.015007680282,0.272728145123,-0.568250344115,0.023984819151,0.726539544751,-0.385560066366
1470148088947024287,-0.0103106014431,0.0158832892776,0.27278354764,-0.565016542928,0.0219379841394,0.725442737575,-0.392438358942
1470148089027430962,-0.0102894194424,0.0165454875678,0.272765100002,-0.589795390499,0.0253128918346,0.725194593674,-0.354391670556
1470148089101503744,-0.0103125767782,0.0167953968048,0.272711396217,-0.581236246754,0.0228656244617,0.724537422346,-0.369712201985
1470148089175142054,-0.010325204581,0.0167961642146,0.272734701633,-0.584343310971,0.0227163159013,0.724161817258,-0.365535943981
1470148089252695578,-0.0103155514225,0.0167834945023,0.272771686316,-0.590244072389,0.0230824984729,0.723767604962,-0.356706584298
1470148089327480438,-0.0102469716221,0.0166607704014,0.272760212421,-0.592729738745,0.0269250894791,0.725750353283,-0.348185182156
1470148089400517966,-0.0102391783148,0.0165889002383,0.272778153419,-0.594804254433,0.0272297354283,0.725744212214,-0.344618308937
1470148089475097999,-0.010285442695,0.0164627153426,0.272732257843,-0.565060147561,0.0239412189083,0.726556446771,-0.390191718685
1470148089548958529,-0.0102555798367,0.0163111332804,0.27266061306,-0.584247373211,0.0251446293276,0.725614469969,-0.362638105393
1470148089624088828,-0.0102363238111,0.0160352084786,0.272709220648,-0.573585568196,0.0256282331467,0.726937565434,-0.376702224023
1470148089699478061,-0.0102244541049,0.0157990641892,0.272679597139,-0.586512202639,0.0264829337119,0.726106155697,-0.357871402931
1470148089771532393,-0.0102754421532,0.0155072528869,0.272741556168,-0.560460054288,0.0235831002667,0.726584275846,-0.396741294829
1470148089846777163,-0.0101913744584,0.0152739938349,0.27268704772,-0.587286269377,0.028212730117,0.72696807617,-0.35470592875
1470148089922236720,-0.0102448193356,0.0148787321523,0.272701710463,-0.571072260398,0.0248256953018,0.726648206104,-0.381106996554
1470148089997768252,-0.0102779259905,0.0145554635674,0.272719830275,-0.558782604811,0.0234233857364,0.726679493497,-0.398936410086
1470148090074082295,-0.0101866619661,0.014294619672,0.272668898106,-0.582673695319,0.0279416394769,0.727304250883,-0.36157869989
1470148090145430671,-0.0102767394856,0.0140273896977,0.272680193186,-0.558891849278,0.0228734786287,0.726409538965,-0.399306757377
1470148090217986386,-0.0102612124756,0.0136118680239,0.272659868002,-0.545097980707,0.0233190736631,0.727996495168,-0.415145173712
1470148090294106115,-0.010216881521,0.0133228907362,0.272717237473,-0.563685618441,0.0258004011701,0.728055347602,-0.389266327454
1470148090371242933,-0.0102653121576,0.013093280606,0.272622197866,-0.540938154266,0.0224299281893,0.727744077477,-0.421036066482
1470148090444911590,-0.0101651307195,0.0128817949444,0.272586405277,-0.572196004863,0.0284034876043,0.728781335869,-0.375050314491
1470148090516757088,-0.010248712264,0.0126250088215,0.272628456354,-0.552929327215,0.0237513718963,0.727632251191,-0.405285502413
1470148090589876457,-0.010237432085,0.012252798304,0.272641807795,-0.544987598742,0.0243192716032,0.728673773495,-0.414043019583
1470148090664662449,-0.0102602718398,0.0120740579441,0.272608488798,-0.546873964976,0.0227042111052,0.727585714181,-0.413560653048
1470148090741003395,-0.0102278403938,0.0118296025321,0.272682458162,-0.558694402803,0.0256114652178,0.728251379936,-0.396048664619
1470148090815017616,-0.0102432239801,0.0116708949208,0.272602528334,-0.556147729348,0.0238504271913,0.727475498531,-0.401136210409
1470148090890749677,-0.0102168666199,0.0113071734086,0.272600203753,-0.552437305305,0.0250530654352,0.728515993166,-0.404289271836
1470148090966214788,-0.0102485911921,0.0111789712682,0.272653728724,-0.558714199322,0.0237333480982,0.727135863862,-0.398181625831
1470148091041878141,-0.0102314222604,0.0109787471592,0.272727996111,-0.551304289984,0.02476946428,0.728462807389,-0.405945799012
1470148091114478392,-0.0102181993425,0.0108186695725,0.272598743439,-0.554280489075,0.0251191122851,0.728411675883,-0.401943528454
1470148091184066937,-0.0102398879826,0.0106552485377,0.272624880075,-0.549551447933,0.0236643186823,0.728029047872,-0.409153897146
1470148091257655482,-0.0102174943313,0.0104415332898,0.272644042969,-0.555830283943,0.0254926173242,0.728461864764,-0.399682540898
1470148091338378121,-0.0102262869477,0.0103161819279,0.272599220276,-0.555317101525,0.0248305196767,0.728088055406,-0.401116124858
1470148091413415229,-0.0102404430509,0.0102496119216,0.272530913353,-0.537526128627,0.0228629438623,0.728629707056,-0.423841594038
1470148091492867699,-0.0102225383744,0.0100566130131,0.272700965405,-0.546708728563,0.0249900603484,0.729074300807,-0.411017915546
1470148091571546278,-0.0102107636631,0.00950665865093,0.272739201784,-0.550379191756,0.0260403700955,0.72951827092,-0.405225538189
1470148091644429095,-0.010245943442,0.00910729821771,0.272939920425,-0.556790611051,0.0265627810579,0.729120711124,-0.397066269933
1470148091716666659,-0.0102548105642,0.00871162675321,0.273042798042,-0.549576406927,0.0268369715477,0.730252390566,-0.404940731441
1470148091795395901,-0.0102564096451,0.00877545028925,0.272931069136,-0.541656440916,0.0244101000116,0.729314177766,-0.417268830781
1470148091869856290,-0.0102112302557,0.00849766563624,0.27262404561,-0.54016339893,0.0249383317768,0.729649408816,-0.418584904504
1470148091943400504,-0.0102076623589,0.00833115540445,0.272367984056,-0.540734396578,0.0232950679514,0.728671090993,-0.419645199327
1470148092017358599,-0.0102614667267,0.00818544626236,0.272119253874,-0.507783045339,0.0188443226004,0.727787249255,-0.460572459221
1470148092096934947,-0.010230624117,0.00805207993835,0.271447598934,-0.539374547463,0.0226838023358,0.728374951663,-0.421936573967
1470148092172602498,-0.0103317759931,0.00804401375353,0.270679950714,-0.493800358087,0.0206751356476,0.731046970954,-0.470429666771
1470148092246446933,-0.0103033939376,0.00799877755344,0.270326822996,-0.490576144901,0.0201602031552,0.730853739153,-0.474111193951
1470148092331988118,-0.0102753313258,0.00791930779815,0.270101547241,-0.503029752532,0.0197614244948,0.729132102478,-0.463612911065
1470148092410374194,-0.0101792784408,0.00785715784878,0.26968061924,-0.52547386131,0.021580330791,0.728616593353,-0.438781688648
1470148092485714012,-0.0101174991578,0.0078293196857,0.269465237856,-0.550696650516,0.0238210830122,0.727951431477,-0.407740687846
1470148092564972565,-0.0100881531835,0.00780961522833,0.269270241261,-0.54963009197,0.0244314720705,0.728473178506,-0.408211579173
1470148092640549814,-0.0101283388212,0.00778562482446,0.268254429102,-0.540760639802,0.0258605816813,0.730538742292,-0.41619983994
1470148092714718380,-0.010194840841,0.00770054757595,0.26774084568,-0.519045110836,0.0238433562994,0.730960422645,-0.442403128159
1470148092791681899,-0.010209126398,0.00755436066538,0.267552614212,-0.503263422088,0.0215222845546,0.730888877278,-0.460504254406
1470148092865934140,-0.0100977038965,0.00718381302431,0.267314940691,-0.535884678115,0.0262560923773,0.731345618794,-0.421036596089
1470148092942100592,-0.0100528886542,0.00676499819383,0.267070919275,-0.532736636794,0.0270357937577,0.732318355087,-0.423285445623
1470148093022817680,-0.0101153440773,0.00645335717127,0.266829103231,-0.495868041703,0.0204722221,0.730538366451,-0.469051669311
1470148093099217607,-0.0100052608177,0.00650644721463,0.266547858715,-0.533840119426,0.024860300576,0.730408843235,-0.425322952674
1470148093177346210,-0.00997713860124,0.00690026441589,0.266406953335,-0.548694740411,0.0250843240324,0.729013465127,-0.408465697699
1470148093253119698,-0.0099355103448,0.00743028055876,0.266402602196,-0.567068462712,0.0272732533941,0.728729517926,-0.382939705372
1470148093327439946,-0.00996101461351,0.00788657460362,0.266276627779,-0.572838062262,0.0263387774134,0.727508799819,-0.376687893905
1470148093404531232,-0.00996295083314,0.00862481165677,0.266101777554,-0.575057483963,0.0255879703917,0.726898751853,-0.374529505464
1470148093480342162,-0.00999888405204,0.00872699916363,0.265902131796,-0.569217045677,0.0264932059124,0.727995461669,-0.381198993624
1470148093552814130,-0.0100471535698,0.0086537078023,0.265697777271,-0.561325093027,0.0257272096339,0.728315688325,-0.392184279087
1470148093627004067,-0.0100936042145,0.00869604945183,0.265501439571,-0.544993638788,0.0255709176034,0.729924537607,-0.411750204921
1470148093704240078,-0.010136205703,0.00877523235977,0.265287041664,-0.533868794016,0.0252472882292,0.730774827516,-0.424634945196
1470148093779731437,-0.0101460944861,0.00883851014078,0.26509308815,-0.534337731083,0.0239394161127,0.729672643583,-0.426013998248
1470148093853468090,-0.0101454751566,0.008923987858,0.264918327332,-0.526479340212,0.0225110090499,0.729281974686,-0.436417873373
1470148093931686334,-0.0100858639926,0.00897149462253,0.264815181494,-0.538101513329,0.024785573829,0.730076249143,-0.420501019167
1470148094006331141,-0.0100366957486,0.00906684994698,0.26470798254,-0.537650775279,0.025791529092,0.730868943043,-0.419639165193
1470148094084802870,-0.0100198304281,0.00922411493957,0.264704793692,-0.536603582166,0.0251852512937,0.730525440494,-0.421609866483
1470148094161423681,-0.0099911224097,0.00919978693128,0.264477550983,-0.537369137379,0.0259092123149,0.73095510547,-0.41984253798
1470148094234926954,-0.00996694527566,0.00914478674531,0.264259874821,-0.526053308935,0.0249397669041,0.731503901394,-0.433068085215
1470148094308908489,-0.00993279460818,0.00902727525681,0.264028310776,-0.542647011667,0.0256186559041,0.730127546772,-0.414477587624
1470148094383635687,-0.00987458415329,0.00888923183084,0.263755530119,-0.541939364843,0.0266223959751,0.731086434194,-0.413649124988
1470148094463769008,-0.00984411686659,0.00871880259365,0.263321608305,-0.556605249445,0.0254320210576,0.72844981752,-0.398628488635
1470148094540052734,-0.00985401775688,0.0086615504697,0.262923270464,-0.566786727351,0.0253130123831,0.727395345339,-0.386015632691
1470148094616677031,-0.00996243488044,0.00863622315228,0.262187719345,-0.536842007731,0.0245651772125,0.729892624944,-0.422438121925
1470148094690065731,-0.00992501713336,0.00858565699309,0.261798650026,-0.541067329046,0.025592606235,0.730313656476,-0.416212838713
1470148094763104591,-0.0098692746833,0.00854974612594,0.261298596859,-0.549742330944,0.0256355121908,0.72936602823,-0.40638822196
1470148094836861491,-0.00992611888796,0.00852946937084,0.261044859886,-0.519427145228,0.0205981671117,0.728438375979,-0.446260785543
1470148094917372786,-0.00994866527617,0.00845020264387,0.258353561163,-0.41882684887,0.0129707544547,0.728886915081,-0.541423766766
1470148094990781873,-0.00978078879416,0.00839466042817,0.256352186203,-0.538321733228,0.0239345100841,0.729328923989,-0.421563958842
1470148095061000858,-0.00976370926946,0.00840396434069,0.256179362535,-0.524403731429,0.0225882162028,0.729536465969,-0.438482660745
1470148095134834879,-0.009760344401,0.00837745144963,0.25625538826,-0.546788829443,0.0240209981251,0.728463746376,-0.412050406942
1470148095209365451,-0.00976480450481,0.00837715622038,0.256045073271,-0.528184988411,0.0217474050685,0.728535142048,-0.435642301885
1470148095283417494,-0.00977523718029,0.00838333368301,0.255580127239,-0.496391964537,0.0177761486138,0.727947293707,-0.472622220879
1470148095367727189,-0.00969064608216,0.00837474502623,0.255295038223,-0.520113755081,0.0205903892795,0.728402188968,-0.445519885921
1470148095447573058,-0.00963244028389,0.008355287835,0.25495532155,-0.554964683828,0.0236281392575,0.727661358669,-0.402448577881
1470148095520516898,-0.00966536067426,0.00834727846086,0.254462689161,-0.529578673444,0.0232509731372,0.729827325436,-0.431691899309
1470148095593966282,-0.00973259005696,0.00830592866987,0.253902882338,-0.520342102872,0.0229745932585,0.730420664923,-0.44181660935
1470148095671475105,-0.0096994638443,0.00816806219518,0.253589093685,-0.527629903836,0.0222412697365,0.729035365328,-0.435453150867
1470148095747282798,-0.0096621401608,0.0081467134878,0.253437668085,-0.540785712741,0.0229865459763,0.728254994115,-0.42031785014
1470148095820732104,-0.00962434709072,0.00812488421798,0.253211706877,-0.545731319954,0.0234140130566,0.728054802838,-0.41420443561
1470148095898275263,-0.00959674548358,0.00816942658275,0.253053098917,-0.543018905467,0.0236911125072,0.72855456537,-0.416866219274
1470148095976790964,-0.00959918927401,0.00825733784586,0.252837628126,-0.538910918075,0.0223206617717,0.728079003467,-0.42305764991
1470148096051859535,-0.00958312768489,0.00833416450769,0.25267252326,-0.533360297896,0.0218603852559,0.728318938604,-0.429651533054
1470148096130945930,-0.00957300979644,0.00849233660847,0.252053201199,-0.531834730329,0.0244779231197,0.730482330221,-0.427724462862
1470148096206952422,-0.0096525317058,0.00854073092341,0.251560628414,-0.526372504658,0.023797384861,0.730655882913,-0.434174678648
1470148096286821904,-0.00968860648572,0.00863358471543,0.251336097717,-0.506173782517,0.0213086798725,0.730544641577,-0.457863045809
1470148096360386514,-0.00960321165621,0.00870722346008,0.251083254814,-0.528693835427,0.0239152921532,0.730420057254,-0.431737683257
1470148096433296522,-0.00961458403617,0.00881880801171,0.250727593899,-0.524874802984,0.0200000140355,0.727480033457,-0.441451290125
1470148096510156829,-0.0095367655158,0.00886543467641,0.250527203083,-0.550049420165,0.022662895878,0.727087598078,-0.410214155348
1470148096585387420,-0.00949418824166,0.00894494913518,0.250215381384,-0.551983373968,0.0233208006102,0.727432994194,-0.406954216196
1470148096659477475,-0.00958384759724,0.00902826618403,0.24951633811,-0.532609992252,0.0208339070122,0.727417029599,-0.432153918785
1470148096734058098,-0.00954746082425,0.00908850226551,0.250408470631,-0.564623732973,0.0237368468323,0.726665692464,-0.390632274219
1470148096811571480,-0.0095437746495,0.00918276794255,0.250961780548,-0.562369934931,0.0276905617435,0.729479752689,-0.388371702745
1470148096884833067,-0.0095320623368,0.00922833196819,0.250885426998,-0.56067484965,0.0274298756623,0.729472883893,-0.390846039452
1470148096958215529,-0.00956360436976,0.00922232214361,0.2505222857,-0.55313416792,0.0223199572525,0.726680056768,-0.406792953336
1470148097042190696,-0.00953562278301,0.00920363049954,0.250281244516,-0.565227587672,0.0234885532721,0.726460682577,-0.390155018767
1470148097127427172,-0.00954009685665,0.00923983752728,0.249949023128,-0.549210782164,0.0242458622894,0.728483714041,-0.408767823211
1470148097201834094,-0.00960505753756,0.00924390088767,0.249287813902,-0.535997743618,0.0241734011765,0.729809873422,-0.423673947945
1470148097281311487,-0.00956206209958,0.00929341651499,0.248785689473,-0.542068942311,0.0246119608641,0.729657625728,-0.416119288644
1470148097355309598,-0.00956926494837,0.00934624671936,0.248538061976,-0.529169803477,0.022285236885,0.729117792804,-0.433439651534
1470148097427108282,-0.00949245411903,0.00937813520432,0.248256474733,-0.539040871861,0.0243359091876,0.729724758976,-0.419933897327
1470148097500951778,-0.00941624585539,0.00942487642169,0.247691124678,-0.56677435567,0.0281974238132,0.729483474351,-0.381871176831
1470148097572849879,-0.00952974986285,0.00945682451129,0.247092559934,-0.549129986526,0.0235917531859,0.728019381403,-0.409740731904
1470148097650838871,-0.00953997671604,0.0094780176878,0.24658703804,-0.539265337746,0.0234302863887,0.728916669068,-0.421099046236
1470148097724997013,-0.00947016756982,0.00951496325433,0.24630984664,-0.549361005391,0.0254320812344,0.729254320735,-0.407116482951
1470148097800376294,-0.00941207353026,0.00952717475593,0.245903491974,-0.558662780615,0.0261148168081,0.728831651382,-0.394991566798
1470148097872567160,-0.00947299599648,0.00956556480378,0.245573237538,-0.527291178756,0.0220204350564,0.728922367246,-0.436063407975
1470148097943479371,-0.00946376379579,0.00956022832543,0.245142668486,-0.524476917401,0.0223748646574,0.729418941455,-0.43860156907
1470148098016031812,-0.0094693377614,0.00956089887768,0.244378507137,-0.54201041929,0.0249838490596,0.729721422012,-0.416061484548
1470148098093336215,-0.00941038038582,0.00957129057497,0.2441188097,-0.565940735809,0.026605383046,0.728218774658,-0.385617236881
1470148098168974400,-0.00940834730864,0.0096090529114,0.243812978268,-0.552900946352,0.0243073177586,0.728143325416,-0.404372347569
1470148098243314680,-0.0094129582867,0.00960851926357,0.243502080441,-0.537417962966,0.0226044844143,0.728497789014,-0.424219214284
1470148098315517696,-0.00937983393669,0.00962038431317,0.243065565825,-0.547196965957,0.0248562691658,0.72916814086,-0.410209054855
1470148098392267345,-0.00942395720631,0.00963448919356,0.242212608457,-0.538672865283,0.0257122417178,0.730743254088,-0.418550739384
1470148098467212691,-0.00938596576452,0.00963224563748,0.241911098361,-0.546483717173,0.0260169626865,0.730041684377,-0.409533641585
1470148098540710161,-0.00943169929087,0.00960898958147,0.241672575474,-0.530687176798,0.0211736375133,0.72788391598,-0.433713963708
1470148098613026177,-0.00938805285841,0.00959687866271,0.241428956389,-0.538421893661,0.0217403061387,0.727580630296,-0.424565248147
1470148098684770291,-0.0093302866444,0.00962912198156,0.240793392062,-0.554935692001,0.0253698904843,0.728526894136,-0.400813311806
1470148098757509130,-0.00935293920338,0.00964820757508,0.240095570683,-0.548248475088,0.0265485930012,0.730212553017,-0.406827247353
1470148098839668302,-0.0093590086326,0.00965780671686,0.239782854915,-0.54833234039,0.0254046231653,0.729475505559,-0.408107505926
1470148098912418944,-0.0093731386587,0.00965926982462,0.239517614245,-0.530643652847,0.022295364954,0.728955217918,-0.431908000233
1470148098984997888,-0.00932646449655,0.00962480064481,0.239268139005,-0.538463119094,0.0228467160545,0.728583061185,-0.42273185342
1470148099059622563,-0.00930137000978,0.00963657815009,0.238562479615,-0.542075676512,0.024809990433,0.729413680643,-0.416526239029
1470148099132829169,-0.00931265112013,0.00963065680116,0.237952724099,-0.554330066217,0.0263354539909,0.729268843154,-0.400239398305
1470148099207131305,-0.00936700776219,0.00964900478721,0.237680017948,-0.531398138063,0.0223197109473,0.728698113838,-0.431412689029
1470148099287412311,-0.00933946669102,0.00965614896268,0.237431704998,-0.529477900622,0.0220103189434,0.728732856816,-0.433724707632
1470148099361116017,-0.00921192020178,0.00970588531345,0.236908346415,-0.539657040914,0.0259952514815,0.730760449399,-0.417233376766
1470148099433700318,-0.00919115636498,0.00971012655646,0.23648327589,-0.547798020172,0.0277700448224,0.731102663544,-0.405752448009
1470148099509655085,-0.00927132181823,0.00969003234059,0.235863849521,-0.546844339262,0.0260810085732,0.730049067496,-0.409034727936
1470148099584841880,-0.00930955819786,0.00966095272452,0.235528603196,-0.541320820246,0.0228539241314,0.728273927137,-0.419602853627
1470148099657202179,-0.00921702943742,0.00965324416757,0.23517459631,-0.561964740509,0.0252022727201,0.727787366691,-0.392283092626
1470148099730472679,-0.00918559823185,0.00967764295638,0.234784662724,-0.548231820817,0.0255882231025,0.729434742007,-0.408303894955
1470148099805006396,-0.00919005926698,0.00969751738012,0.234367445111,-0.551345974685,0.0257450692845,0.729250287419,-0.404411703473
1470148099877218847,-0.00932383351028,0.00970440544188,0.233788207173,-0.517520078473,0.0217641387106,0.729656660778,-0.446430787497
1470148099949498236,-0.00923915021122,0.0096782669425,0.233359828591,-0.54103123084,0.0237677012848,0.729006240141,-0.418652846003
1470148100020348381,-0.00915641989559,0.00967854168266,0.233029410243,-0.551983885735,0.025844175667,0.729287310809,-0.403467330482
1470148100094614551,-0.00910507515073,0.00967832095921,0.232665702701,-0.558473222547,0.026837708549,0.72923930595,-0.394458403074
1470148100174085525,-0.0091602075845,0.00969114340842,0.232213109732,-0.537214450275,0.0248367033587,0.729921238641,-0.421898990237
1470148100253777524,-0.00924490392208,0.00970294419676,0.231640607119,-0.525599051961,0.0228992168394,0.729744265793,-0.43668589282
1470148100338252974,-0.00915952771902,0.00968490540981,0.231233507395,-0.546817223254,0.02489806656,0.72919109767,-0.41067183214
1470148100412529831,-0.00910365581512,0.0096874050796,0.230939179659,-0.554491747086,0.025962551658,0.729105207865,-0.400337912506
1470148100484214376,-0.00910747237504,0.00971542764455,0.230492070317,-0.530920499166,0.0248684772674,0.730645829364,-0.42855764424
1470148100556849971,-0.00915762409568,0.0097135733813,0.230023995042,-0.523713914822,0.0234539433234,0.730332684325,-0.437935860795
1470148100632435991,-0.00915184617043,0.00971103738993,0.229429453611,-0.540662922871,0.0241172357372,0.729315681253,-0.418569707279
1470148100713124531,-0.00907642021775,0.0096896700561,0.22912183404,-0.553714911203,0.025903648174,0.729178023954,-0.401283201125
1470148100789138175,-0.0090853665024,0.00973822269589,0.22877445817,-0.530764316083,0.0251246605866,0.73083704308,-0.428410094028
1470148100860817833,-0.0091248434037,0.00972570851445,0.228109940886,-0.523935070634,0.0229729282055,0.729849633177,-0.438501766564
1470148100932637710,-0.00913890637457,0.00972458627075,0.227592006326,-0.528543391795,0.0233412414569,0.729952033649,-0.432743686273
1470148101008713344,-0.00903588347137,0.00968679413199,0.225844204426,-0.494277647037,0.0200785805092,0.729884536569,-0.471757375693
1470148101082609422,-0.00905702635646,0.00959812197834,0.223587691784,-0.535913761997,0.0220357828683,0.727949849504,-0.427082990275
1470148101155973394,-0.00901256129146,0.00961801130325,0.223098605871,-0.525218854809,0.0206262631814,0.727776029681,-0.440524417532
1470148101231461486,-0.00902412459254,0.00963765382767,0.223639383912,-0.558465315286,0.0245232540266,0.727733362877,-0.397390556242
1470148101304861060,-0.00898251123726,0.00964061450213,0.223416775465,-0.555977440711,0.0246710184302,0.728032964617,-0.400310415429
1470148101377460485,-0.00899265054613,0.00967962201685,0.223078280687,-0.526418724591,0.0224756639806,0.729084776863,-0.436822113766
1470148101450975540,-0.00903245341033,0.00969396997243,0.22267267108,-0.484249439861,0.0194974264261,0.730345736173,-0.481370373009
1470148101527082289,-0.0089848600328,0.00968512892723,0.222330778837,-0.519601107424,0.0220294696393,0.729397102287,-0.444420137714
1470148101601879567,-0.00900861062109,0.00962825119495,0.221875563264,-0.552155692383,0.0234000267336,0.727547014211,-0.406511835289
1470148101675864846,-0.00896207988262,0.00960510596633,0.221689343452,-0.563462003816,0.024536034193,0.727217629743,-0.391232759714
1470148101747425665,-0.00893730297685,0.00959667656571,0.221423655748,-0.55488327721,0.0243369514409,0.727858247396,-0.402162446239
1470148101821486116,-0.00897033140063,0.00964657124132,0.221257328987,-0.531076340842,0.0223112876065,0.728561722992,-0.432039283437
1470148101892483403,-0.00897374469787,0.00976366084069,0.220872014761,-0.502618667546,0.02156600821,0.730557586732,-0.461730435203
1470148101964914205,-0.00895459670573,0.00979607924819,0.220526441932,-0.534824292629,0.023830570558,0.729459222711,-0.425774966764
1470148102041502610,-0.00899570435286,0.00979926902801,0.220157384872,-0.543582738546,0.0232672901056,0.728384764253,-0.416451767639
1470148102116833211,-0.00902073644102,0.00980694405735,0.220010340214,-0.531523426361,0.0209083169969,0.727681100127,-0.433042614564
1470148102190857936,-0.00892146117985,0.00984894856811,0.219704836607,-0.559850541175,0.0234410010317,0.726815197638,-0.397187058573
1470148102265860581,-0.00888979528099,0.00993362627923,0.219355165958,-0.544327275185,0.0245297282696,0.728916233341,-0.414472236335
1470148102336037171,-0.00890866201371,0.0100094722584,0.21921557188,-0.525377981853,0.0235321238916,0.730060031529,-0.436390382219
1470148102412632523,-0.00889306049794,0.0100313723087,0.219783678651,-0.556236564895,0.0251545835389,0.728348852824,-0.399344562239
1470148102489392660,-0.00878617540002,0.0101303923875,0.220730036497,-0.536921281523,0.0235429505129,0.729366893849,-0.423302729834
1470148102563265570,-0.00874619651586,0.0100385276601,0.220440968871,-0.532613190254,0.0226854392876,0.728837542403,-0.429656138319
1470148102636000897,-0.00866068061441,0.00990893878043,0.22010435164,-0.529583726461,0.0230310285696,0.729718216377,-0.43188189714
1470148102715905883,-0.00858394987881,0.0096860351041,0.21769683063,-0.506181368034,0.0185906054554,0.727763901977,-0.462379189652
1470148102787809106,-0.00858076009899,0.00947807449847,0.216348841786,-0.524763596772,0.0203585577925,0.727664618675,-0.44126284611
1470148102865119439,-0.0084956753999,0.0092700580135,0.216931268573,-0.532165224264,0.0225613275298,0.728777639889,-0.430318849439
1470148102941534333,-0.00860659126192,0.00907084718347,0.216440081596,-0.513634416078,0.0194541697277,0.728011391998,-0.453652548787
1470148103019792134,-0.00852183904499,0.00894263572991,0.216256424785,-0.535928485337,0.0218233017385,0.728117984859,-0.426788709118
1470148103090957387,-0.00846377201378,0.008739749901,0.21601870656,-0.538655688557,0.0232572137375,0.728894370251,-0.421926709526
1470148103163344761,-0.00853603985161,0.00845827255398,0.215579360723,-0.503895705477,0.0191608360707,0.728789534655,-0.463236218943
1470148103237012295,-0.00851092580706,0.00822612363845,0.21564270556,-0.518816884327,0.0220634397082,0.729943917878,-0.444436859317
1470148103314721202,-0.00850325450301,0.00803364161402,0.215789750218,-0.531406775331,0.0242109664604,0.73041345095,-0.42838867738
1470148103390349936,-0.00860449392349,0.00794194079936,0.216495156288,-0.513428980185,0.021313394292,0.730092861811,-0.45044515167
1470148103461036283,-0.00855327676982,0.00789506081492,0.216341614723,-0.520190444021,0.0221799095306,0.730159654436,-0.442466758747
1470148103535436284,-0.00854321941733,0.00785074289888,0.216159746051,-0.512747392143,0.0218547779254,0.730621453846,-0.450338507916
1470148103613221086,-0.0085274586454,0.00777042564005,0.215337082744,-0.478508230681,0.0194726150829,0.731481049296,-0.485372192192
1470148103689085096,-0.00850706733763,0.00755921797827,0.212789446115,-0.514799806695,0.0202573069281,0.728992272502,-0.450711734012
1470148103761447383,-0.00851133465767,0.00731945829466,0.213042914867,-0.540385438307,0.023320524043,0.728931510679,-0.419641017971
1470148103834183141,-0.00851636659354,0.00727878836915,0.21278360486,-0.536326021816,0.023686593402,0.729753671631,-0.423382713814
1470148103907335974,-0.0085320211947,0.0072591858916,0.212609380484,-0.534797753168,0.0237910552515,0.730002813224,-0.424877913738
1470148103977789227,-0.00857484806329,0.00720524741337,0.212310895324,-0.537544308283,0.023911753322,0.729815336293,-0.42171544861
1470148104061726298,-0.00866161473095,0.00703453132883,0.21204186976,-0.5113812416,0.0204773665309,0.72960750655,-0.453588789087
1470148104136365660,-0.00864799972624,0.00697814533487,0.211941748857,-0.511230214448,0.0206515226194,0.729994022526,-0.453129020837
1470148104208134382,-0.00864027161151,0.00695996498689,0.212280139327,-0.532552981395,0.0237974654924,0.730302120329,-0.427176562661
1470148104280292684,-0.00869703944772,0.00702203763649,0.212497472763,-0.524942106245,0.0235033693489,0.730835232311,-0.435618227275
1470148104355634106,-0.00862836930901,0.00714304111898,0.213229596615,-0.532741155411,0.0248554365714,0.731130929179,-0.425460495231
1470148104433041627,-0.00863332580775,0.00717247230932,0.213191181421,-0.527557642899,0.0250904342028,0.731754111514,-0.430800793654
1470148104508743657,-0.00871190056205,0.00711426744238,0.212521925569,-0.481860618525,0.0184704889034,0.730323567557,-0.483835376987
1470148104579786297,-0.00860591139644,0.00705795036629,0.210254266858,-0.530933718571,0.0215191128331,0.728483894926,-0.43238585673
1470148104654684872,-0.00875208340585,0.00712179578841,0.21098908782,-0.509771969684,0.0199498293194,0.729477179183,-0.455628783426
1470148104729470848,-0.00878229364753,0.00712558301166,0.211028188467,-0.507175185749,0.019977659638,0.729784921051,-0.4580264109
1470148104808060902,-0.00880453083664,0.0071335406974,0.211111560464,-0.506359367305,0.0196965833091,0.729579024253,-0.459267550692
1470148104892221841,-0.00880776159465,0.00715993670747,0.21125087142,-0.502416070864,0.0191872577336,0.729391525328,-0.463894323805
1470148104969531016,-0.00881657935679,0.0071830865927,0.211190968752,-0.497355810814,0.0193014904041,0.729903989996,-0.468513409952
1470148105044616318,-0.00880743842572,0.00719449482858,0.211196452379,-0.508875506227,0.0200295335429,0.729469787348,-0.456638113055
1470148105128505113,-0.00880987662822,0.00718526029959,0.211247608066,-0.506355389591,0.0195592694859,0.729285519433,-0.459743717253
1470148105201844456,-0.00880973879248,0.007204240188,0.21121545136,-0.507368279478,0.0199810005093,0.729619441424,-0.458076040952
1470148105282651498,-0.00880330894142,0.00720607256517,0.211219280958,-0.508474997897,0.0200892800038,0.729551048814,-0.456951709174
1470148105358099007,-0.00879141315818,0.00722852256149,0.211143404245,-0.510171532453,0.0206244596814,0.729871920598,-0.454518006971
1470148105436859949,-0.00876232236624,0.00728782033548,0.211124628782,-0.522721195242,0.0222426539794,0.730035822931,-0.439676601181
1470148105514063295,-0.00876608677208,0.00731296371669,0.211140841246,-0.529036885745,0.0226230142428,0.729754994658,-0.432511064044
1470148105599254774,-0.00875155162066,0.00736648775637,0.211123451591,-0.536031358508,0.0233581944487,0.729706566528,-0.423855050948
1470148105672882898,-0.00884987972677,0.00744131486863,0.211132526398,-0.512300466593,0.0191101550194,0.728597494459,-0.454234218188
1470148105744769837,-0.00882723275572,0.00748805049807,0.211130186915,-0.518864367245,0.0202193741828,0.728889614993,-0.446196004538
1470148105815083103,-0.0088247153908,0.00752828549594,0.211157888174,-0.520152212324,0.0204107562662,0.728860371814,-0.44473321828
1470148105888606385,-0.00879911426455,0.00760253891349,0.211173832417,-0.533472951152,0.022137663585,0.728980967774,-0.428372831612
1470148105971525147,-0.00879040081054,0.00766237452626,0.211156219244,-0.540278128719,0.0226160545029,0.728712965233,-0.420196944311
1470148106054988366,-0.00885023921728,0.00773251708597,0.21114833653,-0.524715623418,0.0198869049681,0.728196960807,-0.440462497635
1470148106128199608,-0.00886047817767,0.00777577981353,0.211123347282,-0.522635354259,0.0193197602008,0.727922299749,-0.443405185888
1470148106205743157,-0.00885025039315,0.00782639812678,0.211168929935,-0.533605746752,0.0203413961852,0.727744687759,-0.43039377792
1470148106284385961,-0.00885059963912,0.00785179343075,0.21120493114,-0.538607925399,0.0207549893862,0.727565392683,-0.424404680091
1470148106361589637,-0.00884252414107,0.00787806510925,0.211197435856,-0.550795675982,0.0216990056074,0.727110744445,-0.409222728827
1470148106437223040,-0.00881608296186,0.00794355943799,0.211194843054,-0.55728543623,0.0228945412131,0.727372370206,-0.399797720866
1470148106515860739,-0.00879774987698,0.00798347312957,0.211192578077,-0.562861072509,0.0240909411394,0.727697501832,-0.391233159939
1470148106593302131,-0.00882276985794,0.00803623348475,0.211264252663,-0.563821840117,0.0236298696395,0.72740489909,-0.390421150358
1470148106673602171,-0.0088575752452,0.00805066805333,0.21135802567,-0.56745756164,0.0240632372399,0.727340570058,-0.385212371945
1470148106750570268,-0.00889665074646,0.00807709805667,0.2112801373,-0.55997272832,0.0215933116941,0.726516746588,-0.397665298153
1470148106826666703,-0.00889508705586,0.00810400675982,0.211218267679,-0.548192097787,0.0203190865014,0.726588241593,-0.41369322671
1470148106903654690,-0.00882933009416,0.00813298299909,0.211038917303,-0.535279941788,0.0200315086093,0.727425208644,-0.428866749017
1470148106975718582,-0.00878449622542,0.00817217398435,0.210951119661,-0.528038660172,0.0207204266682,0.728572675465,-0.435806945617
1470148107050857805,-0.00874067563564,0.00816394947469,0.210805743933,-0.526653783151,0.020742381272,0.728629595979,-0.437383651015
