%time,field.position.x,field.position.y,field.position.z,field.orientation.x,field.orientation.y,field.orientation.z,field.orientation.w
1470584451561550889,0.189881742001,0.285048425198,1.41291868687,0.153719511269,-0.0232357723723,0.800595769128,-0.57868542853
1470584451669094613,0.189881742001,0.285048425198,1.41291868687,0.153719511269,-0.0232357723723,0.800595769128,-0.57868542853
1470584451744373731,0.189782574773,0.284923613071,1.41210186481,0.136530320647,-0.0201770556777,0.8003464302,-0.583436328689
1470584451823016596,0.189881742001,0.285048425198,1.41291868687,0.153719511269,-0.0232357723723,0.800595769128,-0.57868542853
1470584451897106714,0.190092682838,0.285483181477,1.4149132967,0.146385005996,-0.0209735340097,0.799071157133,-0.58276652849
1470584451971332117,0.19018779695,0.285601824522,1.41569936275,0.163824833189,-0.0240628141301,0.799331346226,-0.577626006986
1470584452043076422,0.190092682838,0.285483181477,1.4149132967,0.146385005996,-0.0209735340097,0.799071157133,-0.58276652849
1470584452114389516,0.190092682838,0.285483181477,1.4149132967,0.146385005996,-0.0209735340097,0.799071157133,-0.58276652849
1470584452187646845,0.190137758851,0.285465806723,1.41527831554,0.157334268153,-0.022784384949,0.798758474269,-0.58026864438
1470584452261083261,0.189835831523,0.284918636084,1.41253185272,0.148368714128,-0.022168607847,0.799999296511,-0.580944406183
1470584452339494722,0.19018779695,0.285601824522,1.41569936275,0.163824833189,-0.0240628141301,0.799331346226,-0.577626006986
1470584452409738051,0.18973210454,0.284786939621,1.4116808176,0.13084862454,-0.0190996695271,0.799758476321,-0.585576826413
1470584452487437204,0.19018779695,0.285601824522,1.41569936275,0.163824833189,-0.0240628141301,0.799331346226,-0.577626006986
1470584452560592996,0.189835831523,0.284918636084,1.41253185272,0.148368714128,-0.022168607847,0.799999296511,-0.580944406183
1470584452631559963,0.189835831523,0.284918636084,1.41253185272,0.148368714128,-0.022168607847,0.799999296511,-0.580944406183
1470584452703726448,0.189782574773,0.284923613071,1.41210186481,0.136530320647,-0.0201770556777,0.8003464302,-0.583436328689
1470584452775471440,0.190144732594,0.285476714373,1.415335536,0.158568261804,-0.0229992402716,0.798721155621,-0.579975565743
1470584452846591038,0.190044999123,0.285351097584,1.41451489925,0.140775641517,-0.019898922484,0.798469822286,-0.585006149146
1470584452917451700,0.190144732594,0.285476714373,1.415335536,0.158568261804,-0.0229992402716,0.798721155621,-0.579975565743
1470584452989194817,0.190144732594,0.285476714373,1.415335536,0.158568261804,-0.0229992402716,0.798721155621,-0.579975565743
1470584453071609248,0.190144732594,0.285476714373,1.415335536,0.158568261804,-0.0229992402716,0.798721155621,-0.579975565743
1470584453147683381,0.190144732594,0.285476714373,1.415335536,0.158568261804,-0.0229992402716,0.798721155621,-0.579975565743
1470584453220587286,0.190144732594,0.285476714373,1.415335536,0.158568261804,-0.0229992402716,0.798721155621,-0.579975565743
1470584453299243049,0.189835831523,0.284918636084,1.41253185272,0.148368714128,-0.022168607847,0.799999296511,-0.580944406183
1470584453376179527,0.19018779695,0.285601824522,1.41569936275,0.163824833189,-0.0240628141301,0.799331346226,-0.577626006986
1470584453459474721,0.190144732594,0.285476714373,1.415335536,0.158568261804,-0.0229992402716,0.798721155621,-0.579975565743
1470584453532587577,0.190601214767,0.285168796778,1.41344547272,0.0233400183764,-0.00896783857753,0.799055811149,-0.600736741079
1470584453640109699,0.194017827511,0.26833152771,1.42414283752,0.20290763926,-0.028536348253,0.798828423657,-0.565585816933
1470584453774229279,0.195851013064,0.244434475899,1.41636168957,0.0864912346093,-0.0124983896994,0.79969055709,-0.594018576723
1470584453936981942,0.18582598865,0.0420602783561,1.24397718906,0.139173387538,-0.0170508144984,0.797218072025,-0.587182581114
1470584454073143709,0.18259857595,0.0141977025196,1.21573770046,0.129782016783,-0.0188070649136,0.80272733596,-0.581748868956
1470584454179572253,0.180420964956,-0.0282347872853,1.18472898006,0.060283499347,-0.00875848800185,0.820378616752,-0.568566718839
1470584454306886157,0.17824113369,-0.0839482918382,1.14335358143,0.089408654531,-0.011231863688,0.780046469943,-0.619199032995
1470584454490883561,0.175814419985,-0.110883288085,1.11353349686,-0.0207168210479,0.000317165241074,0.79168552613,-0.61057738285
1470584454719137533,0.175543025136,-0.139354586601,1.10113310814,0.151106733472,-0.0264255386964,0.821624171673,-0.54900106241
1470584454937691849,0.173585101962,-0.171928420663,1.07398998737,0.163835974658,-0.0256799287459,0.795650788862,-0.582613196599
1470584455092771533,0.170633077621,-0.193342283368,1.05153894424,0.18588291389,-0.0317610050774,0.802920413646,-0.565471122367
1470584455188659207,0.168470963836,-0.209612712264,1.01362454891,0.071436957215,-0.0130352263266,0.791567237032,-0.606752134958
1470584455392961226,0.156718537211,-0.186034291983,0.973992228508,0.15495311556,-0.0284879020852,0.806710358188,-0.569558047441
1470584455462492809,0.158805191517,-0.154320567846,0.964336931705,0.204399381173,-0.0349114994369,0.802618433509,-0.559290381085
1470584455619781873,0.160427227616,-0.139019280672,0.937291562557,0.141424870376,-0.023221793628,0.798623277355,-0.584517420789
1470584455727756892,0.153668537736,-0.104120232165,0.913650393486,0.203758697215,-0.0302190726709,0.784304348791,-0.58518021961
1470584455847055074,0.153106212616,-0.0865158066154,0.902187049389,0.342380591453,-0.0607066921805,0.795132254439,-0.496844971869
1470584455969391231,0.150522053242,-0.0657042860985,0.887289702892,0.140732062695,-0.0224686488585,0.800300023631,-0.582416962772
1470584456112912757,0.146684840322,-0.0358872935176,0.862281024456,0.117162807531,-0.0176838579204,0.796924704232,-0.592343796696
1470584456247695661,0.14476506412,-0.00622130651027,0.846837162971,0.235983914433,-0.0336707014463,0.788830655443,-0.566501609023
1470584456421490195,0.141410574317,0.0273339375854,0.82148963213,0.121337107599,-0.0158823985824,0.796830513181,-0.591680816825
1470584456544070970,0.139318853617,0.0606570653617,0.79686665535,0.172060873794,-0.0244555419802,0.78230664384,-0.598158254293
1470584456699447325,0.136622205377,0.0736171528697,0.78076595068,0.226322043692,-0.0280526805876,0.781432846603,-0.580821905493
1470584456881368128,0.133589208126,0.0869556516409,0.757238268852,0.0605300313341,-0.00685112435944,0.782196335308,-0.620046829225
1470584457073526245,0.131668359041,0.098197221756,0.740563094616,0.143969552382,-0.0161795929036,0.777531434625,-0.611927983451
1470584457265320679,0.128461658955,0.109513781965,0.717373907566,0.193018190061,-0.0218081510262,0.774051327754,-0.602588520349
1470584457395106804,0.12393976748,0.118613421917,0.681459605694,0.13384648297,-0.0146078018361,0.768083554943,-0.626034650597
1470584457526881412,0.122512921691,0.118477500975,0.65793889761,0.15042784985,-0.0171869508231,0.770423342364,-0.619293100439
1470584457657997246,0.119297765195,0.112320385873,0.629941880703,0.11613375439,-0.0141392423572,0.770243620151,-0.626927267339
1470584457755265168,0.119000941515,0.109745137393,0.618669033051,0.161391027522,-0.0176228949766,0.769908836765,-0.617156992085
1470584457924814091,0.116718612611,0.105082154274,0.601059436798,0.163435119569,-0.018049663534,0.769416844995,-0.617220292907
1470584458055524640,0.11407469213,0.0962174236774,0.57892781496,0.131692364629,-0.0159689427559,0.768760441726,-0.625627282975
1470584458220544054,0.113179005682,0.0908358618617,0.564237773418,0.128174552387,-0.0149374958596,0.768537115208,-0.626656890081
1470584458338920016,0.11082149297,0.0816999599338,0.543475151062,0.174193910478,-0.0193249682707,0.768313473776,-0.615611430343
1470584458436282856,0.108588457108,0.0714300498366,0.51754796505,0.127081657825,-0.0150481521987,0.769738661778,-0.625400829808
1470584458593183729,0.106989055872,0.0632268637419,0.498131096363,0.149911106324,-0.0170451490414,0.766472474559,-0.624304468058
1470584458693244414,0.105292625725,0.0555674619973,0.478507399559,0.170546570197,-0.0196484032916,0.767606814802,-0.617501081384
1470584458817721201,0.103792093694,0.0488439872861,0.460124015808,0.158870956808,-0.0187215031187,0.766718010924,-0.621733878865
1470584459054710613,0.102504014969,0.0436854176223,0.445566356182,0.196560521638,-0.0227219372982,0.765853971759,-0.611813181322
1470584459147699389,0.100784212351,0.0374990701675,0.426200211048,0.198606182591,-0.0225738747419,0.764422778321,-0.612946833257
1470584459312714062,0.0995110943913,0.0332622267306,0.411841273308,0.205760252697,-0.0230161241739,0.762698362652,-0.612718682631
1470584459388065770,0.0970145389438,0.0279518254101,0.386694341898,0.198090242369,-0.0218142300486,0.762959224698,-0.61496147578
1470584459492635101,0.0954724252224,0.0249627958983,0.368170201778,0.201004353051,-0.0223901065319,0.761716581014,-0.615535363234
1470584459649439317,0.0965076461434,0.0242241285741,0.358891010284,0.22346233972,-0.0241354329141,0.762779878649,-0.60634059763
1470584459770047170,0.0914243906736,0.0216907914728,0.338134467602,0.183994435034,-0.0202389579641,0.762684067956,-0.619717229826
1470584459918594383,0.0914773419499,0.0209674052894,0.330169290304,0.199137115448,-0.0220715157453,0.76071514862,-0.617389439579
1470584460071624069,0.0914199054241,0.0220335181803,0.325491070747,0.197099978414,-0.0209686324745,0.759225704842,-0.619909867698
1470584460203908154,0.0908318683505,0.021436650306,0.322356045246,0.201857550748,-0.0217578587575,0.758912338407,-0.618734343157
1470584460279062468,0.0911214575171,0.0225343853235,0.322884202003,0.216469257042,-0.0225088118613,0.757675183348,-0.615274516523
1470584460413042123,0.0912004709244,0.0226776301861,0.322954058647,0.216803415483,-0.022560126341,0.75767525459,-0.615154881568
1470584460530867576,0.0911627188325,0.0230953227729,0.322799474001,0.223043403173,-0.0230429808092,0.756706046052,-0.614098217881
1470584460665078360,0.0911262109876,0.0242181830108,0.322732418776,0.213756694613,-0.0221479137555,0.757222741872,-0.616791102899
1470584460821044539,0.091173671186,0.024615386501,0.323056161404,0.231918231283,-0.0234431559802,0.755988256026,-0.611674839426
1470584460957001789,0.0911148190498,0.0254262890667,0.322939246893,0.235512366372,-0.0237387177555,0.755612820832,-0.610753357387
1470584461043493030,0.0910561606288,0.0259001031518,0.322732448578,0.227702376737,-0.0230478040275,0.75586936676,-0.613418231512
1470584461175610426,0.0910492762923,0.0267280284315,0.322703659534,0.221038615201,-0.0222449402133,0.754527557806,-0.617523487599
1470584461311438948,0.0909915715456,0.0274321138859,0.322625219822,0.223639807268,-0.0223780972993,0.753855963553,-0.617402335258
1470584461449548129,0.0909528583288,0.0280542001128,0.322488695383,0.215435796031,-0.0212117717634,0.753901840569,-0.620297906907
1470584461625313593,0.0909502953291,0.0284983552992,0.322495877743,0.227051149188,-0.0221040529313,0.752705497829,-0.617570740916
1470584461716960689,0.090966142714,0.0289656594396,0.32259953022,0.231049597354,-0.0222523539932,0.752237465533,-0.616652018364
1470584461871978151,0.0909292772412,0.0291803516448,0.322407126427,0.216336460101,-0.0210564635751,0.75123476631,-0.623218651245
1470584461963905392,0.0909589082003,0.0294268466532,0.322478920221,0.204208399808,-0.019877978966,0.750742827058,-0.627924360907
1470584462150001457,0.0909715220332,0.0294956080616,0.322609335184,0.220404431983,-0.0210966733736,0.750965743925,-0.622115156692
1470584462224448590,0.0909286811948,0.0295924562961,0.322543412447,0.229259489277,-0.021759535839,0.751064035381,-0.618764433313
1470584462339727591,0.0909551158547,0.0295566823334,0.322602063417,0.232789646367,-0.0218739049687,0.750041115422,-0.618683148309
1470584462488036734,0.0910291969776,0.0294538158923,0.322792381048,0.236450337824,-0.0217030848269,0.748179882394,-0.619553934241
1470584462619417853,0.090949177742,0.0292867571115,0.322353243828,0.217524143232,-0.0203965145458,0.748522212116,-0.62608444101
1470584462776779982,0.0909527540207,0.029154619202,0.322407364845,0.233578654176,-0.0214448289768,0.748491984941,-0.620274842391
1470584462849109130,0.0910041704774,0.0288712456822,0.322498589754,0.248786898738,-0.022080803331,0.747120820521,-0.615977269616
1470584462992031228,0.0909925922751,0.0286243390292,0.322345435619,0.23810712718,-0.0210440464437,0.746459125111,-0.621016037341
1470584463123241504,0.0909741297364,0.0283333137631,0.322269767523,0.245112902082,-0.021694437222,0.747115755759,-0.61746826973
1470584463264749554,0.0910604596138,0.0280346106738,0.322629421949,0.277869004325,-0.023317457033,0.744407130728,-0.606715037191
1470584463396745911,0.0910579413176,0.0277030430734,0.322562754154,0.267246574798,-0.022446920214,0.745379822718,-0.610314938304
1470584463549055715,0.0910597071052,0.0273015983403,0.322444528341,0.26899989492,-0.0228099907325,0.744849962958,-0.610178083462
1470584463637193588,0.091048642993,0.0269856080413,0.322337448597,0.25755868037,-0.0220932630925,0.745335178332,-0.614533063254
1470584463816947693,0.0910673141479,0.0266318880022,0.322316110134,0.266512925735,-0.0223532219939,0.744039528048,-0.612271487646
1470584463982211256,0.0910932272673,0.0263407249004,0.322479009628,0.282968616413,-0.0236587658658,0.745580219632,-0.602892329539
1470584464135332057,0.091109752655,0.0259622745216,0.322505176067,0.29088498103,-0.0238606356285,0.742975749693,-0.602331829847
1470584464276318744,0.0911668762565,0.0255300849676,0.322613894939,0.294006918869,-0.0240130024748,0.743204899227,-0.600524591615
1470584464397726510,0.0911167636514,0.025229183957,0.322387963533,0.277234545878,-0.0232029819603,0.744734544947,-0.606607851715
1470584464551760248,0.0911211892962,0.0248386468738,0.322422683239,0.281813135741,-0.0230293907159,0.743809222085,-0.60563920351
1470584464682068206,0.0911237150431,0.0244869850576,0.322437316179,0.301900598363,-0.0242555785637,0.742548666865,-0.597402019542
1470584464824918045,0.0911385565996,0.0241938959807,0.322393774986,0.281250957504,-0.0225620369441,0.741426712747,-0.608831079214
1470584464924641548,0.0911411494017,0.0238869804889,0.322348356247,0.280751475979,-0.0230137952393,0.742585557039,-0.607631191136
1470584465142479451,0.0911341607571,0.0235776267946,0.32232311368,0.288971352474,-0.0228094495922,0.742102131476,-0.604367200398
1470584465286882130,0.0911165103316,0.0232578199357,0.32222700119,0.277686043681,-0.0226515925718,0.742581509237,-0.60905670396
1470584465415427447,0.0910754129291,0.022956687957,0.322010815144,0.252700985681,-0.0208626941434,0.743048592519,-0.619342997849
1470584465631334568,0.0910580307245,0.0227240361273,0.321974605322,0.278064231938,-0.0221505958517,0.741648713502,-0.610038375663
1470584465759816227,0.0910983234644,0.0226782225072,0.322135716677,0.273935754211,-0.0220605814057,0.742406839892,-0.610986593466
1470584465928237932,0.0911560431123,0.0224452316761,0.322362244129,0.294514915134,-0.0231715558351,0.741624291752,-0.60226028729
1470584466039022595,0.0911409780383,0.0222823433578,0.322221964598,0.282449359592,-0.0222741801622,0.74107045884,-0.608720621631
1470584466194246041,0.0911703705788,0.0222603883594,0.322326540947,0.294871695156,-0.0230418274344,0.740977921982,-0.602885956645
1470584466288863401,0.0911181867123,0.022193428129,0.322098165751,0.281676687178,-0.0217139329206,0.740427442771,-0.609880275964
1470584466434943846,0.0910760685802,0.0222382918,0.32207006216,0.295371354744,-0.0229370897459,0.740286953909,-0.603493892748
1470584466611330004,0.091186709702,0.0222660433501,0.322384119034,0.312836286867,-0.0236086149316,0.739517057941,-0.595559075101
1470584466734574750,0.0911086499691,0.0223493892699,0.32209649682,0.283725887422,-0.0224356829108,0.741764938338,-0.607273445156
1470584466843322073,0.0911294668913,0.0223472509533,0.322177737951,0.313048688142,-0.0234395342199,0.739261950633,-0.595770824592
1470584466973828115,0.0911209955812,0.0224305521697,0.322186797857,0.296679218619,-0.0226710430658,0.739785081958,-0.603477835184
1470584467067402079,0.0911671370268,0.0224828608334,0.322413891554,0.327457464892,-0.0239499487564,0.738109898308,-0.589399513625
1470584467175730932,0.0910912305117,0.0225244238973,0.32203027606,0.283991044928,-0.0219274207657,0.740294407551,-0.608960150394
1470584467366675884,0.0910973250866,0.0225576758385,0.322065800428,0.291463390443,-0.0222330318076,0.740076368715,-0.605674626179
1470584467448245347,0.0910830944777,0.0225263219327,0.322048008442,0.298067613492,-0.0225880614533,0.73989065546,-0.60266681942
1470584467611557270,0.0910986587405,0.0224674120545,0.322075128555,0.290956663531,-0.022285057059,0.740002833553,-0.606006107652
1470584467792937481,0.0911531299353,0.0224278550595,0.322327196598,0.300570652485,-0.0226261978375,0.739261406456,-0.602194246869
1470584467959501680,0.0911760851741,0.0223843138665,0.322372436523,0.324196296283,-0.023403598797,0.737499243662,-0.591983022255
1470584468126385273,0.091198220849,0.0223293136805,0.322450637817,0.32380862596,-0.0233441739448,0.737538020551,-0.592149213914
1470584468247715765,0.0911909267306,0.0222630463541,0.322382569313,0.319508523989,-0.0226859115997,0.736255441767,-0.596093597501
1470584468345787026,0.0912365987897,0.022257052362,0.32256218791,0.350450657501,-0.0238400885905,0.734850795589,-0.580181260518
1470584468436617388,0.0911983475089,0.0222579780966,0.322449713945,0.337319898658,-0.023874773239,0.73684846577,-0.585405517282
1470584468521302001,0.0911547914147,0.0222315695137,0.322268903255,0.32181739561,-0.0226980077849,0.736095796632,-0.59504734476
1470584468642773431,0.0912066176534,0.0222250912338,0.322430729866,0.342779695678,-0.0236910055952,0.73487839839,-0.584717501076
1470584468778848185,0.0912007018924,0.0221989583224,0.32237893343,0.321688965274,-0.0225215112462,0.735575723684,-0.5957661839
1470584468906100056,0.0911590978503,0.0220663305372,0.322163879871,0.340618502943,-0.0229444514991,0.734526091621,-0.586450346002
1470584469057185345,0.0911528617144,0.0216747652739,0.322271257639,0.335433351079,-0.0233745813953,0.735439505659,-0.588274450783
1470584469156855090,0.0911341309547,0.0214246697724,0.322102576494,0.337285858151,-0.0229547481335,0.73428523075,-0.588673533745
1470584469288016166,0.0911837145686,0.0210837051272,0.322342514992,0.345106271964,-0.0238052575888,0.735996889099,-0.581930880774
1470584469376961504,0.0911663100123,0.0207925625145,0.322109758854,0.327156101868,-0.0224261259783,0.734317196456,-0.594343510836
1470584469528835599,0.0911956429482,0.0205523520708,0.322302043438,0.340142582533,-0.0234043852549,0.735428388014,-0.58557693295
1470584469648427581,0.0911547467113,0.0202679894865,0.322191655636,0.349286985662,-0.0239941023497,0.734971335599,-0.580723704137
1470584469818109510,0.0911845490336,0.0198458973318,0.322374075651,0.342276665433,-0.023696495255,0.735948533915,-0.583665071629
1470584469991706326,0.091216892004,0.0195310264826,0.322433024645,0.358901227412,-0.024848718822,0.735703156208,-0.573858271772
1470584470121761235,0.0912114903331,0.0190870128572,0.322466880083,0.366430779397,-0.024749033801,0.734480606507,-0.57066120238
1470584470225652730,0.0912581756711,0.0187414586544,0.322467833757,0.37367830093,-0.0248509711819,0.733260120423,-0.567517887333
1470584470420583919,0.0912022441626,0.0184937436134,0.322277992964,0.330865321324,-0.0231222566071,0.735730975279,-0.590502694668
1470584470497697698,0.0911743342876,0.018263829872,0.32225009799,0.338231175525,-0.0237239743166,0.735571474518,-0.586490793467
1470584470671473316,0.0911719948053,0.0180053897202,0.322159349918,0.345466758913,-0.0240505860863,0.73582675047,-0.581922057571
1470584470800244130,0.0912775248289,0.0180548112839,0.322271198034,0.353475537035,-0.0236817456471,0.733919411995,-0.579531290214
1470584470937314048,0.0912161767483,0.0181169491261,0.321727275848,0.331610296219,-0.0233216845078,0.736301081904,-0.589365274902
1470584471016205174,0.0910314619541,0.0180010925978,0.320646107197,0.31254104972,-0.0227793486286,0.737460758801,-0.598289915296
1470584471162570568,0.0910832956433,0.0179308634251,0.320462793112,0.324837634469,-0.0228857724074,0.736535384376,-0.592851060737
1470584471272698110,0.0910110324621,0.0178725123405,0.319792568684,0.343228261914,-0.0240869524418,0.736062320647,-0.582946343216
1470584471427678715,0.090891905129,0.0178469456732,0.31891387701,0.313195163217,-0.0226747590052,0.736482050865,-0.599156768964
1470584471529961638,0.0908143892884,0.0178647395223,0.318257153034,0.33900005849,-0.0239779569538,0.735877972456,-0.585651455713
1470584471687105732,0.0907530039549,0.017770042643,0.317520916462,0.347603159403,-0.0239425708289,0.734500375723,-0.582329799116
1470584471878112672,0.0907814651728,0.0177702009678,0.317278981209,0.343676776899,-0.0239856296689,0.735027743974,-0.583990734668
1470584472058580501,0.0906199887395,0.0177583452314,0.316238194704,0.318370996384,-0.0228406669327,0.736351079848,-0.596577991382
1470584472191446637,0.0905173569918,0.0177388302982,0.315447300673,0.317567155623,-0.0225973114553,0.736040700296,-0.597398150894
1470584472322095312,0.0905159562826,0.0178432688117,0.315080851316,0.340676068389,-0.0245583604934,0.736727833074,-0.583582730494
1470584472461264636,0.090449437499,0.0179973430932,0.314492195845,0.356912346545,-0.0244409745392,0.734691893893,-0.576406138669
1470584472575190175,0.0903909057379,0.018124025315,0.313833624125,0.318574666714,-0.0234483079714,0.737010896888,-0.595630167511
1470584472691743919,0.0902445018291,0.0181494727731,0.313208013773,0.334598160775,-0.0234676416521,0.735750574539,-0.588357402152
1470584472834076514,0.0902494266629,0.0182207394391,0.312770783901,0.329275489449,-0.0237084283606,0.736283904451,-0.590678909831
1470584472960058071,0.0901326239109,0.0183957330883,0.312045186758,0.313292642239,-0.0228032956515,0.737274940665,-0.598124896568
1470584473167831392,0.0901276171207,0.0184818375856,0.311652630568,0.325934808247,-0.0234104987579,0.737397225476,-0.591154616984
1470584473285097490,0.090098798275,0.0185295268893,0.311355531216,0.350155821856,-0.0246330072789,0.736783125871,-0.577870868624
1470584473473265652,0.0899705886841,0.0187120828778,0.310321480036,0.333908445693,-0.0234493198153,0.736348075423,-0.588002373393
1470584473593100584,0.0899351090193,0.018872378394,0.309735625982,0.310820981476,-0.0224167424341,0.737434594293,-0.599231196012
1470584473703701645,0.0899364575744,0.0190091524273,0.309279978275,0.342690563492,-0.0233973195447,0.734818950873,-0.584856266589
1470584473835943893,0.0898038893938,0.0190803203732,0.308613747358,0.342497258461,-0.0235471265065,0.735340387388,-0.58430786017
1470584473969796820,0.0898146852851,0.0192437320948,0.308167725801,0.339921752287,-0.0233587838059,0.735302270181,-0.585865292544
1470584474101024276,0.0896835699677,0.0193497128785,0.307160437107,0.320915163875,-0.022760349107,0.73647454668,-0.595063581642
1470584474198665384,0.0896260291338,0.0194116793573,0.306608140469,0.329903922282,-0.0230246447036,0.735716104692,-0.591062671039
1470584474353214778,0.0895845144987,0.0194751881063,0.30614772439,0.324142932115,-0.0230130979589,0.736768347637,-0.592936892765
1470584474496855565,0.0894840806723,0.01964741759,0.305307239294,0.323302469883,-0.022814463127,0.736199694347,-0.594108595531
1470584474639988336,0.0894009768963,0.0197112131864,0.304657042027,0.328983896784,-0.0233605299056,0.736819972184,-0.590186589046
1470584474748402978,0.0893227681518,0.0197753030807,0.303737819195,0.293802164238,-0.0217406550365,0.738025987921,-0.607062824888
1470584474952098672,0.0892834663391,0.0198314394802,0.303322404623,0.350073573201,-0.0241885620088,0.735202996251,-0.579948240034
1470584475110302694,0.0892039388418,0.0199155025184,0.302639335394,0.326132702286,-0.0231752569211,0.736160323698,-0.592594588043
1470584475277105621,0.0892011299729,0.0199716966599,0.302369952202,0.368189645372,-0.0249973646461,0.734223926269,-0.569847999817
1470584475397049697,0.0890971198678,0.0199109259993,0.301815569401,0.349350463997,-0.0246146511137,0.736334133514,-0.578930406938
1470584475528763120,0.0890830308199,0.0201876219362,0.301388204098,0.347010562529,-0.0243136434901,0.735514829887,-0.581386662429
1470584475672980111,0.0890325903893,0.0205848626792,0.301080107689,0.367593064572,-0.0255336944958,0.73612534532,-0.567752450723
1470584475861930992,0.088980294764,0.0207768213004,0.300695955753,0.372245348104,-0.0254676642003,0.735337572448,-0.565741507618
1470584475974815325,0.0888277739286,0.0211200844496,0.299539715052,0.33551828678,-0.0235822511729,0.736443247782,-0.586960560398
1470584476076066642,0.0887478888035,0.0213169697672,0.298835992813,0.346560098779,-0.0243916844972,0.737112975574,-0.579625400497
1470584476200353294,0.0887369513512,0.0213644392788,0.298389226198,0.336059553496,-0.0236679342407,0.736199333775,-0.586953444783
1470584476346127086,0.088634505868,0.0214692912996,0.297744899988,0.319502410036,-0.0227115065896,0.736889059166,-0.595312448998
1470584476462937673,0.08857627213,0.0215638559312,0.297239840031,0.31653842907,-0.0224657128173,0.736329642382,-0.597592982237
1470584476572194715,0.0885622724891,0.0212159566581,0.296888530254,0.321697228705,-0.0230967928978,0.737772125116,-0.593017472426
1470584476739475795,0.0886559188366,0.0207306090742,0.29707801342,0.340145056371,-0.0235128058987,0.735079910563,-0.586008544027
1470584476847048745,0.0886695981026,0.0203959215432,0.296993136406,0.35909842218,-0.024493564115,0.73398627778,-0.575944904079
1470584476967309561,0.0887025147676,0.0201177895069,0.297185778618,0.374721766221,-0.0254603650119,0.735162324246,-0.56433299101
1470584477115087502,0.0886694714427,0.0197534412146,0.296917378902,0.349858368926,-0.0240900681943,0.735427419,-0.579797638569
1470584477242390294,0.0886332392693,0.019506175071,0.296738654375,0.3296018253,-0.0234427969992,0.736912830583,-0.589722436533
1470584477413025498,0.0886696204543,0.0191703848541,0.296851336956,0.350338282438,-0.0241278416097,0.735348172357,-0.579606763702
1470584477518946639,0.0886802747846,0.0189380608499,0.296961605549,0.36869447448,-0.025621841135,0.7359095493,-0.56731388225
1470584477616040675,0.0886885076761,0.018759958446,0.29696303606,0.360115924077,-0.024418211677,0.735190366341,-0.573772949348
1470584477784314278,0.0886760652065,0.0186126027256,0.296764671803,0.337758325474,-0.0235555206007,0.736071348499,-0.586142833224
1470584477918114183,0.0886427536607,0.0182635840029,0.296633601189,0.340797924856,-0.0237317606496,0.735728674308,-0.584805006605
1470584478047900207,0.0885635390878,0.0181150678545,0.296519845724,0.334534166173,-0.0233173965367,0.73503151622,-0.589297769251
1470584478195632423,0.0886108651757,0.0182520709932,0.296645313501,0.3387707845,-0.0235003807061,0.735374417041,-0.586435464853
1470584478285460708,0.0885390788317,0.0181354954839,0.296052008867,0.33179865826,-0.0232502916855,0.735228580104,-0.590599703108
1470584478430980140,0.0884530618787,0.017969282344,0.295322597027,0.350024770385,-0.0241715461041,0.7355322809,-0.579560747661
1470584478560954943,0.0883556231856,0.0179070848972,0.294794112444,0.356176998755,-0.0242458844748,0.735227084624,-0.576186789748
1470584478655991191,0.0883288010955,0.0179133415222,0.294214516878,0.336860692227,-0.023379935462,0.735975396027,-0.586786561787
1470584478827756319,0.0882824808359,0.0179098267108,0.293638467789,0.346070418408,-0.0237307894588,0.735698589207,-0.581738515979
1470584478946017566,0.0881853252649,0.0178664010018,0.292884349823,0.348734667793,-0.0236523878574,0.734836513628,-0.581240048746
1470584479045329540,0.0881121009588,0.0178616400808,0.292302101851,0.354625960891,-0.0238445668354,0.734803311383,-0.577698847217
1470584479214568470,0.08806450665,0.0178115684539,0.291302889585,0.364025950646,-0.0249826892965,0.735354475093,-0.571064592189
1470584479330051051,0.0880853533745,0.0176135338843,0.290522992611,0.360704023401,-0.0250548616433,0.73608081553,-0.572232377989
1470584479462904277,0.0880824699998,0.0172349475324,0.28934392333,0.331875921273,-0.0235991045709,0.736908992765,-0.588444212756
1470584479641640201,0.0881787315011,0.0172167234123,0.28871807456,0.351793527257,-0.0245603004684,0.73616335094,-0.577669132423
1470584479802684538,0.0882501900196,0.0171882268041,0.288289815187,0.358959413887,-0.0249389983052,0.735868089707,-0.573606433103
1470584479908135034,0.0881459861994,0.0169756710529,0.286583691835,0.349364529537,-0.0251899013617,0.737024628608,-0.578017812178
1470584480147494480,0.0881573334336,0.0168882757425,0.286211550236,0.393632833111,-0.0266392287321,0.734139789566,-0.552614072898
1470584480303724360,0.0879095643759,0.0169490426779,0.284669548273,0.340439894234,-0.0248880303399,0.737453045876,-0.582790073258
1470584480490158179,0.0878942534328,0.0169262476265,0.284022510052,0.374602654734,-0.0259287341781,0.73560511394,-0.563813504765
1470584480613121645,0.0877713561058,0.0168696772307,0.28321069479,0.359525685398,-0.0252686447869,0.735684781397,-0.573472474973
1470584480904769785,0.0876936540008,0.0168624147773,0.282663822174,0.372786063193,-0.0259204140184,0.735390977115,-0.565295315746
1470584480977244493,0.087606087327,0.0168743990362,0.281778365374,0.361366738081,-0.0251819017362,0.735106192628,-0.573060937417
1470584481106996735,0.0875547528267,0.0168912094086,0.281246364117,0.334227589632,-0.0239647887742,0.735742338616,-0.588558254038
1470584481325898893,0.0876007005572,0.0168702546507,0.281059443951,0.377730034276,-0.0259215540054,0.734268242458,-0.563469823825
1470584481421393162,0.0874767452478,0.0168692562729,0.280355662107,0.389478669439,-0.0264764135343,0.7341819913,-0.555501727476
1470584481548505045,0.0873755216599,0.0168732982129,0.279845267534,0.351754115298,-0.0246186070461,0.735465087002,-0.578579357011
1470584481722520203,0.0873701050878,0.0168962646276,0.279320269823,0.364316831564,-0.0252252368195,0.735221672094,-0.571039426442
1470584481938531310,0.0873985365033,0.0169033464044,0.279330104589,0.346725576176,-0.024509500913,0.735776121591,-0.581217823271
1470584482054508752,0.0872866585851,0.016900755465,0.278637766838,0.370157032642,-0.0254451467741,0.734908401582,-0.567667118103
1470584482141849829,0.0872808694839,0.0169632527977,0.277865260839,0.362833793557,-0.0255197021819,0.735968008576,-0.571009171035
