%time,field.linear.x,field.linear.y,field.linear.z,field.angular.x,field.angular.y,field.angular.z
1470141525407099813,0.15,-0.60432835549,0.0,0.0,0.0,0.021817087893
1470141525487318517,0.15,-0.240282154295,0.0,0.0,0.0,0.0223571302718
1470141525568006077,0.15,-0.23989139876,0.0,0.0,0.0,0.0228609468356
1470141525647978425,0.15,-0.239532214615,0.0,0.0,0.0,0.0228499107477
1470141525726518532,0.15,-0.240480888697,0.0,0.0,0.0,0.0228609468356
1470141525806776149,0.15,-0.23953983328,0.0,0.0,0.0,0.0229210689609
1470141525881315649,0.15,-0.241081983062,0.0,0.0,0.0,0.0230193514298
1470141525957380327,0.15,-0.239759374472,0.0,0.0,0.0,0.0228609468356
1470141526036453769,0.15,-0.23934194586,0.0,0.0,0.0,0.0341365393277
1470141526108311406,0.15,-0.239196543309,0.0,0.0,0.0,0.0380989505668
1470141526181107847,0.15,-0.237092160794,0.0,0.0,0.0,0.0250642994873
1470141526252974495,0.15,-0.224189613673,0.0,0.0,0.0,0.0211332320026
1470141526322440991,0.15,-0.214839210126,0.0,0.0,0.0,0.0244616910184
1470141526393896489,0.15,-0.191967608544,0.0,0.0,0.0,0.0285173659799
1470141526466324568,0.15,-0.184244893405,0.0,0.0,0.0,0.0219978600062
1470141526540271795,0.15,-0.185813150617,0.0,0.0,0.0,0.0311847395846
1470141526618986301,0.15,-0.167733293983,0.0,0.0,0.0,0.0296144748221
1470141526693202049,0.15,-0.1592201992,0.0,0.0,0.0,0.0285396240243
1470141526766936813,0.15,-0.151593845698,0.0,0.0,0.0,0.0263926225815
1470141526838916974,0.15,-0.141316542241,0.0,0.0,0.0,0.0334404464925
1470141526909329764,0.15,-0.12705555937,0.0,0.0,0.0,0.0253694609111
1470141526984884051,0.15,-0.122563371572,0.0,0.0,0.0,0.0362560356496
1470141527059361946,0.15,-0.116527476224,0.0,0.0,0.0,0.0296003326896
1470141527135333696,0.15,-0.108187960896,0.0,0.0,0.0,0.0232523456029
1470141527212562688,0.15,-0.0863937564818,0.0,0.0,0.0,0.034010182752
1470141527290646847,0.15,-0.0925024523465,0.0,0.0,0.0,0.0378165788566
1470141527364290435,0.15,-0.0877574359504,0.0,0.0,0.0,0.0360920904874
1470141527439877687,0.15,-0.0812646277873,0.0,0.0,0.0,0.0198155727135
1470141527515398657,0.15,-0.0774758481113,0.0,0.0,0.0,0.0327827266312
1470141527591116245,0.15,-0.0689232268063,0.0,0.0,0.0,0.026768298923
1470141527666134389,0.15,-0.0668085934846,0.0,0.0,0.0,0.0178819850417
1470141527738068907,0.15,-0.0650605147211,0.0,0.0,0.0,0.0151396702628
1470141527811771518,0.15,-0.0532927916078,0.0,0.0,0.0,0.0206791322736
1470141527882413027,0.15,-0.0563253029315,0.0,0.0,0.0,0.0253068868686
1470141527955825904,0.15,-0.0539919301001,0.0,0.0,0.0,0.0222819887144
1470141528028386587,0.15,-0.0495854139952,0.0,0.0,0.0,0.0407342810585
1470141528100507722,0.15,-0.0484832856683,0.0,0.0,0.0,0.0317323344582
1470141528174770411,0.15,-0.0474760546414,0.0,0.0,0.0,0.0214780151074
1470141528244316645,0.15,-0.0443414654462,0.0,0.0,0.0,0.0293580502413
1470141528317655180,0.15,-0.041936245623,0.0,0.0,0.0,0.0210424341804
1470141528391926700,0.15,-0.0417802845565,0.0,0.0,0.0,0.0336598688338
1470141528470803738,0.15,-0.0390252899257,0.0,0.0,0.0,0.0358645192271
1470141528546166452,0.15,-0.0351206915704,0.0,0.0,0.0,0.023668149391
1470141528619386498,0.15,-0.0353445815174,0.0,0.0,0.0,0.0242252853039
1470141528699281054,0.15,-0.0349052511779,0.0,0.0,0.0,0.0201222847952
1470141528773355347,0.15,-0.0345413345722,0.0,0.0,0.0,0.0278633719989
1470141528848292729,0.15,-0.0333023197083,0.0,0.0,0.0,0.0333047165096
1470141528922854635,0.15,-0.0308334166435,0.0,0.0,0.0,0.0126430187493
1470141529006426668,0.15,-0.032561925265,0.0,0.0,0.0,0.012404790233
1470141529080796343,0.15,-0.0314332248149,0.0,0.0,0.0,0.0386949129995
1470141529155842728,0.15,-0.0305721475063,0.0,0.0,0.0,0.0184231305837
1470141529229529293,0.15,-0.0297985903052,0.0,0.0,0.0,0.0181813740802
1470141529303049143,0.15,-0.0313265355555,0.0,0.0,0.0,0.0265904715369
1470141529384984123,0.15,-0.0288133539138,0.0,0.0,0.0,0.0200526849425
1470141529459526554,0.15,-0.0297942649452,0.0,0.0,0.0,0.0279854861801
1470141529541286761,0.15,-0.029378960493,0.0,0.0,0.0,0.0137132814746
1470141529614795725,0.15,-0.0302893905965,0.0,0.0,0.0,0.0388766303468
1470141529692914342,0.15,-0.028615118104,0.0,0.0,0.0,0.0251099482271
1470141529766595314,0.15,-0.0269760720311,0.0,0.0,0.0,0.0246612841036
1470141529842048996,0.15,-0.0280955009041,0.0,0.0,0.0,0.0196113468383
1470141529914991810,0.15,-0.025972471076,0.0,0.0,0.0,0.0207259990662
1470141529994564872,0.15,-0.0270927545307,0.0,0.0,0.0,0.02268860854
1470141530067140751,0.15,-0.02530570707,0.0,0.0,0.0,0.0193703566535
1470141530139498651,0.15,-0.026339547473,0.0,0.0,0.0,0.0215478689693
1470141530214438503,0.15,-0.024996036726,0.0,0.0,0.0,0.0162960705541
1470141530296244811,0.15,-0.024838156092,0.0,0.0,0.0,0.0244149371612
1470141530370539525,0.15,-0.0248468470452,0.0,0.0,0.0,0.0173222388957
1470141530449294325,0.15,-0.0248073292402,0.0,0.0,0.0,0.0211689067008
1470141530526533674,0.15,-0.0233975144354,0.0,0.0,0.0,0.0155046050221
1470141530601540062,0.15,-0.0237427980332,0.0,0.0,0.0,0.0274798300025
1470141530678221151,0.15,-0.0240661647795,0.0,0.0,0.0,0.0104282505951
1470141530752626124,0.15,-0.0237782805292,0.0,0.0,0.0,0.023386875673
1470141530828576445,0.15,-0.0222447810946,0.0,0.0,0.0,0.00552128396014
1470141530906064507,0.15,-0.0229255882529,0.0,0.0,0.0,0.0158516089655
1470141530978189117,0.15,-0.0231753187505,0.0,0.0,0.0,0.0408232742594
1470141531050684840,0.15,-0.0211419425038,0.0,0.0,0.0,0.02004217654
1470141531122541020,0.15,-0.0224758877484,0.0,0.0,0.0,0.0268671380497
1470141531195647204,0.15,-0.020568865749,0.0,0.0,0.0,0.00611984997521
1470141531268439825,0.15,-0.0213178388653,0.0,0.0,0.0,0.0139554121364
1470141531342698999,0.15,-0.0200991514949,0.0,0.0,0.0,0.00690520376136
1470141531419305217,0.15,-0.0205316991983,0.0,0.0,0.0,0.0144471260906
1470141531492708096,0.15,-0.0193912646053,0.0,0.0,0.0,0.0139327747203
1470141531567144844,0.15,-0.0190571892885,0.0,0.0,0.0,0.0218991323049
1470141531645439561,0.15,-0.0195530172316,0.0,0.0,0.0,0.0300713777122
1470141531720612028,0.15,-0.0182112241415,0.0,0.0,0.0,0.0135276783894
1470141531798523272,0.15,-0.0184754864005,0.0,0.0,0.0,0.0241680093355
1470141531871227044,0.15,-0.017607500094,0.0,0.0,0.0,0.0161921770391
1470141531949304045,0.15,-0.0174354500202,0.0,0.0,0.0,0.0122473469738
1470141532027228692,0.15,-0.0154812750844,0.0,0.0,0.0,0.0130253300706
1470141532102131252,0.15,-0.01569421387,0.0,0.0,0.0,0.0165931237956
1470141532178945688,0.15,-0.015373918849,0.0,0.0,0.0,0.0209347944642
1470141532254622134,0.15,-0.0148474453268,0.0,0.0,0.0,0.0141682218972
1470141532329986889,0.15,-0.0134856924293,0.0,0.0,0.0,0.0138384320207
1470141532408177467,0.15,-0.0138636771096,0.0,0.0,0.0,0.00929259432108
1470141532481612308,0.15,-0.0136134380726,0.0,0.0,0.0,0.0213516405281
1470141532557139370,0.15,-0.0128437305866,0.0,0.0,0.0,0.0138079423726
1470141532632167192,0.15,-0.0131034059329,0.0,0.0,0.0,0.0190441636469
1470141532706497305,0.15,-0.0124738590298,0.0,0.0,0.0,0.011614714738
1470141532781680961,0.0,-0.0120330863325,0.0,0.0,0.0,0.0105832732198
1470141532856831774,0.0,-0.0120206314577,0.0,0.0,0.0,0.013871097782
1470141532930281135,0.0,-0.0118860033033,0.0,0.0,0.0,0.0155296855492
1470141533002579492,0.0,-0.0116631448148,0.0,0.0,0.0,0.0136408736643
1470141533075480965,0.0,-0.0110907447962,0.0,0.0,0.0,0.0117569536289
1470141533148115286,0.0,-0.0112761231391,0.0,0.0,0.0,0.0123643788767
1470141533226529847,0.0,-0.0111873758836,0.0,0.0,0.0,0.017620240381
1470141533297335247,0.0,-0.0107723282901,0.0,0.0,0.0,0.0104123811597
1470141533375189051,0.0,-0.0108929438395,0.0,0.0,0.0,0.0132674340366
1470141533450074013,0.0,-0.0107342005772,0.0,0.0,0.0,0.0159096024142
1470141533536589508,0.0,-0.0111483911676,0.0,0.0,0.0,0.0123989251362
1470141533606829014,0.0,-0.0113888562722,0.0,0.0,0.0,0.00824597206962
1470141533681410164,0.0,-0.0127144590644,0.0,0.0,0.0,0.00985285304263
1470141533752093113,0.0,-0.0129611121369,0.0,0.0,0.0,0.011212421213
1470141533828887381,0.0,-0.0123166339351,0.0,0.0,0.0,0.00916039763981
1470141533906663799,0.0,-0.0120339386789,0.0,0.0,0.0,0.0106157172117
1470141533980188554,0.0,-0.0121038635699,0.0,0.0,0.0,0.00890516123843
1470141534056577190,0.0,-0.0119776253281,0.0,0.0,0.0,0.00820667751496
1470141534134944267,0.0,-0.0118604675187,0.0,0.0,0.0,0.0086835852736
1470141534210180039,0.0,-0.0118182097254,0.0,0.0,0.0,0.00864243392599
1470141534283164835,0.0,-0.0116834802804,0.0,0.0,0.0,0.00906607343036
1470141534364591459,0.0,-0.01149888667,0.0,0.0,0.0,0.00781090709485
1470141534439982125,0.0,-0.011383076298,0.0,0.0,0.0,0.00858492740463
1470141534517814253,0.0,-0.0110484828679,0.0,0.0,0.0,0.00861348412099
1470141534590495888,0.0,-0.0105292079104,0.0,0.0,0.0,0.00901759611439
1470141534678653408,0.0,-0.0105227883784,0.0,0.0,0.0,0.0111807950993
1470141534750681624,0.0,-0.0103165357066,0.0,0.0,0.0,0.00995340862648
1470141534828703362,0.0,-0.00973599108586,0.0,0.0,0.0,0.00984055435939
1470141534908325184,0.0,-0.00959056394825,0.0,0.0,0.0,0.00866900584331
1470141534984949538,0.0,-0.0093845631061,0.0,0.0,0.0,0.00836281825835
1470141535058829744,0.0,-0.00884385431836,0.0,0.0,0.0,0.00717310217063
1470141535134188814,0.0,-0.00872214114944,0.0,0.0,0.0,0.00689760177884
1470141535214824718,0.0,-0.00846080186496,0.0,0.0,0.0,0.0102076919229
1470141535289125640,0.0,-0.00794760047177,0.0,0.0,0.0,0.00683867900373
1470141535365268193,0.0,-0.00791310450712,0.0,0.0,0.0,0.00927347903645
1470141535440700261,0.0,-0.00774255296866,0.0,0.0,0.0,0.00695450556024
1470141535517664762,0.0,-0.00754310178289,0.0,0.0,0.0,0.009027610296
1470141535591024197,0.0,-0.00703932496438,0.0,0.0,0.0,0.00848118426954
1470141535671714297,0.0,-0.00701003878096,0.0,0.0,0.0,0.00742911388978
1470141535751845231,0.0,-0.00699007334838,0.0,0.0,0.0,0.00762583585934
1470141535824772145,0.0,-0.00658198944012,0.0,0.0,0.0,0.0103635736608
1470141535906866773,0.0,-0.00667281704674,0.0,0.0,0.0,0.00622076540484
1470141535980077106,0.0,-0.0064195519192,0.0,0.0,0.0,0.00608158881194
1470141536055834495,0.0,-0.00621855291257,0.0,0.0,0.0,0.00608144204417
1470141536138184103,0.0,-0.00609648651162,0.0,0.0,0.0,0.00596675118938
1470141536215605233,0.0,-0.00606936390231,0.0,0.0,0.0,0.00961951441872
1470141536300389345,0.0,-0.00570148235837,0.0,0.0,0.0,0.00669545264253
1470141536379997521,0.0,-0.00581563940922,0.0,0.0,0.0,0.00835970411419
1470141536451303333,0.0,-0.00572545769343,0.0,0.0,0.0,0.00731242491008
1470141536526876709,0.0,-0.00553447878638,0.0,0.0,0.0,0.00497482065249
1470141536599628744,0.0,-0.00552380210439,0.0,0.0,0.0,0.00624007789076
1470141536678694426,0.0,-0.00552170323858,0.0,0.0,0.0,0.00587020820181
1470141536752538091,0.0,-0.00529730549732,0.0,0.0,0.0,0.00379226975209
1470141536830954855,0.0,-0.00526316209415,0.0,0.0,0.0,0.00408448430479
1470141536906517085,0.0,-0.00518545767943,0.0,0.0,0.0,0.00480829320429
1470141536984123942,0.0,-0.00516553486416,0.0,0.0,0.0,0.00686316013705
1470141537059974309,0.0,-0.00490275415311,0.0,0.0,0.0,0.00527023985172
1470141537137975099,0.0,-0.00491011882851,0.0,0.0,0.0,0.00516835223804
1470141537220498452,0.0,-0.00492077293525,0.0,0.0,0.0,0.00603643472026
1470141537294977748,0.0,-0.00480227357427,0.0,0.0,0.0,0.0043543435245
1470141537371204290,0.0,-0.00476386631558,0.0,0.0,0.0,0.00373478342369
1470141537446596890,0.0,-0.0047581727309,0.0,0.0,0.0,0.00397970024357
1470141537518828092,0.0,-0.00452684926519,0.0,0.0,0.0,0.0
1470141537592090229,0.0,-0.00454045365283,0.0,0.0,0.0,0.00362913283358
1470141537663185396,0.0,-0.0044917245833,0.0,0.0,0.0,0.0028375424304
1470141537738010401,0.0,-0.00438794071505,0.0,0.0,0.0,0.00302865171976
1470141537808723433,0.0,-0.00420288691947,0.0,0.0,0.0,0.0
1470141537883495538,0.0,-0.00417598998824,0.0,0.0,0.0,0.00293066744054
1470141537957275150,0.0,-0.00414817067513,0.0,0.0,0.0,0.0
1470141538037457298,0.0,-0.00408230527023,0.0,0.0,0.0,0.00304218607334
1470141538111211546,0.0,-0.003931356973,0.0,0.0,0.0,0.0
1470141538187533420,0.0,-0.00396002077216,0.0,0.0,0.0,0.0
1470141538263679955,0.0,-0.00387081567848,0.0,0.0,0.0,0.0
1470141538340103261,0.0,-0.00378734237233,0.0,0.0,0.0,0.0
1470141538417536294,0.0,-0.00356240980977,0.0,0.0,0.0,0.0
1470141538491866394,0.0,-0.00352117065991,0.0,0.0,0.0,0.0
1470141538569815825,0.0,-0.00346759517396,0.0,0.0,0.0,0.0
1470141538650080156,0.0,-0.00337204090039,0.0,0.0,0.0,0.0035047906044
1470141538723411151,0.0,-0.00295256205553,0.0,0.0,0.0,0.0
1470141538801098355,0.0,-0.00294039846117,0.0,0.0,0.0,0.00424954446431
1470141538880906143,0.0,-0.00280186715255,0.0,0.0,0.0,0.0
1470141538960905857,0.0,-0.00261479199583,0.0,0.0,0.0,0.00356699325512
1470141539036032766,0.0,-0.00225865331197,0.0,0.0,0.0,0.0
1470141539116552180,0.0,-0.00224722689668,0.0,0.0,0.0,0.00379513471163
1470141539189922984,0.0,-0.00209110586623,0.0,0.0,0.0,0.0
1470141539268961004,0.0,-0.00171158703694,0.0,0.0,0.0,0.0
1470141539345595915,0.0,-0.00173534036333,0.0,0.0,0.0,0.0
1470141539426632043,0.0,-0.00144091027508,0.0,0.0,0.0,0.0027985385076
1470141539500468164,0.0,-0.00143652626032,0.0,0.0,0.0,0.0030819014527
1470141539574561789,0.0,-0.00140035441796,0.0,0.0,0.0,0.00512099115691
1470141539648795810,0.0,-0.00128164493198,0.0,0.0,0.0,0.0
1470141539726259696,0.006,0.0,0.0,0.0,0.0,0.0
1470141539800576603,0.0,0.0,0.0,0.0,0.0,0.00506985399083
1470141539871911802,0.0,0.0,0.0,0.0,0.0,0.00727674417876
1470141539943916904,0.006,0.0,0.0,0.0,0.0,0.0
1470141540022757062,0.006,0.0,0.0,0.0,0.0,0.0
1470141540097179525,0.006,0.0,0.0,0.0,0.0,0.0
1470141540173477545,0.0,0.0,0.0,0.0,0.0,0.00564772166272
1470141540251347404,0.0,0.0,0.0,0.0,0.0,0.00393448180715
1470141540328224405,0.0,0.0,0.0,0.0,0.0,0.00540794309561
1470141540410571215,0.0,0.0,0.0,0.0,0.0,0.00736484698956
1470141540483884344,0.0,0.0,0.0,0.0,0.0,0.00406639650271
1470141540557203463,0.006,0.0,0.0,0.0,0.0,0.0
1470141540629533182,0.0,0.0,0.0,0.0,0.0,0.00371560834224
1470141540702100325,0.006,0.0,0.0,0.0,0.0,0.0
1470141540776858253,0.006,0.0,0.0,0.0,0.0,0.0
1470141540856005442,0.006,0.0,0.0,0.0,0.0,0.0
1470141540930569371,0.006,0.0,0.0,0.0,0.0,0.0
1470141541010741240,0.0,-0.00135104999596,0.0,0.0,0.0,0.0
1470141541086825392,0.0,-0.00170373144279,0.0,0.0,0.0,0.0
1470141541159750397,0.0,-0.00194675915593,0.0,0.0,0.0,0.00307063901711
1470141541234782864,0.0,-0.00158882613013,0.0,0.0,0.0,0.00822125256665
1470141541307876551,0.0,-0.00173551914001,0.0,0.0,0.0,0.00460402748137
1470141541381553698,0.0,-0.00327038570026,0.0,0.0,0.0,0.00437680702351
1470141541456139853,0.0,-0.00368692199419,0.0,0.0,0.0,0.00691481334383
1470141541530077887,0.0,-0.00380732078755,0.0,0.0,0.0,0.0
1470141541608635142,0.0,-0.00374465345124,0.0,0.0,0.0,0.00831299506276
1470141541686474008,0.0,-0.00453332275802,0.0,0.0,0.0,0.0
1470141541757725797,0.0,-0.00428448046277,0.0,0.0,0.0,0.0
1470141541833002144,0.0,-0.00405018779168,0.0,0.0,0.0,0.0
1470141541911101999,0.0,-0.00375650754849,0.0,0.0,0.0,0.0
1470141541986713994,0.0,-0.0030632632477,0.0,0.0,0.0,0.0
1470141542062458281,0.0,-0.00349321833531,0.0,0.0,0.0,0.0
1470141542137926591,0.0,-0.00337192238027,0.0,0.0,0.0,0.0
1470141542211901484,0.0,-0.00322599936927,0.0,0.0,0.0,0.0
1470141542287674457,0.0,-0.00244445447529,0.0,0.0,0.0,0.0
1470141542362519401,0.0,-0.00291462926844,0.0,0.0,0.0,0.0
1470141542438998221,0.0,-0.0030618856726,0.0,0.0,0.0,0.0
1470141542510764341,0.0,-0.00286845287958,0.0,0.0,0.0,0.0
1470141542582733004,0.0,-0.00223192193264,0.0,0.0,0.0,0.0
1470141542662880156,0.0,-0.00169482585693,0.0,0.0,0.0,0.0
1470141542738493423,0.0,-0.00189786012003,0.0,0.0,0.0,0.0
1470141542811790618,0.0,-0.00159063086564,0.0,0.0,0.0,0.0
1470141542891406154,0.0,-0.00156551967094,0.0,0.0,0.0,0.0
1470141542964724436,0.0,-0.00138394855613,0.0,0.0,0.0,0.0
1470141543039950915,0.0,-0.00135368325467,0.0,0.0,0.0,0.0
1470141543110639793,0.006,0.0,0.0,0.0,0.0,0.0
1470141543187658835,0.006,0.0,0.0,0.0,0.0,0.0
1470141543261831771,0.006,0.0,0.0,0.0,0.0,0.0
1470141543337999123,0.006,0.0,0.0,0.0,0.0,0.0
1470141543411470604,0.006,0.0,0.0,0.0,0.0,0.0
1470141543485998599,0.006,0.0,0.0,0.0,0.0,0.0
1470141543559007143,0.006,0.0,0.0,0.0,0.0,0.0
1470141543636109325,0.006,0.0,0.0,0.0,0.0,0.0
1470141543713248071,0.006,0.0,0.0,0.0,0.0,0.0
1470141543790296525,0.006,0.0,0.0,0.0,0.0,0.0
1470141543866785216,0.006,0.0,0.0,0.0,0.0,0.0
1470141543940788899,0.006,0.0,0.0,0.0,0.0,0.0
1470141544012480563,0.006,0.0,0.0,0.0,0.0,0.0
1470141544086445365,0.006,0.0,0.0,0.0,0.0,0.0
1470141544165431753,0.006,0.0,0.0,0.0,0.0,0.0
1470141544239403148,0.006,0.0,0.0,0.0,0.0,0.0
1470141544312532412,0.0,0.0,0.0,0.0,0.0,0.00472927594021
1470141544391068311,0.0,0.0,0.0,0.0,0.0,0.00881274356661
1470141544464868309,0.0,0.0,0.0,0.0,0.0,0.00545668145652
1470141544537782504,0.0,0.0,0.0,0.0,0.0,0.00412888926204
1470141544613950626,0.006,0.0,0.0,0.0,0.0,0.0
1470141544689238115,0.006,0.0,0.0,0.0,0.0,0.0
1470141544763724494,0.006,0.0,0.0,0.0,0.0,0.0
1470141544837167763,0.006,0.0,0.0,0.0,0.0,0.0
1470141544910628233,0.006,0.0,0.0,0.0,0.0,0.0
1470141544981886028,0.006,0.0,0.0,0.0,0.0,0.0
1470141545053705136,0.006,0.0,0.0,0.0,0.0,0.0
1470141545127813352,0.006,0.0,0.0,0.0,0.0,0.0
1470141545200547431,0.006,0.0,0.0,0.0,0.0,0.0
1470141545285003576,0.006,0.0,0.0,0.0,0.0,0.0
1470141545359127261,0.006,0.0,0.0,0.0,0.0,0.0
1470141545435834878,0.006,0.0,0.0,0.0,0.0,0.0
1470141545509978040,0.0,0.0,0.0,0.0,0.0,0.00871695350074
1470141545589167521,0.0,0.0,0.0,0.0,0.0,0.00398757721749
1470141545668303700,0.006,0.0,0.0,0.0,0.0,0.0
1470141545742251672,0.006,0.0,0.0,0.0,0.0,0.0
1470141545825187128,0.0,-0.00131365139688,0.0,0.0,0.0,0.0
1470141545905952460,0.0,-0.00148626508842,0.0,0.0,0.0,0.0
1470141545978509467,0.0,-0.00161514346207,0.0,0.0,0.0,0.0
1470141546050597724,0.0,-0.00163994493613,0.0,0.0,0.0,0.0
1470141546122240902,0.0,-0.00163624719436,0.0,0.0,0.0,0.0
1470141546197557230,0.0,-0.00155818384791,0.0,0.0,0.0,0.0035915546244
1470141546274861536,0.0,-0.00157184480408,0.0,0.0,0.0,0.0
1470141546354985267,0.0,-0.0015252908198,0.0,0.0,0.0,0.0
1470141546427533563,0.0,-0.00162435798625,0.0,0.0,0.0,0.0
1470141546512101362,0.0,-0.00163955718929,0.0,0.0,0.0,0.0
1470141546588330090,0.0,-0.00221972324604,0.0,0.0,0.0,0.0
1470141546663395822,0.0,-0.00211716557572,0.0,0.0,0.0,-0.00301066666151
1470141546735000122,0.0,-0.0015724509647,0.0,0.0,0.0,0.0
1470141546807107245,0.006,0.0,0.0,0.0,0.0,0.0
1470141546881970732,0.006,0.0,0.0,0.0,0.0,0.0
1470141546954459281,0.006,0.0,0.0,0.0,0.0,0.0
1470141547035240870,0.006,0.0,0.0,0.0,0.0,0.0
1470141547110222835,0.006,0.0,0.0,0.0,0.0,0.0
1470141547181850580,0.006,0.0,0.0,0.0,0.0,0.0
1470141547259395490,0.006,0.0,0.0,0.0,0.0,0.0
1470141547334194123,0.006,0.0,0.0,0.0,0.0,0.0
1470141547407498856,0.006,0.0,0.0,0.0,0.0,0.0
1470141547480089101,0.006,0.0,0.0,0.0,0.0,0.0
1470141547554852260,0.006,0.0,0.0,0.0,0.0,0.0
1470141547629529114,0.006,0.0,0.0,0.0,0.0,0.0
1470141547704092704,0.006,0.0,0.0,0.0,0.0,0.0
1470141547777375019,0.0,0.0,0.0,0.0,0.0,0.00357834476985
1470141547852309890,0.006,0.0,0.0,0.0,0.0,0.0
1470141547930376358,0.006,0.0,0.0,0.0,0.0,0.0
1470141548003296661,0.006,0.0,0.0,0.0,0.0,0.0
1470141548078784492,0.006,0.0,0.0,0.0,0.0,0.0
1470141548156581174,0.006,0.0,0.0,0.0,0.0,0.0
1470141548234328630,0.0,0.0,0.0,0.0,0.0,0.00394568631284
1470141548308943737,0.0,0.0,0.0,0.0,0.0,0.00547286026589
1470141548380747803,0.0,0.0,0.0,0.0,0.0,0.0034939997001
1470141548451934320,0.006,0.0,0.0,0.0,0.0,0.0
1470141548522659909,0.006,0.0,0.0,0.0,0.0,0.0
1470141548595620886,0.006,0.0,0.0,0.0,0.0,0.0
1470141548668229213,0.006,0.0,0.0,0.0,0.0,0.0
1470141548741254685,0.0,0.0,0.0,0.0,0.0,0.00280738195709
1470141548810060924,0.006,0.0,0.0,0.0,0.0,0.0
1470141548882649948,0.006,0.0,0.0,0.0,0.0,0.0
1470141548955319544,0.006,0.0,0.0,0.0,0.0,0.0
1470141549027037451,0.006,0.0,0.0,0.0,0.0,0.0
1470141549103852599,0.006,0.0,0.0,0.0,0.0,0.0
1470141549178165649,0.0,0.0,0.0,0.0,0.0,0.0029187290353
1470141549252762971,0.006,0.0,0.0,0.0,0.0,0.0
1470141549325759600,0.006,0.0,0.0,0.0,0.0,0.0
1470141549397845841,0.0,0.0,0.0,0.0,0.0,0.0028652101626
1470141549470785284,0.006,0.0,0.0,0.0,0.0,0.0
1470141549546596841,0.006,0.0,0.0,0.0,0.0,0.0
1470141549618296593,0.006,0.0,0.0,0.0,0.0,0.0
1470141549687985566,0.006,0.0,0.0,0.0,0.0,0.0
1470141549759716713,0.006,0.0,0.0,0.0,0.0,0.0
1470141549838741034,0.006,0.0,0.0,0.0,0.0,0.0
1470141549917193634,0.0,0.0,0.0,0.0,0.0,0.00364731951744
1470141549988481628,0.006,0.0,0.0,0.0,0.0,0.0
1470141550061970805,0.006,0.0,0.0,0.0,0.0,0.0
1470141550132905859,0.006,0.0,0.0,0.0,0.0,0.0
1470141550210467559,0.006,0.0,0.0,0.0,0.0,0.0
1470141550286565510,0.006,0.0,0.0,0.0,0.0,0.0
1470141550361130517,0.006,0.0,0.0,0.0,0.0,0.0
1470141550432145672,0.006,0.0,0.0,0.0,0.0,0.0
1470141550501811628,0.006,0.0,0.0,0.0,0.0,0.0
1470141550572482103,0.006,0.0,0.0,0.0,0.0,0.0
1470141550645536660,0.006,0.0,0.0,0.0,0.0,0.0
1470141550719636832,0.006,0.0,0.0,0.0,0.0,0.0
1470141550790340922,0.006,0.0,0.0,0.0,0.0,0.0
1470141550862198276,0.006,0.0,0.0,0.0,0.0,0.0
1470141550935942461,0.006,0.0,0.0,0.0,0.0,0.0
1470141551011459573,0.006,0.0,0.0,0.0,0.0,0.0
1470141551090193018,0.0,0.0,0.0,0.0,0.0,0.00293790540092
1470141551166520941,0.006,0.0,0.0,0.0,0.0,0.0
1470141551242581468,0.006,0.0,0.0,0.0,0.0,0.0
1470141551316946076,0.006,0.0,0.0,0.0,0.0,0.0
1470141551390522273,0.0,0.0,0.0,0.0,0.0,0.00281026897686
1470141551462809749,0.006,0.0,0.0,0.0,0.0,0.0
1470141551535912389,0.006,0.0,0.0,0.0,0.0,0.0
1470141551608692509,0.006,0.0,0.0,0.0,0.0,0.0
1470141551679367347,0.006,0.0,0.0,0.0,0.0,0.0
1470141551751249336,0.006,0.0,0.0,0.0,0.0,0.0
1470141551826367992,0.006,0.0,0.0,0.0,0.0,0.0
1470141551899405008,0.006,0.0,0.0,0.0,0.0,0.0
1470141551981605497,0.006,0.0,0.0,0.0,0.0,0.0
1470141552053850498,0.006,0.0,0.0,0.0,0.0,0.0
1470141552130031696,0.0,0.0,0.0,0.0,0.0,0.00309010698107
1470141552202940839,0.0,0.0,0.0,0.0,0.0,0.00337489360921
1470141552276861302,0.006,0.0,0.0,0.0,0.0,0.0
1470141552352962543,0.006,0.0,0.0,0.0,0.0,0.0
1470141552426824309,0.006,0.0,0.0,0.0,0.0,0.0
1470141552503104979,0.006,0.0,0.0,0.0,0.0,0.0
1470141552577965555,0.006,0.0,0.0,0.0,0.0,0.0
1470141552651851064,0.006,0.0,0.0,0.0,0.0,0.0
1470141552727298708,0.006,0.0,0.0,0.0,0.0,0.0
1470141552800416595,0.006,0.0,0.0,0.0,0.0,0.0
1470141552877688421,0.006,0.0,0.0,0.0,0.0,0.0
1470141552952091223,0.0,0.0,0.0,0.0,0.0,0.00297708857628
1470141553029778287,0.006,0.0,0.0,0.0,0.0,0.0
1470141553105631154,0.006,0.0,0.0,0.0,0.0,0.0
1470141553182345882,0.0,0.0,0.0,0.0,0.0,0.00307393462773
1470141553260074470,0.006,0.0,0.0,0.0,0.0,0.0
1470141553346074307,0.006,0.0,0.0,0.0,0.0,0.0
1470141553421376183,0.006,0.0,0.0,0.0,0.0,0.0
1470141553492714164,0.0,0.0,0.0,0.0,0.0,0.00326656638692
1470141553567795770,0.006,0.0,0.0,0.0,0.0,0.0
1470141553649500372,0.006,0.0,0.0,0.0,0.0,0.0
1470141553724760410,0.006,0.0,0.0,0.0,0.0,0.0
1470141553798799251,0.006,0.0,0.0,0.0,0.0,0.0
1470141553870617597,0.006,0.0,0.0,0.0,0.0,0.0
1470141553944042537,0.0,0.0,0.0,0.0,0.0,0.00307244880098
1470141554016404826,0.006,0.0,0.0,0.0,0.0,0.0
1470141554088346838,0.006,0.0,0.0,0.0,0.0,0.0
1470141554161014586,0.006,0.0,0.0,0.0,0.0,0.0
1470141554232650380,0.0,0.0,0.0,0.0,0.0,0.00400274526562
1470141554305562481,0.006,0.0,0.0,0.0,0.0,0.0
1470141554379575063,0.006,0.0,0.0,0.0,0.0,0.0
1470141554453305396,0.006,0.0,0.0,0.0,0.0,0.0
1470141554530620352,0.0,0.0,0.0,0.0,0.0,0.00313963453054
1470141554606993636,0.0,0.0,0.0,0.0,0.0,0.00300326994758
1470141554678204784,0.006,0.0,0.0,0.0,0.0,0.0
1470141554750577893,0.006,0.0,0.0,0.0,0.0,0.0
1470141554828388514,0.0,0.0,0.0,0.0,0.0,0.00373370672013
1470141554906369064,0.0,0.0,0.0,0.0,0.0,0.00319992454958
1470141554978234578,0.006,0.0,0.0,0.0,0.0,0.0
1470141555052209313,0.006,0.0,0.0,0.0,0.0,0.0
1470141555129108937,0.0,0.0,0.0,0.0,0.0,0.0028376907602
1470141555203750060,0.0,0.0,0.0,0.0,0.0,0.00325974960162
1470141555276456242,0.006,0.0,0.0,0.0,0.0,0.0
1470141555348323132,0.006,0.0,0.0,0.0,0.0,0.0
1470141555419756979,0.006,0.0,0.0,0.0,0.0,0.0
1470141555492574955,0.006,0.0,0.0,0.0,0.0,0.0
1470141555566195699,0.006,0.0,0.0,0.0,0.0,0.0
1470141555636402787,0.006,0.0,0.0,0.0,0.0,0.0
1470141555708642244,0.006,0.0,0.0,0.0,0.0,0.0
1470141555782162024,0.006,0.0,0.0,0.0,0.0,0.0
1470141555852819669,0.0,0.0,0.0,0.0,0.0,0.00372218263228
1470141555924431373,0.0,0.0,0.0,0.0,0.0,0.00288180539031
1470141555996524043,0.006,0.0,0.0,0.0,0.0,0.0
1470141556069210521,0.006,0.0,0.0,0.0,0.0,0.0
1470141556141365877,0.006,0.0,0.0,0.0,0.0,0.0
1470141556212950838,0.006,0.0,0.0,0.0,0.0,0.0
1470141556289878661,0.006,0.0,0.0,0.0,0.0,0.0
1470141556367231577,0.006,0.0,0.0,0.0,0.0,0.0
1470141556441619665,0.006,0.0,0.0,0.0,0.0,0.0
1470141556513441920,0.006,0.0,0.0,0.0,0.0,0.0
1470141556587433327,0.0,0.0,0.0,0.0,0.0,0.00369008964302
1470141556657531929,0.0,0.0,0.0,0.0,0.0,0.0029303610187
1470141556731195107,0.006,0.0,0.0,0.0,0.0,0.0
1470141556803714341,0.006,0.0,0.0,0.0,0.0,0.0
1470141556874981326,0.006,0.0,0.0,0.0,0.0,0.0
1470141556947274999,0.0,0.0,0.0,0.0,0.0,0.0037863781043
1470141557018662434,0.006,0.0,0.0,0.0,0.0,0.0
1470141557092839991,0.006,0.0,0.0,0.0,0.0,0.0
1470141557165216602,0.006,0.0,0.0,0.0,0.0,0.0
1470141557237433613,0.006,0.0,0.0,0.0,0.0,0.0
1470141557308292350,0.006,0.0,0.0,0.0,0.0,0.0
1470141557380244525,0.006,0.0,0.0,0.0,0.0,0.0
1470141557449289521,0.006,0.0,0.0,0.0,0.0,0.0
1470141557520993934,0.0,0.0,0.0,0.0,0.0,0.00329104045942
1470141557593193123,0.0,0.0,0.0,0.0,0.0,0.00427128754451
1470141557669732706,0.006,0.0,0.0,0.0,0.0,0.0
1470141557740519248,0.006,0.0,0.0,0.0,0.0,0.0
1470141557809871879,0.006,0.0,0.0,0.0,0.0,0.0
1470141557882294460,0.0,0.0,0.0,0.0,0.0,0.00296008363723
1470141557953926979,0.0,0.0,0.0,0.0,0.0,0.00400841387935
1470141558030444478,0.0,0.0,0.0,0.0,0.0,0.00390586938527
1470141558104858362,0.006,0.0,0.0,0.0,0.0,0.0
1470141558177822451,0.006,0.0,0.0,0.0,0.0,0.0
1470141558251893232,0.006,0.0,0.0,0.0,0.0,0.0
1470141558326002612,0.0,0.0,0.0,0.0,0.0,0.00390868392085
1470141558411204576,0.006,0.0,0.0,0.0,0.0,0.0
1470141558487010850,0.006,0.0,0.0,0.0,0.0,0.0
1470141558559283564,0.006,0.0,0.0,0.0,0.0,0.0
1470141558637487125,0.006,0.0,0.0,0.0,0.0,0.0
1470141558710347121,0.006,0.0,0.0,0.0,0.0,0.0
1470141558784108534,0.0,0.0,0.0,0.0,0.0,0.00370099746525
1470141558861273729,0.0,0.0,0.0,0.0,0.0,0.00421959984576
1470141558933919185,0.0,0.0,0.0,0.0,0.0,0.00498972606316
1470141559007232553,0.0,0.0,0.0,0.0,0.0,0.00334632910118
1470141559081595049,0.0,0.0,0.0,0.0,0.0,0.00310744628683
1470141559152658433,0.0,0.00613915904706,0.0,0.0,0.0,0.004137403764
1470141559224527067,0.0,0.00146773767939,0.0,0.0,0.0,0.00316172376763
1470141559296782942,0.0,0.00138691120131,0.0,0.0,0.0,0.0040578576113
1470141559366372448,0.0,0.00137720426826,0.0,0.0,0.0,0.00336963293758
1470141559440841284,0.0,0.00136714648736,0.0,0.0,0.0,0.00422376521374
1470141559516180329,0.0,0.00146010098329,0.0,0.0,0.0,0.00305431462718
1470141559591369720,0.0,0.00152519670596,0.0,0.0,0.0,0.0
1470141559668533549,0.0,0.00152272130644,0.0,0.0,0.0,0.0
1470141559748850565,0.0,0.0014425568497,0.0,0.0,0.0,0.00314373980035
1470141559826451582,0.0,0.00147740324309,0.0,0.0,0.0,0.003144161422
1470141559899388016,0.0,0.00142595842762,0.0,0.0,0.0,0.0
1470141559971365311,0.0,0.00134492093047,0.0,0.0,0.0,0.00367936018796
1470141560044832309,0.0,0.00132843469551,0.0,0.0,0.0,0.00532633253778
1470141560116491861,0.0,0.00126526594443,0.0,0.0,0.0,0.00430485882364
1470141560188227012,0.0,0.0,0.0,0.0,0.0,0.00355561798372
1470141560258471168,0.0,0.0,0.0,0.0,0.0,0.00348510770322
1470141560330264187,0.0,0.0,0.0,0.0,0.0,0.00352996370283
1470141560402737516,0.0,0.0,0.0,0.0,0.0,0.00330459011885
1470141560476872904,0.0,0.00133451795487,0.0,0.0,0.0,0.00337864726794
1470141560554111749,0.0,0.001445172227,0.0,0.0,0.0,0.00367417131056
1470141560630779950,0.0,0.00136800443103,0.0,0.0,0.0,0.00342268266156
1470141560703429945,0.0,0.00139554850107,0.0,0.0,0.0,0.00333520035809
1470141560777343747,0.0,0.00138707057854,0.0,0.0,0.0,0.00282517509842
1470141560849277748,0.0,0.00135210089667,0.0,0.0,0.0,0.00328641292042
1470141560923248800,0.0,0.00140628706945,0.0,0.0,0.0,0.00337324532692
1470141560998704897,0.0,0.00156262466965,0.0,0.0,0.0,0.0
1470141561073873729,0.0,0.00147513213848,0.0,0.0,0.0,0.0
1470141561147965258,0.0,0.00153945841176,0.0,0.0,0.0,0.0
1470141561224132531,0.0,0.00145701591207,0.0,0.0,0.0,0.00290976403935
1470141561302480564,0.0,0.00147276385968,0.0,0.0,0.0,0.0
1470141561376073556,0.0,0.00145201057477,0.0,0.0,0.0,0.0
1470141561451535893,0.0,0.00132650899982,0.0,0.0,0.0,0.00288643188341
1470141561524117921,0.0,0.00124670562615,0.0,0.0,0.0,0.00342372483564
1470141561605991400,0.0,0.00130272914005,0.0,0.0,0.0,0.0
1470141561674833334,0.0,0.00133003075888,0.0,0.0,0.0,0.0
1470141561743343788,0.0,0.00132230138687,0.0,0.0,0.0,0.0
1470141561814693678,0.0,0.0014915317977,0.0,0.0,0.0,0.0
1470141561888427517,0.0,0.0015066554798,0.0,0.0,0.0,0.0
1470141561967245975,0.0,0.0015109110186,0.0,0.0,0.0,0.0
1470141562046309726,0.0,0.00145730793757,0.0,0.0,0.0,0.00317603583524
1470141562118536689,0.0,0.00146387524253,0.0,0.0,0.0,0.0
1470141562192681638,0.0,0.00148318588083,0.0,0.0,0.0,0.0
1470141562268887215,0.0,0.00149660541026,0.0,0.0,0.0,0.0
1470141562343869262,0.0,0.00146073887406,0.0,0.0,0.0,0.0
1470141562419422626,0.0,0.00145398377722,0.0,0.0,0.0,0.00362554268539
1470141562492479060,0.0,0.00150218970423,0.0,0.0,0.0,0.00364618579499
1470141562568798254,0.0,0.00151941387264,0.0,0.0,0.0,0.00360424413108
1470141562642542653,0.0,0.00150244985988,0.0,0.0,0.0,0.00428967831064
1470141562714996116,0.0,0.00153266051134,0.0,0.0,0.0,0.00519082904871
1470141562802535475,0.0,0.00151702849475,0.0,0.0,0.0,0.004114096101
1470141562875418341,0.0,0.00152279227322,0.0,0.0,0.0,0.00528294261965
1470141562948155666,0.0,0.00153775475269,0.0,0.0,0.0,0.00542834459057
1470141563023498192,0.0,0.00153700654676,0.0,0.0,0.0,0.00479006142685
1470141563099540297,0.0,0.00152163773125,0.0,0.0,0.0,0.00615958286875
1470141563174994361,0.0,0.0015020570839,0.0,0.0,0.0,0.00558264222761
1470141563248854375,0.0,0.00153506806401,0.0,0.0,0.0,0.00636592205667
1470141563319644348,0.0,0.00153053756153,0.0,0.0,0.0,0.00491706752894
1470141563391920254,0.0,0.00146737348569,0.0,0.0,0.0,0.00536750643142
1470141563465163706,0.0,0.0015091076987,0.0,0.0,0.0,0.00526132232539
1470141563539573260,0.0,0.00150313233306,0.0,0.0,0.0,0.00514956558922
1470141563616912392,0.0,0.0015109035494,0.0,0.0,0.0,0.00506745742025
1470141563690162530,0.0,0.00149640953449,0.0,0.0,0.0,0.00465561521385
1470141563769012819,0.0,0.00148810820004,0.0,0.0,0.0,0.00513164357186
1470141563847228308,0.0,0.0014644426508,0.0,0.0,0.0,0.00476074349052
1470141563919551544,0.0,0.00147902929505,0.0,0.0,0.0,0.00454991841517
1470141564006918089,0.0,0.00147116391269,0.0,0.0,0.0,0.00434628108897
1470141564078606664,0.0,0.00146337884759,0.0,0.0,0.0,0.00395128600407
1470141564155213538,0.0,0.00139814921004,0.0,0.0,0.0,0.00424933184633
1470141564227556472,0.0,0.0014184474135,0.0,0.0,0.0,0.00426473672173
1470141564299682602,0.0,0.00139760186245,0.0,0.0,0.0,0.00368564799363
1470141564375052262,0.0,0.0014173822785,0.0,0.0,0.0,0.00341768105019
1470141564447258807,0.0,0.00137442421449,0.0,0.0,0.0,0.0031518511312
1470141564519193788,0.0,0.00136557976065,0.0,0.0,0.0,0.00436195194367
1470141564593993674,0.0,0.00140466964153,0.0,0.0,0.0,0.00351574937912
1470141564672255511,0.0,0.00131486478543,0.0,0.0,0.0,0.00560032146948
1470141564746950245,0.0,0.00139675621224,0.0,0.0,0.0,0.0041804661815
1470141564819704863,0.0,0.00135874419754,0.0,0.0,0.0,0.00510564206839
1470141564893722143,0.0,0.00130802777877,0.0,0.0,0.0,0.0051155361841
1470141564972019148,0.0,0.00139621253406,0.0,0.0,0.0,0.00495436685688
1470141565043208424,0.0,0.00131205533912,0.0,0.0,0.0,0.00477589612694
1470141565116771267,0.0,0.00133826765513,0.0,0.0,0.0,0.00606614450206
1470141565190014505,0.0,0.00134570703191,0.0,0.0,0.0,0.00511677076552
1470141565268601187,0.0,0.00133941282799,0.0,0.0,0.0,0.00542406961223
1470141565341382581,0.0,0.00131544238237,0.0,0.0,0.0,0.00497356591793
1470141565416643525,0.0,0.00134098030908,0.0,0.0,0.0,0.00535405813766
1470141565491528275,0.0,0.00137891676558,0.0,0.0,0.0,0.0042695271969
1470141565569173860,0.0,0.00136697579456,0.0,0.0,0.0,0.00482180233577
1470141565642875690,0.0,0.00131215513965,0.0,0.0,0.0,0.00545124634177
1470141565716601000,0.0,0.00132591636201,0.0,0.0,0.0,0.00527430628365
1470141565790474182,0.0,0.00133931993788,0.0,0.0,0.0,0.00490139705142
1470141565863468454,0.0,0.00136825166924,0.0,0.0,0.0,0.00466045522667
1470141565938023593,0.0,0.00128435305601,0.0,0.0,0.0,0.0051340519184
1470141566009026072,0.0,0.00133932602873,0.0,0.0,0.0,0.00416529750491
1470141566080547978,0.0,0.0,0.0,0.0,0.0,0.00461959441238
1470141566156066892,0.0,0.0,0.0,0.0,0.0,0.00387541343009
1470141566236569261,0.0,0.00131337532123,0.0,0.0,0.0,0.00405699725093
1470141566311143193,0.0,0.0,0.0,0.0,0.0,0.00395293854377
1470141566386721385,0.0,0.0,0.0,0.0,0.0,0.00335259535832
1470141566464276892,0.0,0.0,0.0,0.0,0.0,0.00327808610003
1470141566536716111,0.0,0.0,0.0,0.0,0.0,0.00372948626926
1470141566606666278,0.0,0.0,0.0,0.0,0.0,0.00326144340792
1470141566675045389,0.0,0.0,0.0,0.0,0.0,0.00332585877007
1470141566748653096,0.0,0.0,0.0,0.0,0.0,0.00351384375011
1470141566820679994,0.0,0.0,0.0,0.0,0.0,0.00328431602272
1470141566893405373,0.0,0.0,0.0,0.0,0.0,0.00286803019192
1470141566967396795,0.0,0.0,0.0,0.0,0.0,0.0036299344002
1470141567040652007,0.0,0.0,0.0,0.0,0.0,0.00336954563193
1470141567112262177,0.0,0.0,0.0,0.0,0.0,0.0040747561075
1470141567187030152,0.0,0.0,0.0,0.0,0.0,0.00286445720918
1470141567256902393,0.0,0.0,0.0,0.0,0.0,0.00284985732414
1470141567327269963,0.0,0.0,0.0,0.0,0.0,0.0032596369479
1470141567400290418,0.0,0.0,0.0,0.0,0.0,0.00346177061023
1470141567471715727,0.0,0.0,0.0,0.0,0.0,0.00367696013838
1470141567542330813,0.0,0.0,0.0,0.0,0.0,0.00577913611671
1470141567613322400,0.0,0.0,0.0,0.0,0.0,0.00399818652177
1470141567687353472,0.0,0.0,0.0,0.0,0.0,0.00402260130922
1470141567762611978,0.0,0.0,0.0,0.0,0.0,0.00402900916046
1470141567836945221,0.0,0.0,0.0,0.0,0.0,0.00288017378835
1470141567910330234,0.0,0.0,0.0,0.0,0.0,0.00279669261855
1470141567986986185,0.006,0.0,0.0,0.0,0.0,0.0
1470141568058775060,0.006,0.0,0.0,0.0,0.0,0.0
1470141568132284349,0.006,0.0,0.0,0.0,0.0,0.0
1470141568203404076,0.006,0.0,0.0,0.0,0.0,0.0
1470141568275125747,0.006,0.0,0.0,0.0,0.0,0.0
1470141568349781672,0.006,0.0,0.0,0.0,0.0,0.0
1470141568427191707,0.0,0.0,0.0,0.0,0.0,0.00357110825869
1470141568500303003,0.0,0.0,0.0,0.0,0.0,0.00449053001668
1470141568577030997,0.0,0.0,0.0,0.0,0.0,0.00436981641068
1470141568648576072,0.006,0.0,0.0,0.0,0.0,0.0
1470141568722654926,0.0,0.0,0.0,0.0,0.0,0.00355544801256
1470141568805038232,0.006,0.0,0.0,0.0,0.0,0.0
1470141568878904326,0.0,0.0,0.0,0.0,0.0,0.00309629685894
1470141568956580379,0.006,0.0,0.0,0.0,0.0,0.0
1470141569030142636,0.0,0.0,0.0,0.0,0.0,0.00283402844006
1470141569107099439,0.0,0.0,0.0,0.0,0.0,0.00365643254022
1470141569183386168,0.0,0.0,0.0,0.0,0.0,0.00309036748649
1470141569257207882,0.006,0.0,0.0,0.0,0.0,0.0
1470141569330373820,0.006,0.0,0.0,0.0,0.0,0.0
1470141569401880693,0.006,0.0,0.0,0.0,0.0,0.0
1470141569474492695,0.006,0.0,0.0,0.0,0.0,0.0
