%time,field.linear.x,field.linear.y,field.linear.z,field.angular.x,field.angular.y,field.angular.z
1470133505058169962,0.15,-0.324243887134,0.0,0.0,0.0,0.0444696181489
1470133505145698275,0.15,-0.316234372797,0.0,0.0,0.0,0.0443307831284
1470133505227770701,0.15,-0.316909979525,0.0,0.0,0.0,0.0445538826451
1470133505308831859,0.15,-0.316233901921,0.0,0.0,0.0,0.0443307831284
1470133505389469514,0.15,-0.316586769763,0.0,0.0,0.0,0.044469037577
1470133505469919892,0.15,-0.317212214413,0.0,0.0,0.0,0.044583034522
1470133505548172094,0.15,-0.316543695274,0.0,0.0,0.0,0.0443859954055
1470133505622889269,0.15,-0.316882060113,0.0,0.0,0.0,0.0444696181489
1470133505702812064,0.15,-0.321452280226,0.0,0.0,0.0,0.0224327594425
1470133505775420340,0.15,-0.306884319129,0.0,0.0,0.0,0.0293297006373
1470133505854630885,0.15,-0.302529964986,0.0,0.0,0.0,0.0228032329497
1470133505934948605,0.15,-0.273064042869,0.0,0.0,0.0,0.0358772188892
1470133506008176240,0.15,-0.255587352458,0.0,0.0,0.0,0.0274102081058
1470133506085627589,0.15,-0.240713372174,0.0,0.0,0.0,0.0216888526179
1470133506162668840,0.15,-0.22733880097,0.0,0.0,0.0,0.0234038345682
1470133506234105986,0.15,-0.208326345029,0.0,0.0,0.0,0.0245692098934
1470133506310786048,0.15,-0.193127665463,0.0,0.0,0.0,0.026371489152
1470133506385634626,0.15,-0.175476702693,0.0,0.0,0.0,0.0371019825678
1470133506461474158,0.15,-0.153400397244,0.0,0.0,0.0,0.0254948891054
1470133506534493621,0.15,-0.136548283341,0.0,0.0,0.0,0.0312023952984
1470133506606982614,0.15,-0.122486947718,0.0,0.0,0.0,0.0325102710667
1470133506684811563,0.15,-0.108358988705,0.0,0.0,0.0,0.0286205703777
1470133506760223650,0.15,-0.0853669934897,0.0,0.0,0.0,0.0278024409838
1470133506834365700,0.15,-0.0745235576658,0.0,0.0,0.0,0.0291221369279
1470133506911734394,0.15,-0.0647354313164,0.0,0.0,0.0,0.0326324904635
1470133506988578199,0.15,-0.0538025099962,0.0,0.0,0.0,0.028812954234
1470133507059907873,0.15,-0.0368749920456,0.0,0.0,0.0,0.0272475043263
1470133507132338281,0.15,-0.0273292844175,0.0,0.0,0.0,0.0198555850644
1470133507209580969,0.15,-0.0207441246687,0.0,0.0,0.0,0.0281497685259
1470133507286639986,0.15,-0.0142313201903,0.0,0.0,0.0,0.0342885316928
1470133507362891345,0.15,-0.00516565365631,0.0,0.0,0.0,0.00845023952123
1470133507433907413,0.15,0.0,0.0,0.0,0.0,0.0128491858375
1470133507513662669,0.15,0.00277699615892,0.0,0.0,0.0,0.0198000876232
1470133507590537121,0.15,0.00652782598596,0.0,0.0,0.0,0.0444491204174
1470133507661630641,0.15,0.0102008383054,0.0,0.0,0.0,0.0119104186529
1470133507732379176,0.15,0.0115720163574,0.0,0.0,0.0,0.0295667236243
1470133507805969533,0.15,0.0137914478881,0.0,0.0,0.0,0.0129195988704
1470133507875932866,0.15,0.0137753221587,0.0,0.0,0.0,0.0233141337715
1470133507956529623,0.15,0.0149421233692,0.0,0.0,0.0,0.0269166012391
1470133508033801975,0.15,0.0137576117375,0.0,0.0,0.0,0.0149950053605
1470133508114715198,0.15,0.0132798373428,0.0,0.0,0.0,0.0301700136799
1470133508192070552,0.15,0.0121081260973,0.0,0.0,0.0,0.0140946745882
1470133508267803799,0.15,0.011195315822,0.0,0.0,0.0,0.0114096542497
1470133508342636335,0.15,0.00963323162023,0.0,0.0,0.0,0.0174348471053
1470133508420603049,0.15,0.00814399266003,0.0,0.0,0.0,0.022650833156
1470133508500841308,0.15,0.00552200545817,0.0,0.0,0.0,0.0207306897349
1470133508576457206,0.15,0.00344322837044,0.0,0.0,0.0,0.0349903433199
1470133508655593362,0.15,0.0017033731946,0.0,0.0,0.0,0.0261689519913
1470133508730444974,0.15,0.0,0.0,0.0,0.0,0.0161570123745
1470133508807347851,0.15,-0.00406104276802,0.0,0.0,0.0,0.00406621773035
1470133508883984463,0.15,-0.00680508205581,0.0,0.0,0.0,0.0117252213055
1470133508960457719,0.15,-0.00847983507354,0.0,0.0,0.0,0.0141540770853
1470133509033278047,0.15,-0.0115640382646,0.0,0.0,0.0,0.0
1470133509109150331,0.15,-0.0139563709675,0.0,0.0,0.0,0.0369928548822
1470133509183799795,0.15,-0.0152777174293,0.0,0.0,0.0,0.0182603297573
1470133509256427549,0.15,-0.0178927894487,0.0,0.0,0.0,0.0236542162963
1470133509330013673,0.15,-0.019493797253,0.0,0.0,0.0,0.01495555632
1470133509403576683,0.15,-0.0205677952795,0.0,0.0,0.0,0.041735749203
1470133509479402474,0.15,-0.0232217250942,0.0,0.0,0.0,0.0351264034861
1470133509554720971,0.15,-0.0243972250252,0.0,0.0,0.0,0.0225009381866
1470133509627900834,0.15,-0.0257517655371,0.0,0.0,0.0,0.00810204317552
1470133509699935445,0.15,-0.0257850481002,0.0,0.0,0.0,0.0199009544523
1470133509770785948,0.15,-0.0260783975749,0.0,0.0,0.0,0.0101603509511
1470133509842265717,0.15,-0.0266028794079,0.0,0.0,0.0,0.0226541847727
1470133509915038373,0.15,-0.0268344437509,0.0,0.0,0.0,0.0305913806448
1470133509987848555,0.15,-0.0266257006108,0.0,0.0,0.0,0.0181838941918
1470133510063572136,0.15,-0.0269547777056,0.0,0.0,0.0,0.0218293019463
1470133510139827370,0.15,-0.0278807426422,0.0,0.0,0.0,0.0228192392658
1470133510215908453,0.15,-0.0277649592786,0.0,0.0,0.0,0.0101802683128
1470133510288752277,0.15,-0.0288190286784,0.0,0.0,0.0,0.0305477512228
1470133510360768301,0.15,-0.0283921582429,0.0,0.0,0.0,0.0187644661825
1470133510437929248,0.15,-0.0279593060343,0.0,0.0,0.0,0.014151611455
1470133510515776926,0.15,-0.0277297604262,0.0,0.0,0.0,0.0107526494276
1470133510589967613,0.15,-0.026800093147,0.0,0.0,0.0,0.0111733114587
1470133510662190326,0.15,-0.0266892582356,0.0,0.0,0.0,0.0237202541401
1470133510733354313,0.15,-0.02611810984,0.0,0.0,0.0,-0.00533099125568
1470133510807852655,0.15,-0.025866416636,0.0,0.0,0.0,0.00676111375295
1470133510884135391,0.15,-0.0250157597839,0.0,0.0,0.0,0.00638734787363
1470133510962877825,0.15,-0.0248973003208,0.0,0.0,0.0,0.0211696282701
1470133511039854770,0.15,-0.0243897549986,0.0,0.0,0.0,0.00800984942488
1470133511115820647,0.15,-0.024016690868,0.0,0.0,0.0,0.0109627528174
1470133511190775357,0.15,-0.0233284926592,0.0,0.0,0.0,0.0198978839542
1470133511269273822,0.15,-0.0217849742799,0.0,0.0,0.0,0.0200914203818
1470133511347889609,0.15,-0.0209737818121,0.0,0.0,0.0,0.0126786103712
1470133511425343659,0.15,-0.0195811443954,0.0,0.0,0.0,0.00574237861237
1470133511498347479,0.15,-0.0181824215679,0.0,0.0,0.0,0.00555504401914
1470133511574602900,0.15,-0.0172545635878,0.0,0.0,0.0,0.00808936569504
1470133511654094508,0.15,-0.0161431892021,0.0,0.0,0.0,0.0114765316741
1470133511728631709,0.15,-0.014348430167,0.0,0.0,0.0,0.0049865021475
1470133511803684126,0.15,-0.0133430093332,0.0,0.0,0.0,0.0
1470133511880748385,0.15,-0.0125664239182,0.0,0.0,0.0,0.00281144137495
1470133511958612589,0.15,-0.0116303813263,0.0,0.0,0.0,0.0123512885465
1470133512032749924,0.15,-0.0104392761915,0.0,0.0,0.0,0.00575807794407
1470133512109295656,0.15,-0.00965689090926,0.0,0.0,0.0,0.0139680651228
1470133512183868191,0.15,-0.00876511743206,0.0,0.0,0.0,0.00824789563005
1470133512257698223,0.15,-0.00754527380604,0.0,0.0,0.0,0.0167468286095
1470133512331071557,0.15,-0.00668947296131,0.0,0.0,0.0,0.00482047478617
1470133512412891173,0.15,-0.00584495829333,0.0,0.0,0.0,0.00961713446764
1470133512486639007,0.15,-0.00497287703592,0.0,0.0,0.0,0.0188429733465
1470133512558438565,0.0,-0.00362416384656,0.0,0.0,0.0,0.0152853199619
1470133512634358216,0.0,-0.00314478134651,0.0,0.0,0.0,0.00417830830918
1470133512708311657,0.0,-0.00256254557434,0.0,0.0,0.0,0.00857504647067
1470133512784207035,0.0,-0.00194259852085,0.0,0.0,0.0,0.0119630174591
1470133512867298679,0.0,0.0,0.0,0.0,0.0,0.0155620467824
1470133512948579866,0.0,0.0,0.0,0.0,0.0,0.0162230368756
1470133513023162279,0.0,0.0,0.0,0.0,0.0,0.0212815513119
1470133513095389713,0.0,0.0,0.0,0.0,0.0,0.0112708645058
1470133513170737458,0.0,0.0,0.0,0.0,0.0,0.0153164299779
1470133513248625044,0.0,0.0,0.0,0.0,0.0,0.00897622672187
1470133513326573489,0.0,0.0,0.0,0.0,0.0,0.0114152639209
1470133513401600598,0.0,0.0,0.0,0.0,0.0,0.00854700296851
1470133513479360512,0.0,0.0,0.0,0.0,0.0,0.010452523164
1470133513554370921,0.0,-0.00186315817673,0.0,0.0,0.0,0.00791238472286
1470133513627482507,0.0,-0.00287141119976,0.0,0.0,0.0,0.00743359149076
1470133513704633919,0.0,-0.00355058733288,0.0,0.0,0.0,0.0055304359266
1470133513780879755,0.0,-0.00428639316846,0.0,0.0,0.0,0.00688330024033
1470133513852996484,0.0,-0.0050837968095,0.0,0.0,0.0,0.00684841691042
1470133513926589258,0.0,-0.00559001309711,0.0,0.0,0.0,0.00613392238392
1470133514003859898,0.0,-0.00599749436516,0.0,0.0,0.0,0.00508548857195
1470133514078498629,0.0,-0.00640976568598,0.0,0.0,0.0,0.00569356239331
1470133514158701075,0.0,-0.00698941124517,0.0,0.0,0.0,0.0045749552205
1470133514237991977,0.0,-0.0073445037185,0.0,0.0,0.0,0.00450601064171
1470133514316555125,0.0,-0.00769508493978,0.0,0.0,0.0,0.00473868236484
1470133514399142105,0.0,-0.0078651147886,0.0,0.0,0.0,0.00449803401793
1470133514476340912,0.0,-0.00799671599556,0.0,0.0,0.0,0.00362065166245
1470133514555767659,0.0,-0.00808532418597,0.0,0.0,0.0,0.00512510367734
1470133514628501620,0.0,-0.00861136561174,0.0,0.0,0.0,0.00321917053861
1470133514704004608,0.0,-0.00907329032112,0.0,0.0,0.0,0.0039516707481
1470133514781235521,0.0,-0.0090394927739,0.0,0.0,0.0,0.00471429292387
1470133514856317794,0.0,-0.00889713661659,0.0,0.0,0.0,0.00459642052503
1470133514928092383,0.0,-0.00878260927189,0.0,0.0,0.0,0.0
1470133515000275785,0.0,-0.00859281303275,0.0,0.0,0.0,0.003937526165
1470133515072650158,0.0,-0.00841078253377,0.0,0.0,0.0,0.0
1470133515146558991,0.0,-0.00807866999794,0.0,0.0,0.0,0.00471809883325
1470133515220940274,0.0,-0.00781629258681,0.0,0.0,0.0,0.00379695212516
1470133515296600574,0.0,-0.00758737524886,0.0,0.0,0.0,0.00317223527725
1470133515378916494,0.0,-0.00725590942342,0.0,0.0,0.0,0.00407185216581
1470133515455348778,0.0,-0.00694996295411,0.0,0.0,0.0,0.00379329811235
1470133515529024696,0.0,-0.00668641945261,0.0,0.0,0.0,0.0
1470133515602382574,0.0,-0.00619158970106,0.0,0.0,0.0,0.00298007544864
1470133515677373449,0.0,-0.00584695545871,0.0,0.0,0.0,0.0
1470133515750827957,0.0,-0.00547294074584,0.0,0.0,0.0,0.00608690743194
1470133515830355623,0.0,-0.0049308919898,0.0,0.0,0.0,0.0
1470133515903086268,0.0,-0.00462895838458,0.0,0.0,0.0,0.00424623796519
1470133515980137851,0.0,-0.00430295718748,0.0,0.0,0.0,0.00407204245087
1470133516059648355,0.0,-0.00395793678153,0.0,0.0,0.0,0.0034042203731
1470133516139830735,0.0,-0.0035724768034,0.0,0.0,0.0,0.0
1470133516214115623,0.0,-0.00330815547991,0.0,0.0,0.0,0.0035649052498
1470133516286186883,0.0,-0.00302100313742,0.0,0.0,0.0,0.00383920877299
1470133516358601405,0.0,-0.0026188728391,0.0,0.0,0.0,0.00363754579155
1470133516433243747,0.0,-0.00240050196562,0.0,0.0,0.0,0.00318915122957
1470133516509710751,0.0,-0.0021395350239,0.0,0.0,0.0,0.00290353002077
1470133516582897504,0.0,-0.0018819447412,0.0,0.0,0.0,0.00281812959279
1470133516657580640,0.0,0.0,0.0,0.0,0.0,0.00443780187222
1470133516730730894,0.0,0.0,0.0,0.0,0.0,0.00282369583157
1470133516802676761,0.0,0.0,0.0,0.0,0.0,0.00431327793428
1470133516874900356,0.0,0.0,0.0,0.0,0.0,0.00362804441592
1470133516946427280,0.0,0.0,0.0,0.0,0.0,0.00513043739046
1470133517018635043,0.0,0.0,0.0,0.0,0.0,0.00394455835553
1470133517091080891,0.0,0.0,0.0,0.0,0.0,0.00391251993793
1470133517163580389,0.0,0.0,0.0,0.0,0.0,0.00293651760713
1470133517234418329,0.0,0.0,0.0,0.0,0.0,0.00321507689453
1470133517313340726,0.006,0.0,0.0,0.0,0.0,0.0
1470133517391004349,0.0,0.0,0.0,0.0,0.0,0.00310962537229
1470133517464129216,0.0,0.0,0.0,0.0,0.0,0.00370749779498
1470133517549237042,0.0,0.0,0.0,0.0,0.0,0.00281584104498
1470133517627828379,0.006,0.0,0.0,0.0,0.0,0.0
1470133517701453250,0.006,0.0,0.0,0.0,0.0,0.0
1470133517773901891,0.006,0.0,0.0,0.0,0.0,0.0
1470133517849810553,0.0,0.0,0.0,0.0,0.0,0.00437969209904
1470133517922468882,0.0,0.0,0.0,0.0,0.0,0.00298015427042
1470133518000709797,0.0,-0.00173536980439,0.0,0.0,0.0,0.00319552975917
1470133518077886739,0.0,-0.00186015972782,0.0,0.0,0.0,0.00420529750427
1470133518156221785,0.0,-0.00197415091012,0.0,0.0,0.0,0.0039166448855
1470133518235483792,0.0,-0.00228268839333,0.0,0.0,0.0,0.00445117680291
1470133518315323195,0.0,-0.00259057508696,0.0,0.0,0.0,0.0
1470133518389180722,0.0,-0.00267956651661,0.0,0.0,0.0,0.0
1470133518463825930,0.0,-0.00253322821025,0.0,0.0,0.0,0.0
1470133518540061312,0.0,-0.00233370005999,0.0,0.0,0.0,0.0
1470133518613775277,0.0,-0.0024828852332,0.0,0.0,0.0,0.0
1470133518689260735,0.0,-0.00259511284444,0.0,0.0,0.0,0.00353660162172
1470133518759924877,0.0,-0.00282809821803,0.0,0.0,0.0,0.0
1470133518832598634,0.0,-0.0030097047976,0.0,0.0,0.0,0.00362411793913
1470133518904789127,0.0,-0.00294092977334,0.0,0.0,0.0,0.0
1470133518978051827,0.0,-0.0030859969734,0.0,0.0,0.0,0.0
1470133519051158716,0.0,-0.0031975804447,0.0,0.0,0.0,0.0
1470133519127933694,0.0,-0.00328367495824,0.0,0.0,0.0,0.0
1470133519203390456,0.0,-0.0032470880999,0.0,0.0,0.0,0.0
1470133519278759226,0.0,-0.00312567355026,0.0,0.0,0.0,0.0
1470133519351725119,0.0,-0.00302670197476,0.0,0.0,0.0,0.0
1470133519431990067,0.0,-0.00294323233802,0.0,0.0,0.0,0.0
1470133519509943962,0.0,-0.00277592724103,0.0,0.0,0.0,0.0
1470133519586335383,0.0,-0.00258796567012,0.0,0.0,0.0,0.00281320752132
1470133519660335969,0.0,-0.00240967858497,0.0,0.0,0.0,0.0
1470133519736631727,0.0,-0.00224182858977,0.0,0.0,0.0,0.0
1470133519820524835,0.0,-0.00203891748477,0.0,0.0,0.0,0.0
1470133519899642404,0.0,-0.00189495643515,0.0,0.0,0.0,0.0
1470133519975697399,0.006,0.0,0.0,0.0,0.0,0.0
1470133520053058783,0.006,0.0,0.0,0.0,0.0,0.0
1470133520129161513,0.0,0.0,0.0,0.0,0.0,0.00410472290526
1470133520203260357,0.006,0.0,0.0,0.0,0.0,0.0
1470133520280817975,0.0,0.0,0.0,0.0,0.0,0.00401956029442
1470133520356582885,0.006,0.0,0.0,0.0,0.0,0.0
1470133520429860654,0.006,0.0,0.0,0.0,0.0,0.0
1470133520505851284,0.0,0.0,0.0,0.0,0.0,0.00328709636147
1470133520582844932,0.006,0.0,0.0,0.0,0.0,0.0
1470133520655234464,0.0,0.0,0.0,0.0,0.0,0.00320171752684
1470133520727982175,0.006,0.0,0.0,0.0,0.0,0.0
1470133520804900582,0.006,0.0,0.0,0.0,0.0,0.0
1470133520882988359,0.0,0.0,0.0,0.0,0.0,0.00467149497831
1470133520962445493,0.006,0.0,0.0,0.0,0.0,0.0
1470133521040141226,0.006,0.0,0.0,0.0,0.0,0.0
1470133521114294406,0.006,0.0,0.0,0.0,0.0,0.0
1470133521193792911,0.006,0.0,0.0,0.0,0.0,0.0
1470133521267520235,0.006,0.0,0.0,0.0,0.0,0.0
1470133521339937969,0.0,0.0,0.0,0.0,0.0,0.00385027316885
1470133521410987606,0.0,0.0,0.0,0.0,0.0,0.00462805223769
1470133521487442900,0.0,0.0,0.0,0.0,0.0,0.00415497280285
1470133521571446757,0.006,0.0,0.0,0.0,0.0,0.0
1470133521646091470,0.006,0.0,0.0,0.0,0.0,0.0
1470133521719252708,0.0,0.0,0.0,0.0,0.0,0.00561222228423
1470133521791744167,0.006,0.0,0.0,0.0,0.0,0.0
1470133521866610486,0.006,0.0,0.0,0.0,0.0,0.0
1470133521941066674,0.006,0.0,0.0,0.0,0.0,0.0
1470133522015020753,0.006,0.0,0.0,0.0,0.0,0.0
1470133522090888023,0.006,0.0,0.0,0.0,0.0,0.0
1470133522168544190,0.006,0.0,0.0,0.0,0.0,0.0
1470133522243204213,0.0,0.0,0.0,0.0,0.0,0.0034141162511
1470133522319915426,0.006,0.0,0.0,0.0,0.0,0.0
1470133522398660048,0.0,0.0,0.0,0.0,0.0,0.00547309386292
1470133522482284562,0.0,0.0,0.0,0.0,0.0,0.00743935292039
1470133522553346475,0.006,0.0,0.0,0.0,0.0,0.0
1470133522626411477,0.0,0.0,0.0,0.0,0.0,0.00445085685696
1470133522698420877,0.006,0.0,0.0,0.0,0.0,0.0
1470133522772120655,0.006,0.0,0.0,0.0,0.0,0.0
1470133522847966643,0.006,0.0,0.0,0.0,0.0,0.0
1470133522921181598,0.0,0.0,0.0,0.0,0.0,0.00624861090542
1470133522995181835,0.0,0.0,0.0,0.0,0.0,0.00453658872703
1470133523067553854,0.006,0.0,0.0,0.0,0.0,0.0
1470133523140949727,0.006,0.0,0.0,0.0,0.0,0.0
1470133523213904170,0.0,0.0,0.0,0.0,0.0,0.00542236404923
1470133523290566140,0.006,0.0,0.0,0.0,0.0,0.0
1470133523364804600,0.0,-0.00173731457356,0.0,0.0,0.0,0.0
1470133523439121408,0.0,-0.00183511415411,0.0,0.0,0.0,0.0
1470133523512100606,0.0,-0.00191243788142,0.0,0.0,0.0,0.0
1470133523584519643,0.0,-0.00205745430577,0.0,0.0,0.0,0.0
1470133523655648511,0.0,-0.00221667054955,0.0,0.0,0.0,0.0
1470133523729450251,0.0,-0.00227702343751,0.0,0.0,0.0,0.0
1470133523805227434,0.0,-0.00232273945499,0.0,0.0,0.0,0.0
1470133523881151161,0.0,-0.00239415123973,0.0,0.0,0.0,0.0
1470133523953956471,0.0,-0.00248216416601,0.0,0.0,0.0,0.0
1470133524025242517,0.0,-0.00270240362648,0.0,0.0,0.0,0.0
1470133524098675586,0.0,-0.00275211512957,0.0,0.0,0.0,0.0
1470133524171251938,0.0,-0.00264623515222,0.0,0.0,0.0,0.0
1470133524246370609,0.0,-0.00217754349027,0.0,0.0,0.0,0.0
1470133524324455430,0.0,-0.00205154308964,0.0,0.0,0.0,0.0
1470133524396401307,0.0,-0.00201147707093,0.0,0.0,0.0,0.0
1470133524470051369,0.0,-0.00196217885155,0.0,0.0,0.0,-0.00282725566259
1470133524543416849,0.0,-0.00183397307906,0.0,0.0,0.0,0.0
1470133524614772377,0.006,0.0,0.0,0.0,0.0,0.0
1470133524687307071,0.006,0.0,0.0,0.0,0.0,0.0
1470133524758557323,0.006,0.0,0.0,0.0,0.0,0.0
1470133524830255721,0.006,0.0,0.0,0.0,0.0,0.0
1470133524902174790,0.006,0.0,0.0,0.0,0.0,0.0
1470133524974126326,0.006,0.0,0.0,0.0,0.0,0.0
1470133525046795734,0.006,0.0,0.0,0.0,0.0,0.0
1470133525118923319,0.006,0.0,0.0,0.0,0.0,0.0
1470133525196852601,0.006,0.0,0.0,0.0,0.0,0.0
1470133525277069888,0.006,0.0,0.0,0.0,0.0,0.0
1470133525350214595,0.0,0.0,0.0,0.0,0.0,0.00338597606701
1470133525422931495,0.006,0.0,0.0,0.0,0.0,0.0
1470133525499150130,0.006,0.0,0.0,0.0,0.0,0.0
1470133525575588822,0.0,0.0,0.0,0.0,0.0,0.00469076388204
1470133525648909892,0.006,0.0,0.0,0.0,0.0,0.0
1470133525721729620,0.006,0.0,0.0,0.0,0.0,0.0
1470133525795161876,0.006,0.0,0.0,0.0,0.0,0.0
1470133525883430493,0.006,0.0,0.0,0.0,0.0,0.0
1470133525969058548,0.006,0.0,0.0,0.0,0.0,0.0
1470133526046826634,0.006,0.0,0.0,0.0,0.0,0.0
1470133526125805789,0.006,0.0,0.0,0.0,0.0,0.0
1470133526202524539,0.0,0.0,0.0,0.0,0.0,0.00328166761645
1470133526274982226,0.006,0.0,0.0,0.0,0.0,0.0
1470133526351452122,0.006,0.0,0.0,0.0,0.0,0.0
1470133526427478372,0.006,0.0,0.0,0.0,0.0,0.0
1470133526501036315,0.006,0.0,0.0,0.0,0.0,0.0
1470133526576457584,0.006,0.0,0.0,0.0,0.0,0.0
1470133526654074871,0.0,0.0,0.0,0.0,0.0,0.00489668429471
1470133526729812204,0.0,0.0,0.0,0.0,0.0,0.00287996682831
1470133526807347316,0.006,0.0,0.0,0.0,0.0,0.0
1470133526883498671,0.006,0.0,0.0,0.0,0.0,0.0
1470133526957218175,0.006,0.0,0.0,0.0,0.0,0.0
1470133527029796331,0.006,0.0,0.0,0.0,0.0,0.0
1470133527105584855,0.0,0.0,0.0,0.0,0.0,0.00546563127622
1470133527180738082,0.0,0.0,0.0,0.0,0.0,0.00377850005156
1470133527257209133,0.006,0.0,0.0,0.0,0.0,0.0
1470133527330107542,0.006,0.0,0.0,0.0,0.0,0.0
1470133527403318851,0.006,0.0,0.0,0.0,0.0,0.0
1470133527482519820,0.006,0.0,0.0,0.0,0.0,0.0
1470133527564490375,0.006,0.0,0.0,0.0,0.0,0.0
1470133527642243928,0.006,0.0,0.0,0.0,0.0,0.0
1470133527715155267,0.006,0.0,0.0,0.0,0.0,0.0
1470133527789476033,0.006,0.0,0.0,0.0,0.0,0.0
1470133527865757027,0.006,0.0,0.0,0.0,0.0,0.0
1470133527939263816,0.006,0.0,0.0,0.0,0.0,0.0
1470133528013876386,0.006,0.0,0.0,0.0,0.0,0.0
1470133528086097427,0.006,0.0,0.0,0.0,0.0,0.0
1470133528163404463,0.006,0.0,0.0,0.0,0.0,0.0
1470133528240049092,0.006,0.0,0.0,0.0,0.0,0.0
1470133528312495284,0.006,0.0,0.0,0.0,0.0,0.0
1470133528383817110,0.006,0.0,0.0,0.0,0.0,0.0
1470133528463380003,0.006,0.0,0.0,0.0,0.0,0.0
1470133528543866917,0.0,0.0,0.0,0.0,0.0,0.00283620734027
1470133528618511670,0.006,0.0,0.0,0.0,0.0,0.0
1470133528690537717,0.006,0.0,0.0,0.0,0.0,0.0
1470133528763471970,0.006,0.0,0.0,0.0,0.0,0.0
1470133528838407015,0.006,0.0,0.0,0.0,0.0,0.0
1470133528911206823,0.006,0.0,0.0,0.0,0.0,0.0
1470133528981261209,0.006,0.0,0.0,0.0,0.0,0.0
1470133529057147547,0.006,0.0,0.0,0.0,0.0,0.0
1470133529131416745,0.006,0.0,0.0,0.0,0.0,0.0
1470133529208188414,0.006,0.0,0.0,0.0,0.0,0.0
1470133529281359889,0.006,0.0,0.0,0.0,0.0,0.0
1470133529357659553,0.006,0.0,0.0,0.0,0.0,0.0
1470133529432657079,0.006,0.0,0.0,0.0,0.0,0.0
1470133529509542952,0.006,0.0,0.0,0.0,0.0,0.0
1470133529583008173,0.006,0.0,0.0,0.0,0.0,0.0
1470133529657284763,0.006,0.0,0.0,0.0,0.0,0.0
1470133529729843900,0.006,0.0,0.0,0.0,0.0,0.0
1470133529802086093,0.006,0.0,0.0,0.0,0.0,0.0
1470133529879545052,0.006,0.0,0.0,0.0,0.0,0.0
1470133529955976465,0.006,0.0,0.0,0.0,0.0,0.0
1470133530033226301,0.006,0.0,0.0,0.0,0.0,0.0
1470133530107808416,0.006,0.0,0.0,0.0,0.0,0.0
1470133530181460700,0.006,0.0,0.0,0.0,0.0,0.0
1470133530256726714,0.0,0.0,0.0,0.0,0.0,0.00428399321252
1470133530329385918,0.006,0.0,0.0,0.0,0.0,0.0
1470133530406201026,0.006,0.0,0.0,0.0,0.0,0.0
1470133530480393317,0.006,0.0,0.0,0.0,0.0,0.0
1470133530553135886,0.006,0.0,0.0,0.0,0.0,0.0
1470133530626309261,0.006,0.0,0.0,0.0,0.0,0.0
1470133530708992504,0.006,0.0,0.0,0.0,0.0,0.0
1470133530784402978,0.006,0.0,0.0,0.0,0.0,0.0
1470133530858556348,0.006,0.0,0.0,0.0,0.0,0.0
1470133530930126010,0.006,0.0,0.0,0.0,0.0,0.0
1470133531006372843,0.006,0.0,0.0,0.0,0.0,0.0
1470133531080184726,0.006,0.0,0.0,0.0,0.0,0.0
1470133531159067883,0.006,0.0,0.0,0.0,0.0,0.0
1470133531235044691,0.006,0.0,0.0,0.0,0.0,0.0
1470133531308513290,0.006,0.0,0.0,0.0,0.0,0.0
1470133531381153692,0.0,0.0,0.0,0.0,0.0,0.0046939917702
1470133531454074400,0.006,0.0,0.0,0.0,0.0,0.0
1470133531527350485,0.006,0.0,0.0,0.0,0.0,0.0
1470133531599733072,0.006,0.0,0.0,0.0,0.0,0.0
1470133531670071487,0.006,0.0,0.0,0.0,0.0,0.0
1470133531748427646,0.0,0.0,0.0,0.0,0.0,0.00379553943584
1470133531827308973,0.0,0.0,0.0,0.0,0.0,0.00287431832909
1470133531901349589,0.006,0.0,0.0,0.0,0.0,0.0
1470133531975642360,0.006,0.0,0.0,0.0,0.0,0.0
1470133532052992455,0.006,0.0,0.0,0.0,0.0,0.0
1470133532126941336,0.006,0.0,0.0,0.0,0.0,0.0
1470133532203579860,0.006,0.0,0.0,0.0,0.0,0.0
1470133532282198265,0.0,0.0,0.0,0.0,0.0,0.00317240644666
1470133532365824161,0.0,0.0,0.0,0.0,0.0,0.00329575636172
1470133532437531245,0.006,0.0,0.0,0.0,0.0,0.0
1470133532509958016,0.006,0.0,0.0,0.0,0.0,0.0
1470133532586371217,0.006,0.0,0.0,0.0,0.0,0.0
1470133532657098330,0.006,0.0,0.0,0.0,0.0,0.0
1470133532728043078,0.006,0.0,0.0,0.0,0.0,0.0
1470133532799532017,0.006,0.0,0.0,0.0,0.0,0.0
1470133532876839095,0.006,0.0,0.0,0.0,0.0,0.0
1470133532954711714,0.006,0.0,0.0,0.0,0.0,0.0
1470133533029444981,0.006,0.0,0.0,0.0,0.0,0.0
1470133533108284095,0.006,0.0,0.0,0.0,0.0,0.0
1470133533179958944,0.0,0.0,0.0,0.0,0.0,0.0031774937553
1470133533255079305,0.006,0.0,0.0,0.0,0.0,0.0
1470133533327107615,0.006,0.0,0.0,0.0,0.0,0.0
1470133533400609968,0.006,0.0,0.0,0.0,0.0,0.0
1470133533473992535,0.006,0.0,0.0,0.0,0.0,0.0
1470133533547481865,0.006,0.0,0.0,0.0,0.0,0.0
1470133533622712750,0.006,0.0,0.0,0.0,0.0,0.0
1470133533700035399,0.006,0.0,0.0,0.0,0.0,0.0
1470133533774507259,0.0,0.0,0.0,0.0,0.0,0.00289040743225
1470133533850293783,0.006,0.0,0.0,0.0,0.0,0.0
1470133533923474695,0.006,0.0,0.0,0.0,0.0,0.0
1470133533997963139,0.006,0.0,0.0,0.0,0.0,0.0
1470133534070370536,0.006,0.0,0.0,0.0,0.0,0.0
1470133534142625728,0.006,0.0,0.0,0.0,0.0,0.0
1470133534214445846,0.006,0.0,0.0,0.0,0.0,0.0
1470133534290603086,0.006,0.0,0.0,0.0,0.0,0.0
1470133534365844935,0.0,0.0,0.0,0.0,0.0,0.00438516717572
1470133534439123830,0.006,0.0,0.0,0.0,0.0,0.0
1470133534513976539,0.006,0.0,0.0,0.0,0.0,0.0
1470133534592457271,0.006,0.0,0.0,0.0,0.0,0.0
1470133534671791044,0.0,0.0,0.0,0.0,0.0,0.00368361929418
1470133534749783797,0.006,0.0,0.0,0.0,0.0,0.0
1470133534827109903,0.006,0.0,0.0,0.0,0.0,0.0
1470133534908042377,0.006,0.0,0.0,0.0,0.0,0.0
1470133534983931632,0.0,0.0,0.0,0.0,0.0,0.00414857443938
1470133535066414710,0.0,0.0,0.0,0.0,0.0,0.00280079548123
1470133535136811241,0.006,0.0,0.0,0.0,0.0,0.0
1470133535210135554,0.006,0.0,0.0,0.0,0.0,0.0
1470133535282892514,0.006,0.0,0.0,0.0,0.0,0.0
1470133535367850469,0.006,0.0,0.0,0.0,0.0,0.0
1470133535441893505,0.006,0.0,0.0,0.0,0.0,0.0
1470133535510825781,0.006,0.0,0.0,0.0,0.0,0.0
1470133535586031362,0.006,0.0,0.0,0.0,0.0,0.0
1470133535658571620,0.006,0.0,0.0,0.0,0.0,0.0
1470133535735278456,0.006,0.0,0.0,0.0,0.0,0.0
1470133535809900852,0.006,0.0,0.0,0.0,0.0,0.0
1470133535883472224,0.006,0.0,0.0,0.0,0.0,0.0
1470133535956604489,0.006,0.0,0.0,0.0,0.0,0.0
1470133536030244119,0.006,0.0,0.0,0.0,0.0,0.0
1470133536101699709,0.006,0.0,0.0,0.0,0.0,0.0
1470133536176002561,0.006,0.0,0.0,0.0,0.0,0.0
1470133536254020420,0.006,0.0,0.0,0.0,0.0,0.0
1470133536326692896,0.006,0.0,0.0,0.0,0.0,0.0
1470133536400056331,0.006,0.0,0.0,0.0,0.0,0.0
1470133536473390129,0.006,0.0,0.0,0.0,0.0,0.0
1470133536545026581,0.006,0.0,0.0,0.0,0.0,0.0
1470133536616418794,0.006,0.0,0.0,0.0,0.0,0.0
1470133536687493959,0.006,0.0,0.0,0.0,0.0,0.0
1470133536758319981,0.006,0.0,0.0,0.0,0.0,0.0
1470133536827647333,0.006,0.0,0.0,0.0,0.0,0.0
1470133536899430117,0.006,0.0,0.0,0.0,0.0,0.0
1470133536973125671,0.006,0.0,0.0,0.0,0.0,0.0
1470133537045816773,0.006,0.0,0.0,0.0,0.0,0.0
1470133537116584346,0.0,0.0,0.0,0.0,0.0,0.00289702584102
1470133537188614263,0.006,0.0,0.0,0.0,0.0,0.0
1470133537261291345,0.006,0.0,0.0,0.0,0.0,0.0
1470133537333064791,0.006,0.0,0.0,0.0,0.0,0.0
1470133537407444200,0.006,0.0,0.0,0.0,0.0,0.0
1470133537482711537,0.0,0.0,0.0,0.0,0.0,0.00400943904779
1470133537554959810,0.006,0.0,0.0,0.0,0.0,0.0
1470133537640530420,0.006,0.0,0.0,0.0,0.0,0.0
1470133537718933144,0.0,0.0,0.0,0.0,0.0,0.00416562126812
1470133537798437824,0.0,0.0,0.0,0.0,0.0,0.00297881617532
1470133537875645968,0.006,0.0,0.0,0.0,0.0,0.0
1470133537949301137,0.006,0.0,0.0,0.0,0.0,0.0
1470133538020612543,0.0,0.0,0.0,0.0,0.0,0.00367829918156
1470133538091122384,0.0,0.0,0.0,0.0,0.0,0.00349020393002
1470133538166568670,0.006,0.0,0.0,0.0,0.0,0.0
1470133538241055071,0.006,0.0,0.0,0.0,0.0,0.0
1470133538316133458,0.006,0.0,0.0,0.0,0.0,0.0
1470133538394060742,0.006,0.0,0.0,0.0,0.0,0.0
1470133538468520112,0.0,0.0,0.0,0.0,0.0,0.00390910696006
1470133538543017179,0.006,0.0,0.0,0.0,0.0,0.0
1470133538618197351,0.006,0.0,0.0,0.0,0.0,0.0
1470133538689100426,0.006,0.0,0.0,0.0,0.0,0.0
1470133538767527874,0.006,0.0,0.0,0.0,0.0,0.0
1470133538839130140,0.0,0.0,0.0,0.0,0.0,0.00346348757941
1470133538922607023,0.0,0.0,0.0,0.0,0.0,0.00350740236286
1470133538996624722,0.0,0.0,0.0,0.0,0.0,0.00300447216267
1470133539072763399,0.006,0.0,0.0,0.0,0.0,0.0
1470133539149133292,0.006,0.0,0.0,0.0,0.0,0.0
1470133539223403574,0.0,0.0,0.0,0.0,0.0,0.00375469407421
1470133539302493765,0.0,0.0,0.0,0.0,0.0,0.00343200643577
1470133539377928507,0.0,0.0,0.0,0.0,0.0,0.00300203982842
1470133539467292157,0.006,0.0,0.0,0.0,0.0,0.0
1470133539543588502,0.006,0.0,0.0,0.0,0.0,0.0
1470133539619726658,0.006,0.0,0.0,0.0,0.0,0.0
1470133539701889266,0.006,0.0,0.0,0.0,0.0,0.0
1470133539777930774,0.006,0.0,0.0,0.0,0.0,0.0
1470133539852970092,0.006,0.0,0.0,0.0,0.0,0.0
1470133539928843976,0.006,0.0,0.0,0.0,0.0,0.0
1470133540007432077,0.006,0.0,0.0,0.0,0.0,0.0
1470133540084299600,0.006,0.0,0.0,0.0,0.0,0.0
1470133540170127019,0.006,0.0,0.0,0.0,0.0,0.0
1470133540241546916,0.006,0.0,0.0,0.0,0.0,0.0
1470133540314312793,0.006,0.0,0.0,0.0,0.0,0.0
1470133540386465161,0.006,0.0,0.0,0.0,0.0,0.0
1470133540464606829,0.006,0.0,0.0,0.0,0.0,0.0
1470133540539842006,0.006,0.0,0.0,0.0,0.0,0.0
