%time,field.linear.x,field.linear.y,field.linear.z,field.angular.x,field.angular.y,field.angular.z
1470076134103313750,0.15,-0.651112749731,0.0,0.0,0.0,0.032814681371
1470076134184604640,0.15,-0.300929293576,0.0,0.0,0.0,0.0314467952154
1470076134262064125,0.15,-0.300778096262,0.0,0.0,0.0,0.035873367533
1470076134343406684,0.15,-0.300695889535,0.0,0.0,0.0,0.0328316105027
1470076134423813296,0.15,-0.30145448679,0.0,0.0,0.0,0.0343912551289
1470076134503393184,0.15,-0.300991632882,0.0,0.0,0.0,0.032814681371
1470076134582053737,0.15,-0.301164659205,0.0,0.0,0.0,0.0343912551289
1470076134658918391,0.15,-0.300558484736,0.0,0.0,0.0,0.0342482074128
1470076134730296486,0.15,-0.303318929616,0.0,0.0,0.0,0.0316828813386
1470076134804172671,0.15,-0.305134950223,0.0,0.0,0.0,0.0276803625106
1470076134878079501,0.15,-0.297601201478,0.0,0.0,0.0,0.0254932727671
1470076134953118406,0.15,-0.278488876763,0.0,0.0,0.0,0.0309506247224
1470076135024150463,0.15,-0.256229257527,0.0,0.0,0.0,0.0308161701552
1470076135101202636,0.15,-0.229871621075,0.0,0.0,0.0,0.0251059852439
1470076135175163435,0.15,-0.241489471736,0.0,0.0,0.0,0.0332104307753
1470076135246053525,0.15,-0.212379303518,0.0,0.0,0.0,0.0226822533986
1470076135322138633,0.15,-0.205645186248,0.0,0.0,0.0,0.0310709153552
1470076135397897774,0.15,-0.188373912516,0.0,0.0,0.0,0.027847958981
1470076135469375831,0.15,-0.158732185605,0.0,0.0,0.0,0.037191979229
1470076135540972043,0.15,-0.15360917801,0.0,0.0,0.0,0.0253033802667
1470076135612328336,0.15,-0.137469072285,0.0,0.0,0.0,0.0338549114347
1470076135685311687,0.15,-0.128752754274,0.0,0.0,0.0,0.0300040405851
1470076135768369694,0.15,-0.103034705165,0.0,0.0,0.0,0.0240500204721
1470076135842410142,0.15,-0.102486840728,0.0,0.0,0.0,0.0182494505444
1470076135915457695,0.15,-0.0911718087821,0.0,0.0,0.0,0.0262186461519
1470076135985694614,0.15,-0.0843029052942,0.0,0.0,0.0,0.0284769068001
1470076136055784331,0.15,-0.0720270415573,0.0,0.0,0.0,0.0288770190219
1470076136132383438,0.15,-0.0518763189941,0.0,0.0,0.0,0.0224872382289
1470076136203207320,0.15,-0.0576360248952,0.0,0.0,0.0,0.0391589388894
1470076136273442101,0.15,-0.0497914446323,0.0,0.0,0.0,0.0350610621947
1470076136349235338,0.15,-0.0446906649499,0.0,0.0,0.0,0.0227228664312
1470076136423520184,0.15,-0.0393323325543,0.0,0.0,0.0,0.0205248291171
1470076136500391584,0.15,-0.0323912873297,0.0,0.0,0.0,0.0328888089129
1470076136583634923,0.15,-0.0326730758129,0.0,0.0,0.0,0.0375659966345
1470076136663715368,0.15,-0.0265673100381,0.0,0.0,0.0,0.0212639555184
1470076136739605358,0.15,-0.0267780368953,0.0,0.0,0.0,0.0262370266872
1470076136819373131,0.15,-0.0229252044289,0.0,0.0,0.0,0.0210995270711
1470076136891872873,0.15,-0.0210640629559,0.0,0.0,0.0,0.00601696042953
1470076136963202017,0.15,-0.0206770797252,0.0,0.0,0.0,0.0363527752913
1470076137048380671,0.15,-0.0201866214155,0.0,0.0,0.0,0.00869146617543
1470076137132143451,0.15,-0.0210278690039,0.0,0.0,0.0,0.0116729381959
1470076137213244597,0.15,-0.0200350888251,0.0,0.0,0.0,0.0261488499262
1470076137287684112,0.15,-0.0217361752867,0.0,0.0,0.0,0.0384899497334
1470076137368301944,0.15,-0.0221624550401,0.0,0.0,0.0,0.0120660500762
1470076137439011075,0.15,-0.0236916564583,0.0,0.0,0.0,0.0312044666719
1470076137511575299,0.15,-0.0231820430784,0.0,0.0,0.0,0.00733194710756
1470076137583190022,0.15,-0.0261306798636,0.0,0.0,0.0,0.0
1470076137656871781,0.15,-0.0267011347591,0.0,0.0,0.0,0.0181246534605
1470076137732563443,0.15,-0.0261795425593,0.0,0.0,0.0,0.0108928901852
1470076137812490185,0.15,-0.0257037408083,0.0,0.0,0.0,0.0123389154041
1470076137885087939,0.15,-0.0282699871241,0.0,0.0,0.0,0.0145720710989
1470076137964036701,0.15,-0.025433899182,0.0,0.0,0.0,0.0323792337662
1470076138041987458,0.15,-0.0279431501209,0.0,0.0,0.0,0.0
1470076138118690311,0.15,-0.0299053784638,0.0,0.0,0.0,0.00858347057513
1470076138193237891,0.15,-0.0280158338128,0.0,0.0,0.0,0.0169533924461
1470076138268233117,0.15,-0.0287989024251,0.0,0.0,0.0,0.0192185162398
1470076138343364708,0.15,-0.0282717634915,0.0,0.0,0.0,0.00901792396434
1470076138423466900,0.15,-0.0279854465454,0.0,0.0,0.0,0.00671323147172
1470076138501227082,0.15,-0.0280478629648,0.0,0.0,0.0,0.0168545592739
1470076138575370095,0.15,-0.0261682928531,0.0,0.0,0.0,0.010814796913
1470076138649557747,0.15,-0.0265524652778,0.0,0.0,0.0,0.00604301911306
1470076138730119708,0.15,-0.0253505110918,0.0,0.0,0.0,-0.00843692934535
1470076138807657867,0.15,-0.0251392264842,0.0,0.0,0.0,0.0239279551498
1470076138882363006,0.15,-0.0236204021602,0.0,0.0,0.0,0.0115464946307
1470076138965173665,0.15,-0.0226770912288,0.0,0.0,0.0,0.00590818567876
1470076139043035245,0.15,-0.0237834672808,0.0,0.0,0.0,0.0172064621395
1470076139117372285,0.15,-0.0218276770591,0.0,0.0,0.0,0.00695322071616
1470076139191438972,0.15,-0.0207815712868,0.0,0.0,0.0,0.0157901849436
1470076139265817252,0.15,-0.0218222984104,0.0,0.0,0.0,0.00873690092335
1470076139345392599,0.15,-0.0202690071045,0.0,0.0,0.0,0.00839183433038
1470076139421501126,0.15,-0.0190913930713,0.0,0.0,0.0,0.0
1470076139495574561,0.15,-0.0202340351223,0.0,0.0,0.0,0.0331682649495
1470076139571567056,0.15,-0.0186715093433,0.0,0.0,0.0,-0.00418502277883
1470076139645753864,0.15,-0.0178587374269,0.0,0.0,0.0,-0.00399922299551
1470076139718041854,0.15,-0.0189023412569,0.0,0.0,0.0,0.015004236139
1470076139791973851,0.15,-0.0170285027652,0.0,0.0,0.0,0.00609917444814
1470076139864140606,0.15,-0.0166612391352,0.0,0.0,0.0,0.00502154837827
1470076139936798389,0.15,-0.0161739045559,0.0,0.0,0.0,0.0133933079428
1470076140010040860,0.15,-0.0168121018811,0.0,0.0,0.0,0.0100182170731
1470076140086268543,0.15,-0.0152980864971,0.0,0.0,0.0,0.0141861335485
1470076140166252856,0.15,-0.0150147386818,0.0,0.0,0.0,0.0
1470076140243318674,0.15,-0.0144479918285,0.0,0.0,0.0,0.0170177389364
1470076140320979371,0.15,-0.0135331835403,0.0,0.0,0.0,0.00970191787847
1470076140394458644,0.15,-0.0129248960866,0.0,0.0,0.0,0.0188413435533
1470076140467603329,0.15,-0.0118365658625,0.0,0.0,0.0,0.0
1470076140544050708,0.15,-0.0111650619461,0.0,0.0,0.0,0.0153011368423
1470076140618350073,0.15,-0.0110906671538,0.0,0.0,0.0,0.0159527919857
1470076140692545086,0.15,-0.0108824538245,0.0,0.0,0.0,0.0130413983906
1470076140765040481,0.15,-0.0109522021367,0.0,0.0,0.0,0.00799474886543
1470076140838660793,0.15,-0.010177429448,0.0,0.0,0.0,0.0176131396603
1470076140917404223,0.15,-0.010376088935,0.0,0.0,0.0,0.0
1470076140992085372,0.15,-0.0102295324384,0.0,0.0,0.0,0.0122593531034
1470076141064783222,0.15,-0.0104328772603,0.0,0.0,0.0,0.0
1470076141137192468,0.15,-0.0107596185981,0.0,0.0,0.0,0.0156706945135
1470076141211475527,0.15,-0.0107368529021,0.0,0.0,0.0,0.0
1470076141283360660,0.15,-0.0111052788972,0.0,0.0,0.0,0.0139924396532
1470076141354973227,0.0,-0.0114935461237,0.0,0.0,0.0,0.0136112707761
1470076141429498330,0.0,-0.0117762741252,0.0,0.0,0.0,0.0
1470076141503785063,0.0,-0.0121346732407,0.0,0.0,0.0,0.0
1470076141576801127,0.0,-0.0124308591514,0.0,0.0,0.0,0.0
1470076141650039136,0.0,-0.0125795959114,0.0,0.0,0.0,0.0100351755698
1470076141723465382,0.0,-0.0125843492328,0.0,0.0,0.0,0.00639609613777
1470076141794909650,0.0,-0.0125353921382,0.0,0.0,0.0,0.00622126691608
1470076141868969354,0.0,-0.0125779351397,0.0,0.0,0.0,0.00500310185518
1470076141939564930,0.0,-0.0126331459536,0.0,0.0,0.0,0.00958653141558
1470076142014518615,0.0,-0.0122689522981,0.0,0.0,0.0,0.0
1470076142085069326,0.0,-0.012615750338,0.0,0.0,0.0,0.00403145440342
1470076142167534826,0.0,-0.0134027050613,0.0,0.0,0.0,0.0
1470076142241158262,0.0,-0.0132250245093,0.0,0.0,0.0,0.0
1470076142318340537,0.0,-0.0122975093304,0.0,0.0,0.0,0.0
1470076142392648640,0.0,-0.0111348890691,0.0,0.0,0.0,0.0
1470076142466535958,0.0,-0.0113587749555,0.0,0.0,0.0,0.0
1470076142544277640,0.0,-0.0111994924574,0.0,0.0,0.0,0.0
1470076142615590872,0.0,-0.0100074897512,0.0,0.0,0.0,0.0
1470076142692082913,0.0,-0.00951257714916,0.0,0.0,0.0,0.0
1470076142768085309,0.0,-0.00878282440741,0.0,0.0,0.0,0.0
1470076142844856715,0.0,-0.00788104837675,0.0,0.0,0.0,0.0
1470076142922565053,0.0,-0.00676678771067,0.0,0.0,0.0,0.0
1470076142999210231,0.0,-0.00687142623503,0.0,0.0,0.0,0.0
1470076143072764211,0.0,-0.00565294841219,0.0,0.0,0.0,0.0
1470076143149655761,0.0,-0.0048344024821,0.0,0.0,0.0,0.0
1470076143223356878,0.0,-0.00406468070958,0.0,0.0,0.0,0.0
1470076143299842632,0.0,-0.00323225160975,0.0,0.0,0.0,0.0
1470076143372807033,0.0,-0.0033937273166,0.0,0.0,0.0,0.0
1470076143448177447,0.0,-0.00230363232929,0.0,0.0,0.0,0.00306467203639
1470076143522250300,0.0,-0.0017789659268,0.0,0.0,0.0,0.0
1470076143606434179,0.0,-0.00131721274842,0.0,0.0,0.0,0.0
1470076143682946285,0.006,0.0,0.0,0.0,0.0,0.0
1470076143755341989,0.006,0.0,0.0,0.0,0.0,0.0
1470076143831302110,0.006,0.0,0.0,0.0,0.0,0.0
1470076143905394961,0.006,0.0,0.0,0.0,0.0,0.0
1470076143979477603,0.006,0.0,0.0,0.0,0.0,0.0
1470076144052727737,0.006,0.0,0.0,0.0,0.0,0.0
1470076144126724700,0.0,0.0,0.0,0.0,0.0,0.00293258338852
1470076144202140689,0.0,0.0,0.0,0.0,0.0,0.00351383440654
1470076144276608067,0.006,0.0,0.0,0.0,0.0,0.0
1470076144348972343,0.0,0.0,0.0,0.0,0.0,0.00595573096224
1470076144423685845,0.006,0.0,0.0,0.0,0.0,0.0
1470076144495298671,0.006,0.0,0.0,0.0,0.0,0.0
1470076144567653123,0.0,0.0,0.0,0.0,0.0,0.0052995663337
1470076144640967332,0.0,0.0,0.0,0.0,0.0,0.003699200676
1470076144715658792,0.006,0.0,0.0,0.0,0.0,0.0
1470076144787537456,0.006,0.0,0.0,0.0,0.0,0.0
1470076144864251170,0.006,0.0,0.0,0.0,0.0,0.0
1470076144938099527,0.006,0.0,0.0,0.0,0.0,0.0
1470076145010985898,0.006,0.0,0.0,0.0,0.0,0.0
1470076145084176834,0.006,0.0,0.0,0.0,0.0,0.0
1470076145155098780,0.006,0.0,0.0,0.0,0.0,0.0
1470076145225727601,0.006,0.0,0.0,0.0,0.0,0.0
1470076145299378080,0.0,0.0,0.0,0.0,0.0,0.00719685003837
1470076145371846690,0.006,0.0,0.0,0.0,0.0,0.0
1470076145446467698,0.006,0.0,0.0,0.0,0.0,0.0
1470076145525072403,0.0,0.0,0.0,0.0,0.0,0.00446263704866
1470076145602764279,0.006,0.0,0.0,0.0,0.0,0.0
1470076145676073275,0.0,0.0,0.0,0.0,0.0,0.00439621796067
1470076145752788332,0.006,0.0,0.0,0.0,0.0,0.0
1470076145828359585,0.006,0.0,0.0,0.0,0.0,0.0
1470076145905550345,0.0,0.0,0.0,0.0,0.0,0.00452359527778
1470076145988621220,0.0,0.0,0.0,0.0,0.0,0.00441385737483
1470076146066080176,0.006,0.0,0.0,0.0,0.0,0.0
1470076146140536374,0.006,0.0,0.0,0.0,0.0,0.0
1470076146215644029,0.006,0.0,0.0,0.0,0.0,0.0
1470076146293319649,0.006,0.0,0.0,0.0,0.0,0.0
1470076146376051128,0.0,0.0,0.0,0.0,0.0,0.00328809565263
1470076146450270640,0.006,0.0,0.0,0.0,0.0,0.0
1470076146521894826,0.0,0.0,0.0,0.0,0.0,0.00516680877662
1470076146599157196,0.0,0.0,0.0,0.0,0.0,0.00346535475874
1470076146670994758,0.006,0.0,0.0,0.0,0.0,0.0
1470076146747448015,0.0,0.0,0.0,0.0,0.0,0.00568302593887
1470076146821416153,0.006,0.0,0.0,0.0,0.0,0.0
1470076146899591959,0.006,0.0,0.0,0.0,0.0,0.0
1470076146970807843,0.006,0.0,0.0,0.0,0.0,0.0
1470076147040217268,0.006,0.0,0.0,0.0,0.0,0.0
1470076147112050256,0.0,0.0,0.0,0.0,0.0,0.00283302739304
1470076147184773037,0.0,0.0,0.0,0.0,0.0,0.00357214405116
1470076147261345629,0.0,0.0,0.0,0.0,0.0,0.00359170341865
1470076147338826455,0.0,0.0,0.0,0.0,0.0,0.00453231089943
1470076147412914590,0.0,0.0,0.0,0.0,0.0,0.00282594033671
1470076147488731771,0.0,0.0,0.0,0.0,0.0,0.00293085205553
1470076147569166380,0.006,0.0,0.0,0.0,0.0,0.0
1470076147645057854,0.006,0.0,0.0,0.0,0.0,0.0
1470076147720371033,0.006,0.0,0.0,0.0,0.0,0.0
1470076147796783318,0.006,0.0,0.0,0.0,0.0,0.0
1470076147874761238,0.0,0.0,0.0,0.0,0.0,0.00322689515563
1470076147948014434,0.006,0.0,0.0,0.0,0.0,0.0
1470076148023457235,0.0,0.0,0.0,0.0,0.0,0.00322355342314
1470076148104064539,0.006,0.0,0.0,0.0,0.0,0.0
1470076148181643206,0.0,0.0,0.0,0.0,0.0,0.00337905675015
1470076148255765626,0.0,0.0,0.0,0.0,0.0,0.00285719669855
1470076148331398012,0.0,0.0,0.0,0.0,0.0,0.00477266194931
1470076148404344403,0.006,0.0,0.0,0.0,0.0,0.0
1470076148477157965,0.006,0.0,0.0,0.0,0.0,0.0
1470076148550490374,0.0,-0.00156214980323,0.0,0.0,0.0,0.0
1470076148623902288,0.0,-0.00239935388703,0.0,0.0,0.0,0.0
1470076148698540736,0.0,-0.00212392739866,0.0,0.0,0.0,0.0
1470076148771248565,0.0,-0.00208417618561,0.0,0.0,0.0,0.0
1470076148843826029,0.0,-0.00169373575512,0.0,0.0,0.0,0.0
1470076148918097701,0.0,-0.00183922428552,0.0,0.0,0.0,0.0
1470076148992373020,0.0,-0.00197391757656,0.0,0.0,0.0,0.0
1470076149064629461,0.0,-0.00283680010501,0.0,0.0,0.0,0.0
1470076149136876782,0.0,-0.00263113537718,0.0,0.0,0.0,0.0
1470076149209215373,0.0,-0.00298262955535,0.0,0.0,0.0,0.0
1470076149281385701,0.0,-0.00317336633716,0.0,0.0,0.0,0.0
1470076149355816714,0.0,-0.00359169056553,0.0,0.0,0.0,0.0
1470076149430496107,0.0,-0.00326568851162,0.0,0.0,0.0,0.0
1470076149498982301,0.0,-0.0029555933914,0.0,0.0,0.0,0.0
1470076149571616452,0.0,-0.00305758086879,0.0,0.0,0.0,0.0
1470076149643997530,0.0,-0.00302639828909,0.0,0.0,0.0,0.0
1470076149721918059,0.0,-0.00277978747997,0.0,0.0,0.0,0.0
1470076149795577719,0.0,-0.00259293338198,0.0,0.0,0.0,0.0
1470076149869355951,0.0,-0.00260374799285,0.0,0.0,0.0,0.0
1470076149942975328,0.0,-0.002229220233,0.0,0.0,0.0,0.0
1470076150014942454,0.0,-0.00209461171094,0.0,0.0,0.0,0.0
1470076150089872457,0.0,-0.00185418119568,0.0,0.0,0.0,0.0
1470076150165415374,0.0,-0.00160338206131,0.0,0.0,0.0,0.0
1470076150245981717,0.0,-0.0016552064373,0.0,0.0,0.0,0.0
1470076150319547219,0.006,0.0,0.0,0.0,0.0,0.0
1470076150393434194,0.006,0.0,0.0,0.0,0.0,0.0
1470076150469794709,0.006,0.0,0.0,0.0,0.0,0.0
1470076150544540504,0.006,0.0,0.0,0.0,0.0,0.0
1470076150622124123,0.006,0.0,0.0,0.0,0.0,0.0
1470076150700223312,0.006,0.0,0.0,0.0,0.0,0.0
1470076150772106651,0.006,0.0,0.0,0.0,0.0,0.0
1470076150844562513,0.006,0.0,0.0,0.0,0.0,0.0
1470076150920277805,0.006,0.0,0.0,0.0,0.0,0.0
1470076150993031416,0.006,0.0,0.0,0.0,0.0,0.0
1470076151068304245,0.0,0.0,0.0,0.0,0.0,0.0028263494275
1470076151146230481,0.006,0.0,0.0,0.0,0.0,0.0
1470076151223781592,0.0,0.00655645774763,0.0,0.0,0.0,0.00296354343809
1470076151298920793,0.0,0.002908254872,0.0,0.0,0.0,0.0
1470076151372643971,0.0,0.00263600456614,0.0,0.0,0.0,0.0
1470076151444184995,0.0,0.00276769050483,0.0,0.0,0.0,0.0
1470076151516906040,0.0,0.0028426757184,0.0,0.0,0.0,0.0
1470076151589525577,0.0,0.00277017320592,0.0,0.0,0.0,0.0
1470076151663546970,0.0,0.00282924058002,0.0,0.0,0.0,0.0
1470076151742959087,0.0,0.00293478530917,0.0,0.0,0.0,0.0
1470076151824161096,0.0,0.00304741359402,0.0,0.0,0.0,0.0
1470076151899574773,0.0,0.00352378641341,0.0,0.0,0.0,0.0
1470076151973644818,0.0,0.00380401373927,0.0,0.0,0.0,0.0
1470076152051406875,0.0,0.00362542784859,0.0,0.0,0.0,0.0
1470076152127606150,0.0,0.00287482835438,0.0,0.0,0.0,0.00316294958308
1470076152201931957,0.0,0.00253501636993,0.0,0.0,0.0,0.0
1470076152272842956,0.0,0.00271797714841,0.0,0.0,0.0,0.00301119477373
1470076152352907773,0.0,0.00255968622949,0.0,0.0,0.0,0.0
1470076152429753688,0.0,0.00229351717133,0.0,0.0,0.0,0.0
1470076152505166311,0.0,0.00211965452034,0.0,0.0,0.0,0.0
1470076152581858088,0.0,0.00210049517538,0.0,0.0,0.0,0.0
1470076152659651992,0.0,0.00181783051316,0.0,0.0,0.0,0.0
1470076152738052205,0.0,0.0015447444291,0.0,0.0,0.0,0.0
1470076152812154097,0.006,0.0,0.0,0.0,0.0,0.0
1470076152884304973,0.006,0.0,0.0,0.0,0.0,0.0
1470076152960747461,0.006,0.0,0.0,0.0,0.0,0.0
1470076153037202041,0.006,0.0,0.0,0.0,0.0,0.0
1470076153112017623,0.006,0.0,0.0,0.0,0.0,0.0
1470076153184282932,0.006,0.0,0.0,0.0,0.0,0.0
1470076153260377225,0.006,0.0,0.0,0.0,0.0,0.0
1470076153337804942,0.006,0.0,0.0,0.0,0.0,0.0
1470076153413128269,0.006,0.0,0.0,0.0,0.0,0.0
1470076153484903032,0.006,0.0,0.0,0.0,0.0,0.0
1470076153562609550,0.006,0.0,0.0,0.0,0.0,0.0
1470076153639461155,0.006,0.0,0.0,0.0,0.0,0.0
1470076153712504584,0.006,0.0,0.0,0.0,0.0,0.0
1470076153784238338,0.006,0.0,0.0,0.0,0.0,0.0
1470076153857075542,0.006,0.0,0.0,0.0,0.0,0.0
1470076153931629129,0.006,0.0,0.0,0.0,0.0,0.0
1470076154001936522,0.006,0.0,0.0,0.0,0.0,0.0
1470076154076258338,0.006,0.0,0.0,0.0,0.0,0.0
1470076154152511714,0.0,-0.00586418677036,0.0,0.0,0.0,0.0
1470076154231218352,0.0,-0.00183626221407,0.0,0.0,0.0,0.0
1470076154304302171,0.0,-0.00185815360311,0.0,0.0,0.0,0.0
1470076154382823584,0.0,-0.00191947590474,0.0,0.0,0.0,0.0
1470076154455935365,0.0,-0.00196266775865,0.0,0.0,0.0,0.0
1470076154529838793,0.0,-0.00193983005274,0.0,0.0,0.0,0.0
1470076154601887012,0.0,-0.00193509006787,0.0,0.0,0.0,0.0
1470076154679368315,0.0,-0.00196452909995,0.0,0.0,0.0,0.0
1470076154754321093,0.0,-0.00205695304934,0.0,0.0,0.0,0.0
1470076154826033013,0.0,-0.00214487964202,0.0,0.0,0.0,0.0
1470076154900006606,0.0,-0.00268210541371,0.0,0.0,0.0,0.0
1470076154971993179,0.0,-0.00277470299888,0.0,0.0,0.0,0.0
1470076155044183188,0.0,-0.00252188337881,0.0,0.0,0.0,0.0
1470076155118681201,0.0,-0.00200725175355,0.0,0.0,0.0,0.0
1470076155192806899,0.0,-0.00213569281537,0.0,0.0,0.0,0.0
1470076155280223347,0.0,-0.00214267160658,0.0,0.0,0.0,0.0
1470076155355699650,0.0,-0.00204567899842,0.0,0.0,0.0,0.0
1470076155428290900,0.0,-0.00180626699615,0.0,0.0,0.0,0.0
1470076155501519906,0.0,-0.00186282033015,0.0,0.0,0.0,0.0
1470076155575415788,0.0,-0.00164179503832,0.0,0.0,0.0,0.0
1470076155647038170,0.006,0.0,0.0,0.0,0.0,0.0
1470076155719263364,0.006,0.0,0.0,0.0,0.0,0.0
1470076155792773146,0.006,0.0,0.0,0.0,0.0,0.0
1470076155869307964,0.006,0.0,0.0,0.0,0.0,0.0
1470076155942189616,0.006,0.0,0.0,0.0,0.0,0.0
1470076156017988060,0.006,0.0,0.0,0.0,0.0,0.0
1470076156092267192,0.006,0.0,0.0,0.0,0.0,0.0
1470076156169340768,0.006,0.0,0.0,0.0,0.0,0.0
1470076156242571991,0.006,0.0,0.0,0.0,0.0,0.0
1470076156316400245,0.006,0.0,0.0,0.0,0.0,0.0
1470076156388493206,0.006,0.0,0.0,0.0,0.0,0.0
1470076156464662012,0.006,0.0,0.0,0.0,0.0,0.0
1470076156539605175,0.006,0.0,0.0,0.0,0.0,0.0
1470076156613052427,0.006,0.0,0.0,0.0,0.0,0.0
1470076156685825418,0.006,0.0,0.0,0.0,0.0,0.0
1470076156772479633,0.006,0.0,0.0,0.0,0.0,0.0
1470076156850171649,0.006,0.0,0.0,0.0,0.0,0.0
1470076156925874126,0.006,0.0,0.0,0.0,0.0,0.0
1470076157001648191,0.006,0.0,0.0,0.0,0.0,0.0
1470076157076218326,0.006,0.0,0.0,0.0,0.0,0.0
1470076157151902399,0.0,0.0,0.0,0.0,0.0,0.00373404688041
1470076157225027172,0.006,0.0,0.0,0.0,0.0,0.0
1470076157297008983,0.006,0.0,0.0,0.0,0.0,0.0
1470076157370299880,0.006,0.0,0.0,0.0,0.0,0.0
1470076157441464147,0.006,0.0,0.0,0.0,0.0,0.0
1470076157514185614,0.006,0.0,0.0,0.0,0.0,0.0
1470076157586672135,0.006,0.0,0.0,0.0,0.0,0.0
1470076157661180500,0.006,0.0,0.0,0.0,0.0,0.0
1470076157736939953,0.006,0.0,0.0,0.0,0.0,0.0
1470076157812508948,0.006,0.0,0.0,0.0,0.0,0.0
1470076157885659834,0.0,0.0,0.0,0.0,0.0,0.00293181848232
1470076157960133799,0.006,0.0,0.0,0.0,0.0,0.0
1470076158030711082,0.006,0.0,0.0,0.0,0.0,0.0
1470076158102909619,0.006,0.0,0.0,0.0,0.0,0.0
1470076158176114631,0.006,0.0,0.0,0.0,0.0,0.0
1470076158255278463,0.0,0.0,0.0,0.0,0.0,0.00328994917771
1470076158329701506,0.006,0.0,0.0,0.0,0.0,0.0
1470076158404968862,0.006,0.0,0.0,0.0,0.0,0.0
1470076158478731717,0.006,0.0,0.0,0.0,0.0,0.0
1470076158552591660,0.006,0.0,0.0,0.0,0.0,0.0
1470076158626989199,0.006,0.0,0.0,0.0,0.0,0.0
1470076158700989013,0.006,0.0,0.0,0.0,0.0,0.0
1470076158777174083,0.006,0.0,0.0,0.0,0.0,0.0
1470076158850681963,0.006,0.0,0.0,0.0,0.0,0.0
1470076158919839696,0.006,0.0,0.0,0.0,0.0,0.0
1470076158991664898,0.006,0.0,0.0,0.0,0.0,0.0
1470076159062799115,0.006,0.0,0.0,0.0,0.0,0.0
1470076159139079900,0.006,0.0,0.0,0.0,0.0,0.0
1470076159213260306,0.0,0.0,0.0,0.0,0.0,0.00301754874287
1470076159303171159,0.006,0.0,0.0,0.0,0.0,0.0
1470076159378495571,0.006,0.0,0.0,0.0,0.0,0.0
1470076159452029864,0.006,0.0,0.0,0.0,0.0,0.0
1470076159527416046,0.0,0.0,0.0,0.0,0.0,0.00365658022963
1470076159601845217,0.006,0.0,0.0,0.0,0.0,0.0
1470076159679128810,0.006,0.0,0.0,0.0,0.0,0.0
1470076159752233722,0.006,0.0,0.0,0.0,0.0,0.0
1470076159831897571,0.0,0.0,0.0,0.0,0.0,0.00517947398625
1470076159904708030,0.006,0.0,0.0,0.0,0.0,0.0
1470076159981993145,0.006,0.0,0.0,0.0,0.0,0.0
1470076160057564112,0.006,0.0,0.0,0.0,0.0,0.0
1470076160129755518,0.0,0.0,0.0,0.0,0.0,0.00320267065427
1470076160206275507,0.006,0.0,0.0,0.0,0.0,0.0
1470076160283031780,0.006,0.0,0.0,0.0,0.0,0.0
1470076160358943543,0.006,0.0,0.0,0.0,0.0,0.0
1470076160432297522,0.006,0.0,0.0,0.0,0.0,0.0
1470076160507060323,0.0,0.0,0.0,0.0,0.0,0.00314035796423
1470076160578978698,0.006,0.0,0.0,0.0,0.0,0.0
1470076160650048337,0.006,0.0,0.0,0.0,0.0,0.0
1470076160726131318,0.0,0.0,0.0,0.0,0.0,0.00304133249591
1470076160802802381,0.0,0.0,0.0,0.0,0.0,0.00582155309755
1470076160875108450,0.0,0.0,0.0,0.0,0.0,0.00410444182714
1470076160946760010,0.006,0.0,0.0,0.0,0.0,0.0
1470076161016949490,0.0,0.0,0.0,0.0,0.0,0.00379587493031
1470076161090249221,0.006,0.0,0.0,0.0,0.0,0.0
1470076161163172436,0.0,0.0,0.0,0.0,0.0,0.00389113343793
1470076161238123266,0.0,0.0,0.0,0.0,0.0,0.00373890756763
1470076161311511043,0.006,0.0,0.0,0.0,0.0,0.0
1470076161384883470,0.006,0.0,0.0,0.0,0.0,0.0
1470076161459116054,0.006,0.0,0.0,0.0,0.0,0.0
1470076161533648970,0.006,0.0,0.0,0.0,0.0,0.0
1470076161605865649,0.006,0.0,0.0,0.0,0.0,0.0
1470076161680187519,0.006,0.0,0.0,0.0,0.0,0.0
1470076161754562866,0.006,0.0,0.0,0.0,0.0,0.0
1470076161831290202,0.006,0.0,0.0,0.0,0.0,0.0
1470076161904562634,0.0,0.0,0.0,0.0,0.0,0.00471291859591
1470076161978294248,0.006,0.0,0.0,0.0,0.0,0.0
1470076162049399737,0.006,0.0,0.0,0.0,0.0,0.0
1470076162122574604,0.006,0.0,0.0,0.0,0.0,0.0
1470076162199689391,0.006,0.0,0.0,0.0,0.0,0.0
1470076162277181471,0.006,0.0,0.0,0.0,0.0,0.0
1470076162360248123,0.006,0.0,0.0,0.0,0.0,0.0
1470076162434975587,0.006,0.0,0.0,0.0,0.0,0.0
1470076162508376713,0.006,0.0,0.0,0.0,0.0,0.0
1470076162586151550,0.006,0.0,0.0,0.0,0.0,0.0
1470076162663421197,0.006,0.0,0.0,0.0,0.0,0.0
1470076162736006817,0.006,0.0,0.0,0.0,0.0,0.0
1470076162809540664,0.006,0.0,0.0,0.0,0.0,0.0
1470076162885514364,0.006,0.0,0.0,0.0,0.0,0.0
1470076162961679040,0.0,0.0,0.0,0.0,0.0,0.00349458657879
1470076163041474803,0.006,0.0,0.0,0.0,0.0,0.0
1470076163115392218,0.0,0.0,0.0,0.0,0.0,0.00306178993638
1470076163189099444,0.0,0.0,0.0,0.0,0.0,0.00328755457592
1470076163263485024,0.006,0.0,0.0,0.0,0.0,0.0
1470076163342387473,0.006,0.0,0.0,0.0,0.0,0.0
1470076163419812103,0.006,0.0,0.0,0.0,0.0,0.0
1470076163490788863,0.006,0.0,0.0,0.0,0.0,0.0
1470076163564383215,0.006,0.0,0.0,0.0,0.0,0.0
1470076163642442754,0.006,0.0,0.0,0.0,0.0,0.0
1470076163715677579,0.006,0.0,0.0,0.0,0.0,0.0
1470076163789387836,0.006,0.0,0.0,0.0,0.0,0.0
1470076163860933805,0.006,0.0,0.0,0.0,0.0,0.0
1470076163940951958,0.006,0.0,0.0,0.0,0.0,0.0
1470076164016083117,0.006,0.0,0.0,0.0,0.0,0.0
1470076164088819865,0.0,0.0,0.0,0.0,0.0,0.00326918921506
1470076164163745430,0.006,0.0,0.0,0.0,0.0,0.0
1470076164238753927,0.006,0.0,0.0,0.0,0.0,0.0
1470076164310504104,0.006,0.0,0.0,0.0,0.0,0.0
1470076164385831588,0.006,0.0,0.0,0.0,0.0,0.0
1470076164469101170,0.006,0.0,0.0,0.0,0.0,0.0
1470076164546437502,0.006,0.0,0.0,0.0,0.0,0.0
1470076164626630789,0.006,0.0,0.0,0.0,0.0,0.0
1470076164704242276,0.006,0.0,0.0,0.0,0.0,0.0
1470076164784747011,0.006,0.0,0.0,0.0,0.0,0.0
1470076164861640694,0.006,0.0,0.0,0.0,0.0,0.0
1470076164935281424,0.0,0.0,0.0,0.0,0.0,0.00308465550572
1470076165013371684,0.0,0.0,0.0,0.0,0.0,0.00364079916127
1470076165085677391,0.006,0.0,0.0,0.0,0.0,0.0
1470076165160098891,0.0,0.0,0.0,0.0,0.0,0.0031029428785
1470076165232897458,0.0,0.0,0.0,0.0,0.0,0.00334957986177
1470076165303713569,0.0,0.0,0.0,0.0,0.0,0.00359683715384
1470076165375778482,0.0,0.0,0.0,0.0,0.0,0.00376253044476
1470076165454029226,0.006,0.0,0.0,0.0,0.0,0.0
1470076165531366487,0.006,0.0,0.0,0.0,0.0,0.0
1470076165603024647,0.0,0.0,0.0,0.0,0.0,0.00306814890062
1470076165679014394,0.0,0.0,0.0,0.0,0.0,0.00418118311151
1470076165755879336,0.0,0.0,0.0,0.0,0.0,0.00500863535051
1470076165829613048,0.0,0.0,0.0,0.0,0.0,0.00490770864326
1470076165901601685,0.0,0.0,0.0,0.0,0.0,0.00329665104846
1470076165975479599,0.0,0.0,0.0,0.0,0.0,0.00334766442257
1470076166047065559,0.006,0.0,0.0,0.0,0.0,0.0
1470076166122810779,0.006,0.0,0.0,0.0,0.0,0.0
1470076166195800327,0.006,0.0,0.0,0.0,0.0,0.0
1470076166279785269,0.006,0.0,0.0,0.0,0.0,0.0
1470076166355074132,0.006,0.0,0.0,0.0,0.0,0.0
1470076166429898908,0.0,0.0,0.0,0.0,0.0,0.00281681787505
1470076166502948436,0.0,0.0,0.0,0.0,0.0,0.00330328955752
1470076166579668646,0.006,0.0,0.0,0.0,0.0,0.0
1470076166658636228,0.006,0.0,0.0,0.0,0.0,0.0
1470076166732453171,0.006,0.0,0.0,0.0,0.0,0.0
1470076166804209582,0.006,0.0,0.0,0.0,0.0,0.0
1470076166881553927,0.0,0.0,0.0,0.0,0.0,0.00323685336515
1470076166960013310,0.006,0.0,0.0,0.0,0.0,0.0
1470076167028861723,0.006,0.0,0.0,0.0,0.0,0.0
1470076167102354619,0.006,0.0,0.0,0.0,0.0,0.0
1470076167178167848,0.006,0.0,0.0,0.0,0.0,0.0
1470076167247408705,0.006,0.0,0.0,0.0,0.0,0.0
1470076167322778531,0.006,0.0,0.0,0.0,0.0,0.0
1470076167396230249,0.006,0.0,0.0,0.0,0.0,0.0
1470076167468547009,0.006,0.0,0.0,0.0,0.0,0.0
1470076167542884317,0.006,0.0,0.0,0.0,0.0,0.0
