%time,field.position.x,field.position.y,field.position.z,field.orientation.x,field.orientation.y,field.orientation.z,field.orientation.w
1471704474627462083,-0.027903219685,0.0193227268755,1.37054812908,1.53652274609,-0.174040988088,3.11319589615,0.0
1471704474752626585,-0.0281013399363,0.0194000396878,1.37521111965,1.53752946854,-0.146961569786,3.10280442238,0.0
1471704474836745109,-0.0284315422177,0.0192525051534,1.37626540661,1.5391330719,0.0949622988701,-3.0768969059,0.0
1471704474909282402,-0.0284011829644,0.0192849822342,1.37404835224,1.54041337967,0.105937421322,-3.07319498062,0.0
1471704474988564556,-0.0283827409148,0.0192620810121,1.37692213058,1.53807377815,0.103433780372,-3.10621142387,0.0
1471704475064190656,-0.0280589833856,0.0194153543562,1.37361860275,1.53828144073,-0.156713023782,3.09959983826,0.0
1471704475136708025,-0.0284315422177,0.0192525051534,1.37626540661,1.5391330719,0.0949622988701,-3.0768969059,0.0
1471704475219890920,-0.0284136161208,0.0192745476961,1.37691903114,1.53908395767,0.0985031276941,-3.08712363243,0.0
1471704475295389110,-0.0279136169702,0.0195296928287,1.36128973961,1.54609823227,-0.196703419089,3.05099892616,0.0
1471704475376171798,-0.0278455577791,0.0186892673373,1.37683868408,1.5520324707,-0.154468044639,3.00415587425,0.0
1471704475449003868,-0.0270664542913,0.0118773775175,1.37603843212,1.57058084011,-0.0184233728796,2.92988657951,0.0
1471704475526655048,-0.0269233584404,-0.0031348078046,1.37300634384,1.56859719753,-0.0278833638877,2.81095767021,0.0
1471704475607763799,-0.0270325299352,-0.0153916385025,1.35979962349,1.56305968761,0.0375849269331,-3.01295351982,0.0
1471704475688034261,-0.0265873894095,-0.0182428881526,1.31961286068,1.56852138042,0.182916492224,-2.99483466148,0.0
1471704475767162327,-0.0262260250747,-0.0203883741051,1.30949246883,1.56744217873,0.17494828999,-2.95915222168,0.0
1471704475843892651,-0.0255061350763,-0.0208089984953,1.29031252861,1.57480180264,-0.17644892633,2.99685120583,0.0
1471704475918528996,-0.0255555845797,-0.0211110338569,1.29818534851,1.57079637051,0.000301205727737,-3.14141392708,0.0
1471704475993558593,-0.0253877304494,-0.0211208965629,1.29557335377,1.56810498238,-0.0944315344095,-3.10611176491,0.0
1471704476072684610,-0.0241848602891,-0.0235682055354,1.2593960762,1.57632255554,-0.218859985471,3.02267098427,0.0
1471704476157283478,-0.0241723880172,-0.0278458725661,1.25792658329,1.57406592369,-0.208820730448,3.00158381462,0.0
1471704476231717423,-0.023853873834,-0.0317940637469,1.24496209621,1.5707821846,-0.18752540648,2.9559032917,0.0
1471704476327985454,-0.0240456219763,-0.040520530194,1.23658788204,1.56364047527,0.0289206467569,-2.96820473671,0.0
1471704476406745169,-0.0241414848715,-0.0452680066228,1.22898328304,1.56764912605,0.0411901473999,-3.09183502197,0.0
1471704476484929748,-0.0239734984934,-0.049264613539,1.22717821598,1.57145273685,-0.0784402042627,3.03882217407,0.0
1471704476558717402,-0.0230657942593,-0.0570664741099,1.20684361458,1.56422305107,-0.108382031322,2.96445226669,0.0
1471704476634279838,-0.0232449956238,-0.0609055608511,1.18466520309,1.55730390549,0.16909866035,-3.04678750038,0.0
1471704476710252799,-0.0228217169642,-0.0566893443465,1.17669415474,1.55824279785,0.0296671316028,-3.00334811211,0.0
1471704476790941790,-0.0227488707751,-0.0533969886601,1.16901683807,1.5536634922,0.0494037084281,-3.09974598885,0.0
1471704476865278375,-0.0218535140157,-0.0543773919344,1.13899505138,1.5799959898,-0.200034633279,3.00139164925,0.0
1471704476941223915,-0.0216472558677,-0.0541936978698,1.13465476036,1.57697355747,-0.184706479311,2.97037911415,0.0
1471704477019436478,-0.0219197720289,-0.0552193708718,1.12419557571,1.54264080524,0.152847722173,-3.13352394104,0.0
1471704477092739080,-0.0217626616359,-0.0556227490306,1.11810183525,1.56076741219,0.00342700700276,-3.0041437149,0.0
1471704477172464898,-0.0218628291041,-0.0571371465921,1.10431969166,1.54839074612,0.104074344039,2.97960972786,0.0
1471704477248644767,-0.021585976705,-0.058009237051,1.09197640419,1.55290424824,0.157955646515,3.08134460449,0.0
1471704477329479604,-0.0207005776465,-0.0591021776199,1.0860170126,1.5717113018,-0.158837884665,2.9789545536,0.0
1471704477407439900,-0.0203607622534,-0.0588152073324,1.06409525871,1.56962704659,-0.196390703321,3.01113438606,0.0
1471704477486665733,-0.0208224188536,-0.0590047128499,1.05913984776,1.56695830822,0.0792958885431,-3.0856616497,0.0
1471704477566115566,-0.0208918005228,-0.0607644356787,1.06271898746,1.5678627491,-0.0133952246979,3.05315804482,0.0
1471704477645856898,-0.0202574338764,-0.0609809421003,1.03822481632,1.55022704601,-0.1501981318,3.09506654739,0.0
1471704477724423883,-0.0208470448852,-0.058836184442,1.02344584465,1.54367589951,0.100923813879,3.01451086998,0.0
1471704477804781301,-0.0201490260661,-0.0561535693705,1.01621258259,1.57366800308,-0.145967677236,2.97906327248,0.0
1471704477883511774,-0.0195890311152,-0.0545048750937,1.00133824348,1.56180000305,-0.174130529165,-3.12604117393,0.0
1471704477964919152,-0.0203427504748,-0.0559261329472,0.994242012501,1.56859219074,-0.0328841134906,3.02784204483,0.0
1471704478042357222,-0.0198603477329,-0.0556676834822,0.985505580902,1.56776928902,-0.108687974513,2.99214935303,0.0
1471704478122664442,-0.0191712807864,-0.0519555956125,0.96944475174,1.57554149628,-0.145444437861,2.96986103058,0.0
1471704478198715208,-0.0194368008524,-0.0487571768463,0.958883821964,1.55381417274,-0.0711262300611,-3.06698846817,0.0
1471704478277102455,-0.0189914852381,-0.0455825552344,0.941410779953,1.56389260292,-0.187107980251,-3.11521840096,0.0
1471704478355340205,-0.0194470938295,-0.0451004356146,0.937760829926,1.5460050106,-0.0609486028552,-3.09137868881,0.0
1471704478434980787,-0.0192082095891,-0.04366992414,0.922397851944,1.56652009487,-0.13925203681,3.02955365181,0.0
1471704478510504342,-0.0191704519093,-0.0430815853179,0.906803429127,1.55026245117,0.140346601605,3.12503170967,0.0
1471704478590796355,-0.0191990956664,-0.042311463505,0.899554073811,1.56954014301,-0.0271259080619,3.13925433159,0.0
1471704478666253308,-0.0192032326013,-0.0411644913256,0.887296438217,1.55103194714,0.147496819496,3.04446387291,0.0
1471704478741958122,-0.0183694455773,-0.0403748601675,0.871660590172,1.56543600559,-0.196328774095,3.01865148544,0.0
1471704478822114946,-0.0184276457876,-0.040352191776,0.862904429436,1.57654154301,-0.143864959478,2.98657417297,0.0
1471704478899501976,-0.0182470530272,-0.0406840518117,0.85735720396,1.56069648266,-0.127193883061,-3.12205600739,0.0
1471704478975180510,-0.0186236072332,-0.0398388393223,0.841353714466,1.55008685589,0.0871026292443,3.03880262375,0.0
1471704479046384004,-0.0184298604727,-0.0397487990558,0.834769546986,1.54087269306,0.0694844201207,3.02723455429,0.0
1471704479124040591,-0.0180631987751,-0.0405732430518,0.822658777237,1.56008958817,-0.104813933372,-3.11702179909,0.0
1471704479202382540,-0.0179923065007,-0.0409635566175,0.808133721352,1.54632019997,0.0963935852051,3.03369522095,0.0
1471704479275467128,-0.0174223482609,-0.0402608588338,0.796345770359,1.56567966938,-0.168327331543,3.01170015335,0.0
1471704479352199927,-0.0171132814139,-0.0379297509789,0.784536063671,1.56704592705,-0.171298354864,-3.12852478027,0.0
1471704479429206691,-0.0172428935766,-0.0368337333202,0.778058111668,1.55829226971,-0.131678923965,3.10262703896,0.0
1471704479502918397,-0.0174163207412,-0.0359321832657,0.765309333801,1.54538536072,0.0689189508557,3.00657653809,0.0
1471704479575780392,-0.0172065664083,-0.0355161167681,0.751089572906,1.56348407269,0.0910316929221,-3.07125401497,0.0
1471704479651733115,-0.0170424003154,-0.0348488762975,0.745791137218,1.55034863949,0.0348891690373,2.99660491943,0.0
1471704479730863672,-0.0163210015744,-0.035002220422,0.729157447815,1.55281829834,-0.108603745699,-3.08993625641,0.0
1471704479804699613,-0.0160908810794,-0.0341811515391,0.718824863434,1.57571661472,-0.144434213638,3.00943207741,0.0
1471704479879446920,-0.0165639165789,-0.0340799130499,0.713096022606,1.5507184267,0.00899420771748,3.09772276878,0.0
1471704479956712071,-0.0157576948404,-0.0333207324147,0.699825763702,1.57236230373,-0.134825780988,3.05182266235,0.0
1471704480032750362,-0.0158734004945,-0.033133096993,0.689848303795,1.55953717232,-0.0612396523356,3.05380630493,0.0
1471704480105463226,-0.0152804665267,-0.0321706607938,0.675991475582,1.57105147839,-0.147174492478,3.02334570885,0.0
1471704480181438769,-0.0158889871091,-0.0316621884704,0.667878389359,1.54794502258,0.0563934780657,3.03451371193,0.0
1471704480259656187,-0.015676509589,-0.0312310885638,0.658012986183,1.57127892971,-0.0916058197618,3.01435709,0.0
1471704480336089463,-0.0155408894643,-0.030533157289,0.643502950668,1.56856203079,-0.130494043231,3.07590293884,0.0
1471704480416826597,-0.01594546251,-0.0296464879066,0.634822785854,1.56159925461,-0.0446084327996,3.03572320938,0.0
1471704480492096312,-0.0160133466125,-0.0278632435948,0.623008191586,1.5616543293,0.0602927617729,-3.10064721107,0.0
1471704480571881606,-0.0157464053482,-0.0273129530251,0.608630955219,1.55536222458,0.0965940132737,-3.12075400352,0.0
1471704480646579604,-0.0153362201527,-0.0264842323959,0.600788712502,1.55150926113,0.0433035641909,3.02931880951,0.0
1471704480723693738,-0.01494397223,-0.0264385733753,0.591412127018,1.56386816502,-0.0309325549752,-3.12725329399,0.0
1471704480799654249,-0.0146571584046,-0.0254689380527,0.578526198864,1.56167030334,-0.064176440239,3.1064991951,0.0
1471704480873517553,-0.0147935068235,-0.0246424619108,0.566661655903,1.55382168293,0.0782346501946,-3.13674211502,0.0
1471704480946632119,-0.0143643980846,-0.0239998232573,0.558758080006,1.55608260632,-0.0229980479926,-3.13434386253,0.0
1471704481025005600,-0.01429871656,-0.0229087490588,0.549523115158,1.55603992939,-0.020502153784,3.10557794571,0.0
1471704481103916889,-0.0139145916328,-0.0220571272075,0.535360991955,1.55881381035,-0.0612258091569,3.12157917023,0.0
1471704481176633563,-0.0138424225152,-0.0212771259248,0.525897502899,1.55553674698,-0.0124791003764,3.11464190483,0.0
1471704481256000854,-0.0136182876304,-0.0204349718988,0.515054702759,1.55699384212,0.00931792426854,3.09769654274,0.0
1471704481328842029,-0.0135630564764,-0.0199154317379,0.50500446558,1.55630624294,0.0501191057265,3.07779479027,0.0
1471704481408728430,-0.0133066661656,-0.0189619362354,0.49154818058,1.55593454838,-0.0127658499405,3.09699082375,0.0
1471704481486633833,-0.0132074644789,-0.0177026223391,0.481737047434,1.5586938858,-0.0208263359964,3.05576705933,0.0
1471704481563372634,-0.0128410318866,-0.0167794190347,0.47229629755,1.56380057335,-0.0831032842398,3.08682656288,0.0
1471704481645890874,-0.0126459430903,-0.0150325829163,0.457660585642,1.56360268593,-0.0733301192522,3.06378054619,0.0
1471704481724857662,-0.0122620984912,-0.0140682756901,0.447370231152,1.56630241871,-0.100363194942,3.05635261536,0.0
1471704481796198345,-0.0124472156167,-0.0136536573991,0.438881099224,1.55626726151,-0.00640164595097,3.10570979118,0.0
1471704481868826996,-0.0120419478044,-0.0126121062785,0.424733102322,1.55961728096,-0.0561838485301,3.1178958416,0.0
1471704481946533666,-0.0116947079077,-0.0118349567056,0.414727479219,1.56191647053,-0.0933031663299,3.10188651085,0.0
1471704482025187491,-0.0116860959679,-0.0112192528322,0.405432492495,1.55930304527,-0.0509614907205,3.08953642845,0.0
1471704482100730717,-0.0115650314838,-0.0105385296047,0.391018927097,1.55668914318,-0.00219552544877,3.11959147453,0.0
1471704482174774538,-0.0114067858085,-0.00987488869578,0.38139501214,1.5577981472,-0.0056574838236,3.09779763222,0.0
1471704482250403792,-0.0108063789085,-0.00909331440926,0.371690988541,1.56191885471,-0.0867784321308,3.11072897911,0.0
1471704482329643351,-0.0108976522461,-0.0084054460749,0.362815231085,1.55695950985,-0.0292935296893,3.11463427544,0.0
1471704482404717159,-0.0105501990765,-0.0074710114859,0.34834972024,1.56119251251,-0.0647858157754,3.1113243103,0.0
1471704482484287769,-0.0106475539505,-0.00691206986085,0.338901311159,1.55803239346,-0.0221953745931,3.11089372635,0.0
1471704482559344171,-0.0105239320546,-0.00623325956985,0.329501390457,1.5591224432,-0.0310385469347,3.11739706993,0.0
1471704482634353018,-0.0103830695152,-0.0053213625215,0.315115839243,1.55855309963,-0.0301930271089,3.10411310196,0.0
1471704482707695612,-0.0102091878653,-0.00488725071773,0.305827200413,1.5578956604,-0.0245868787169,3.11816334724,0.0
1471704482785832276,-0.00984119623899,-0.00419704755768,0.296096295118,1.56095457077,-0.0661164671183,3.11178255081,0.0
1471704482862296577,-0.00956385210156,-0.00351785263047,0.281787723303,1.56032371521,-0.0655349642038,3.11457252502,0.0
1471704482942755842,-0.00961609464139,-0.00299171521328,0.272365242243,1.55920529366,-0.0319088101387,3.10619664192,0.0
1471704483018769224,-0.00939397793263,-0.00264109182172,0.263816356659,1.56036138535,-0.0579284578562,3.11187720299,0.0
1471704483091298427,-0.00932240299881,-0.00227136723697,0.257081747055,1.56076467037,-0.0611232854426,3.11209654808,0.0
1471704483167149497,-0.00923583097756,-0.00198808428831,0.251797288656,1.56194865704,-0.0842515751719,3.11121368408,0.0
1471704483242783270,-0.00930440984666,-0.00207224604674,0.252439856529,1.56025910378,-0.0676980093122,3.11267328262,0.0
1471704483316765354,-0.00909331254661,-0.00238515343517,0.253302752972,1.56016588211,-0.0667160898447,3.11126112938,0.0
1471704483390252192,-0.00912222638726,-0.0020365153905,0.250235974789,1.56002700329,-0.0600364804268,3.11775326729,0.0
1471704483462678898,-0.0091536976397,-0.00150313577615,0.248302966356,1.56051325798,-0.0599829033017,3.12471842766,0.0
1471704483538161283,-0.00924401450902,-0.0012542672921,0.248341560364,1.55949294567,-0.0393700487912,3.1283364296,0.0
1471704483608462799,-0.00911292620003,-0.00110121211037,0.248354166746,1.5600810051,-0.0601217076182,3.12680244446,0.0
1471704483682693309,-0.00911311712116,-0.000528812699486,0.248979538679,1.55997228622,-0.0661985352635,3.12938427925,0.0
1471704483754870151,-0.00913897063583,-0.00017490828759,0.248781323433,1.56007015705,-0.0612564943731,3.13051390648,0.0
1471704483826661700,-0.0091238161549,0.000207134478842,0.248593553901,1.55995166302,-0.0634560808539,3.12935781479,0.0
1471704483901218742,-0.00911568105221,0.000589600531384,0.248462349176,1.5598167181,-0.0639792457223,3.13075399399,0.0
1471704483978653078,-0.00910026673228,0.000976450741291,0.248391866684,1.559653759,-0.0663806647062,3.13159775734,0.0
1471704484050474161,-0.00913899671286,0.00148109567817,0.248547047377,1.55989515781,-0.0609580390155,3.1296312809,0.0
1471704484123812884,-0.009112726897,0.00186192349065,0.248421594501,1.55962467194,-0.0634681880474,3.13082790375,0.0
1471704484197996812,-0.00909991003573,0.00225198850967,0.248299360275,1.55930817127,-0.0653136447072,3.13106822968,0.0
1471704484270476141,-0.00898456014693,0.00249000824988,0.248394086957,1.56155991554,-0.0841887593269,3.12709283829,0.0
1471704484347608326,-0.00912853050977,0.0027499597054,0.248491793871,1.55975353718,-0.0624001212418,3.13150978088,0.0
1471704484423813814,-0.00914483051747,0.00316001405008,0.24838155508,1.55964124203,-0.060165181756,3.12959432602,0.0
1471704484496967096,-0.00905824359506,0.00343558588065,0.248159185052,1.56032538414,-0.0725886300206,3.12982845306,0.0
1471704484568159024,-0.00913076288998,0.00359198870137,0.248381882906,1.55951690674,-0.0616727545857,3.12956762314,0.0
1471704484645245505,-0.00905254855752,0.00384364346974,0.248116791248,1.56079411507,-0.0733675211668,3.12785172462,0.0
1471704484718005720,-0.00914757139981,0.00402163108811,0.248317092657,1.55982911587,-0.0598359666765,3.1272110939,0.0
1471704484793013553,-0.0091364774853,0.0043610278517,0.248120754957,1.5594753027,-0.0606812946498,3.12919139862,0.0
1471704484870482839,-0.00915062520653,0.00447805039585,0.248394802213,1.55984544754,-0.0604632161558,3.12778973579,0.0
1471704484949069028,-0.00903802923858,0.00470657972619,0.248128890991,1.56084501743,-0.076353058219,3.12663531303,0.0
1471704485022706473,-0.00913150981069,0.00487634120509,0.248335018754,1.55951368809,-0.062844350934,3.12825536728,0.0
1471704485094198291,-0.00900325085968,0.00509174913168,0.248123317957,1.56184899807,-0.0835468620062,3.12424325943,0.0
1471704485173413898,-0.00915068294853,0.00524390349165,0.248141393065,1.55954968929,-0.0603983961046,3.12757515907,0.0
1471704485249911251,-0.00915020238608,0.00528990151361,0.248276501894,1.55966329575,-0.0614444203675,3.12803912163,0.0
1471704485323103596,-0.0090015521273,0.00549900764599,0.248143240809,1.56156992912,-0.0834522768855,3.12299585342,0.0
1471704485399258404,-0.00917382258922,0.00564908562228,0.248032584786,1.55991482735,-0.0565548762679,3.12600541115,0.0
1471704485475510699,-0.00916848238558,0.00570241268724,0.24815890193,1.55982089043,-0.0588403008878,3.1251103878,0.0
1471704485549645902,-0.00916983187199,0.00575379375368,0.248266384006,1.56002402306,-0.0594338960946,3.12451601028,0.0
1471704485635851629,-0.00904822163284,0.00588342547417,0.248146131635,1.56161892414,-0.0783634409308,3.11886096001,0.0
1471704485709684513,-0.00911088008434,0.00604073749855,0.248006075621,1.56068730354,-0.0679408833385,3.12231445312,0.0
1471704485787272632,-0.00916983187199,0.00610078498721,0.248044908047,1.55993139744,-0.0578147284687,3.12399840355,0.0
1471704485861866364,-0.00917511619627,0.00614345539361,0.248131200671,1.55991280079,-0.0584985017776,3.1234433651,0.0
1471704485933708801,-0.00908803474158,0.00624530110508,0.24817892909,1.56080031395,-0.0725584104657,3.12127161026,0.0
1471704486016322677,-0.00902989786118,0.00631240848452,0.248085528612,1.56154620647,-0.0812611952424,3.11867952347,0.0
1471704486090353603,-0.00901841558516,0.0064131882973,0.247944712639,1.56186950207,-0.0830675810575,3.11771965027,0.0
1471704486163395780,-0.00920468941331,0.0065303388983,0.247965022922,1.56044471264,-0.0541132427752,3.12123417854,0.0
1471704486240185227,-0.0091960541904,0.00656871451065,0.248030617833,1.56033825874,-0.0565035007894,3.1202147007,0.0
1471704486315270594,-0.00919541716576,0.00661319494247,0.248075947165,1.56042659283,-0.0581734105945,3.11780691147,0.0
1471704486392811664,-0.00914694555104,0.00668888539076,0.248090282083,1.56139063835,-0.0659485906363,3.1155102253,0.0
1471704486467545651,-0.00907481927425,0.00676338933408,0.247963100672,1.56228244305,-0.0772804766893,3.11188650131,0.0
1471704486544676948,-0.00904907938093,0.00681394245476,0.247938081622,1.56265044212,-0.0816368311644,3.11209893227,0.0
1471704486620312709,-0.00908579677343,0.0068936785683,0.247885927558,1.56260204315,-0.0764820501208,3.11322426796,0.0
1471704486694116129,-0.00923782587051,0.00701786810532,0.247939959168,1.56090867519,-0.0532074458897,3.11460185051,0.0
1471704486767111477,-0.00922177918255,0.00702433427796,0.247955694795,1.56090962887,-0.0553444288671,3.11505579948,0.0
1471704486846052908,-0.00921960175037,0.00708063365892,0.248035863042,1.56078732014,-0.0565799288452,3.11314058304,0.0
1471704486920181622,-0.00915197748691,0.00712859071791,0.248022571206,1.56154382229,-0.0680639520288,3.11381793022,0.0
1471704486998414791,-0.00909512396902,0.00720257405192,0.248017415404,1.56236720085,-0.0758847817779,3.11259031296,0.0
1471704487075152850,-0.00908260978758,0.00731890182942,0.247935593128,1.56271421909,-0.0783380717039,3.11271190643,0.0
1471704487150481807,-0.00924646854401,0.00744338473305,0.247970059514,1.56075692177,-0.054161798209,3.11593270302,0.0
1471704487229596734,-0.00923588313162,0.00746660819277,0.248016700149,1.56088614464,-0.0553953535855,3.11514234543,0.0
1471704487304030082,-0.00919751543552,0.00750946765766,0.248068794608,1.56106317043,-0.0619719550014,3.11532139778,0.0
1471704487378235827,-0.00908140372485,0.00765458494425,0.248029008508,1.56255888939,-0.0795400515199,3.11294198036,0.0
1471704487452517907,-0.00911302585155,0.00775703368708,0.247969284654,1.56271827221,-0.0742027312517,3.11437344551,0.0
1471704487530127543,-0.00923482887447,0.00793733540922,0.248106271029,1.56084692478,-0.0567751713097,3.11338734627,0.0
1471704487606872902,-0.00911403074861,0.00806020759046,0.248074933887,1.5624679327,-0.075594805181,3.11382269859,0.0
1471704487684905245,-0.00909987837076,0.00815735571086,0.248037576675,1.56304574013,-0.0778588205576,3.11316680908,0.0
1471704487759621324,-0.00925327651203,0.00831102207303,0.248066619039,1.56085276604,-0.054807048291,3.11724209785,0.0
1471704487833514586,-0.00910935830325,0.00851816404611,0.248071685433,1.56280744076,-0.0771931782365,3.11479306221,0.0
1471704487909956542,-0.0091172484681,0.00860984623432,0.248063206673,1.56285738945,-0.0760731771588,3.11431670189,0.0
1471704487987298084,-0.00924702547491,0.00875033810735,0.248086899519,1.56064414978,-0.0566337518394,3.11641669273,0.0
1471704488066172412,-0.00908999610692,0.00895192753524,0.248014047742,1.56263363361,-0.0799885690212,3.11500740051,0.0
1471704488142542342,-0.00926953461021,0.00910206139088,0.247976467013,1.56121981144,-0.052090741694,3.11839365959,0.0
1471704488217258194,-0.00926382374018,0.00917909294367,0.248103633523,1.56085789204,-0.0539403744042,3.11724257469,0.0
1471704488290700339,-0.00916594266891,0.00928158592433,0.248144552112,1.56184983253,-0.0693297386169,3.11612844467,0.0
1471704488368419216,-0.00914274156094,0.00947879720479,0.248061969876,1.56244075298,-0.0723374933004,3.11610627174,0.0
1471704488444064075,-0.00925623811781,0.00959529262036,0.248072966933,1.56075334549,-0.0549061782658,3.11818242073,0.0
1471704488522390657,-0.00918588414788,0.00966844055802,0.248128846288,1.56161832809,-0.0664368718863,3.11806106567,0.0
1471704488601272918,-0.00912404246628,0.00984536483884,0.248081311584,1.56295931339,-0.075435295701,3.11638641357,0.0
1471704488676788121,-0.00926415994763,0.00997540727258,0.248010680079,1.56094479561,-0.0530709177256,3.1185529232,0.0
1471704488754860647,-0.00919503439218,0.0100580612198,0.24807280302,1.56118047237,-0.0646200701594,3.11790037155,0.0
1471704488831332018,-0.00912141893059,0.010155945085,0.248058646917,1.5619686842,-0.0762443616986,3.116792202,0.0
1471704488909411496,-0.00914013758302,0.0102905994281,0.248041197658,1.56275379658,-0.0727051571012,3.11732244492,0.0
1471704488984774564,-0.00927729997784,0.0104010663927,0.248003020883,1.56079649925,-0.0516344644129,3.1199157238,0.0
1471704489061814780,-0.00923000928015,0.0104661844671,0.248081892729,1.56098079681,-0.0588776580989,3.11879682541,0.0
1471704489139569237,-0.00923033989966,0.0104666631669,0.248042285442,1.56114947796,-0.0580181144178,3.11743950844,0.0
1471704489213722181,-0.00915506575257,0.0105497678742,0.248064950109,1.56179666519,-0.0710060149431,3.11790013313,0.0
1471704489287535339,-0.00914258789271,0.0105886571109,0.248083755374,1.56250751019,-0.0730821788311,3.11804246902,0.0
1471704489362644649,-0.00912377331406,0.0106971003115,0.248005628586,1.56273412704,-0.0743150785565,3.11500406265,0.0
1471704489438725281,-0.00911734253168,0.0106934187934,0.24799990654,1.56268191338,-0.0747753679752,3.11588358879,0.0
1471704489512891267,-0.00926021300256,0.0108143612742,0.247937649488,1.56092846394,-0.051608517766,3.11858296394,0.0
1471704489584474192,-0.00914531201124,0.0109658166766,0.24801081419,1.56151795387,-0.0691957250237,3.1155192852,0.0
1471704489656613038,-0.00908543355763,0.0110705150291,0.247958466411,1.56246995926,-0.0772015452385,3.11359834671,0.0
1471704489728543628,-0.00909888930619,0.0111507903785,0.247960418463,1.56249344349,-0.0741165354848,3.1141371727,0.0
1471704489800342029,-0.00916482694447,0.0112321190536,0.247912719846,1.56139802933,-0.0640678852797,3.11406064034,0.0
1471704489878501669,-0.00910508353263,0.0111972494051,0.248134419322,1.56244003773,-0.0780126079917,3.11442780495,0.0
1471704489951955993,-0.00912876613438,0.0111922826618,0.248800545931,1.56063580513,-0.0806932896376,3.11552166939,0.0
1471704490027007636,-0.00915334746242,0.0111620407552,0.250148028135,1.56127822399,-0.0833377540112,3.11583399773,0.0
1471704490099621826,-0.00920949596912,0.0111450096592,0.2506108284,1.56173694134,-0.0757172033191,3.11188411713,0.0
1471704490180321061,-0.00926411338151,0.011075428687,0.250634253025,1.56106221676,-0.0685635283589,3.11398530006,0.0
1471704490260437198,-0.00930835213512,0.0110419550911,0.250700056553,1.56082189083,-0.0649719685316,3.11555552483,0.0
1471704490341788549,-0.00926222931594,0.0109770223498,0.250880092382,1.56128537655,-0.0785701200366,3.11061310768,0.0
1471704490419227509,-0.00933836773038,0.0111299483106,0.250955820084,1.56044232845,-0.0641547441483,3.11008930206,0.0
1471704490494826816,-0.00936099234968,0.0115179494023,0.251018345356,1.56077337265,-0.059171680361,3.1110625267,0.0
1471704490566670684,-0.00921430625021,0.0121088400483,0.250740855932,1.56243908405,-0.0755740702152,3.10991883278,0.0
1471704490645606357,-0.00924700126052,0.012299740687,0.250506848097,1.56083405018,-0.0694931894541,3.11583089828,0.0
1471704490723017396,-0.00914486497641,0.0124180382118,0.250278502703,1.56095671654,-0.0822507739067,3.11234426498,0.0
1471704490800772257,-0.00915043335408,0.0124425971881,0.250033706427,1.5610640049,-0.0821433141828,3.11437988281,0.0
1471704490878296662,-0.00918066874146,0.0124802244827,0.24983780086,1.56043505669,-0.0775939375162,3.11418175697,0.0
1471704490956335964,-0.00921125710011,0.0125138228759,0.249557182193,1.55953681469,-0.0694126784801,3.11532878876,0.0
1471704491037620388,-0.00915646739304,0.012538202107,0.249257534742,1.55974853039,-0.0787903666496,3.11644101143,0.0
1471704491111889307,-0.00923466309905,0.0128250261769,0.248443320394,1.56138074398,-0.0678580105305,3.10780596733,0.0
1471704491201176861,-0.00916637014598,0.0128650665283,0.248227223754,1.5621150732,-0.0748839527369,3.10944890976,0.0
1471704491273460514,-0.00916034169495,0.0129052381963,0.247856274247,1.56155908108,-0.0718757584691,3.11877131462,0.0
1471704491357404666,-0.00912050250918,0.0129710137844,0.247360736132,1.56116473675,-0.0755524635315,3.11895036697,0.0
1471704491438413851,-0.00909079704434,0.0130267310888,0.247029036283,1.56111121178,-0.0803435668349,3.11589789391,0.0
1471704491513308493,-0.00918636936694,0.0131451142952,0.246182233095,1.56096839905,-0.0689013451338,3.11018800735,0.0
1471704491591125458,-0.00913998484612,0.0131526412442,0.245868176222,1.56127667427,-0.07398635149,3.10898852348,0.0
1471704491671758885,-0.0090845907107,0.0131437387317,0.24558275938,1.56140673161,-0.0784513652325,3.11155176163,0.0
1471704491750179868,-0.00902914907783,0.0131580503657,0.244995132089,1.56165015697,-0.078708730638,3.11706328392,0.0
1471704491824705416,-0.00911080278456,0.0131602492183,0.244642242789,1.56060373783,-0.0695658996701,3.12293100357,0.0
1471704491914242800,-0.00909209065139,0.0132731571794,0.243942409754,1.56224477291,-0.0752074867487,3.10688948631,0.0
1471704491996690942,-0.00906552374363,0.0133409546688,0.243699088693,1.5618366003,-0.0778958052397,3.10586571693,0.0
1471704492071703921,-0.00910760927945,0.0133553612977,0.243399113417,1.56101167202,-0.069434016943,3.11209201813,0.0
1471704492149479526,-0.00905162468553,0.0133353555575,0.243025451899,1.56070661545,-0.0762038379908,3.11383700371,0.0
1471704492225334510,-0.00902736186981,0.0133264521137,0.242798238993,1.5610203743,-0.0787421017885,3.11407542229,0.0
1471704492303548310,-0.0089898603037,0.0132710728794,0.242283627391,1.56057059765,-0.0807704031467,3.11803865433,0.0
1471704492378984096,-0.00900992006063,0.0132781974971,0.241921827197,1.56208395958,-0.0788010656834,3.11484956741,0.0
1471704492450688754,-0.0090000750497,0.013279597275,0.241564005613,1.5625128746,-0.0799372494221,3.11149477959,0.0
1471704492537106564,-0.00902923569083,0.0132817421108,0.24112790823,1.56095516682,-0.0731021016836,3.11430072784,0.0
1471704492616408800,-0.00904633942991,0.0132427737117,0.240997493267,1.56087112427,-0.0690977945924,3.11589884758,0.0
1471704492691512090,-0.00905049405992,0.0132169378921,0.240835770965,1.56084656715,-0.0691095069051,3.1161839962,0.0
1471704492765853635,-0.00900922808796,0.0131680062041,0.240533873439,1.56055343151,-0.0739790722728,3.115650177,0.0
1471704492844883691,-0.00898335501552,0.0131102278829,0.240036800504,1.56008303165,-0.0772695988417,3.11486196518,0.0
1471704492923121150,-0.00900432933122,0.0131548047066,0.239624887705,1.56161284447,-0.0765623226762,3.10479879379,0.0
1471704493004906218,-0.00892213266343,0.0131028359756,0.239055842161,1.56194627285,-0.0826630368829,3.11253523827,0.0
1471704493084005761,-0.00896970182657,0.0131232468411,0.238633275032,1.56081581116,-0.07227306813,3.1175763607,0.0
1471704493165377941,-0.00895258411765,0.0131233567372,0.238377451897,1.56097352505,-0.0727166458964,3.11683058739,0.0
1471704493243814639,-0.00893964711577,0.0131018878892,0.238049060106,1.56073379517,-0.0764936506748,3.11791491508,0.0
1471704493324599567,-0.00895840022713,0.0131741464138,0.237218081951,1.56155741215,-0.0765531361103,3.10581374168,0.0
1471704493400701020,-0.00898159760982,0.0131534570828,0.236906573176,1.56062400341,-0.069907002151,3.11236548424,0.0
1471704493473274573,-0.00892010517418,0.0131255555898,0.23641294241,1.56061756611,-0.0748175233603,3.11614322662,0.0
1471704493561718787,-0.0088902907446,0.0130808101967,0.236107930541,1.56052911282,-0.0772013962269,3.11961936951,0.0
1471704493636971356,-0.00886855181307,0.0131343714893,0.23559679091,1.5616863966,-0.0832810923457,3.1114089489,0.0
1471704493711877191,-0.00892761349678,0.0132047580555,0.235161334276,1.56168460846,-0.075847774744,3.10798239708,0.0
1471704493787024334,-0.00897310115397,0.0132451429963,0.235141947865,1.56119704247,-0.0695499330759,3.10912466049,0.0
1471704493862681488,-0.00898134708405,0.0132623147219,0.235184654593,1.56116712093,-0.0709767788649,3.11304926872,0.0
1471704493940028543,-0.008957718499,0.0132663687691,0.235082104802,1.5611076355,-0.074069686234,3.111784935,0.0
1471704494016461447,-0.00892930012196,0.0130848316476,0.234742000699,1.56130111217,-0.0728342980146,3.11384773254,0.0
1471704494095795946,-0.00883339252323,0.0129364421591,0.234475389123,1.56122672558,-0.0867749974132,3.11192083359,0.0
1471704494169177496,-0.00885325204581,0.0128409219906,0.23426514864,1.56114804745,-0.0831996500492,3.11343646049,0.0
1471704494246728436,-0.00884589366615,0.0127067808062,0.233742639422,1.56105804443,-0.0834385603666,3.11120629311,0.0
1471704494324943267,-0.00886506214738,0.0126567538828,0.233169183135,1.5621035099,-0.0800089016557,3.10482335091,0.0
1471704494404089424,-0.00883361324668,0.0125348931178,0.23275539279,1.56209993362,-0.0795354172587,3.11094427109,0.0
1471704494484492391,-0.00879941415042,0.0124878175557,0.232369482517,1.56141257286,-0.0834327861667,3.11246466637,0.0
1471704494558888575,-0.00885252840817,0.0124664735049,0.232019513845,1.56043970585,-0.0748960524797,3.11342382431,0.0
1471704494635173233,-0.00889480486512,0.0124769667163,0.231517598033,1.56066501141,-0.0714455470443,3.1073513031,0.0
1471704494709167409,-0.00884834025055,0.0124616036192,0.231017917395,1.56140601635,-0.0744970142841,3.10532474518,0.0
1471704494788159048,-0.00876911170781,0.0124074369669,0.230638697743,1.56139981747,-0.080632917583,3.11157536507,0.0
1471704494864548289,-0.0087829772383,0.0123736243695,0.230121999979,1.56096637249,-0.0776318460703,3.11712622643,0.0
1471704494940521036,-0.00883258506656,0.0123849390075,0.229678675532,1.56018018723,-0.0711830332875,3.11476445198,0.0
1471704495016941913,-0.0088169677183,0.0124336257577,0.229171693325,1.56128323078,-0.0748620405793,3.10359334946,0.0
1471704495089673305,-0.00876666232944,0.0124100418761,0.228894814849,1.56125998497,-0.080272205174,3.10653066635,0.0
1471704495163135427,-0.00871468521655,0.0124095603824,0.228280484676,1.56091880798,-0.0823587179184,3.10788273811,0.0
1471704495236807222,-0.00880553200841,0.0123735591769,0.227988004684,1.5602158308,-0.0688700526953,3.11573219299,0.0
1471704495311140988,-0.00882235076278,0.0123847704381,0.227456226945,1.56192612648,-0.0691786780953,3.1087539196,0.0
1471704495389649244,-0.00872876029462,0.0123713742942,0.226902291179,1.56163156033,-0.0797700062394,3.10961318016,0.0
1471704495464593378,-0.00869437586516,0.0123964836821,0.226563721895,1.56108772755,-0.0815452262759,3.10857510567,0.0
1471704495545031931,-0.00874448474497,0.0123864654452,0.226201713085,1.56014871597,-0.073723860085,3.11194682121,0.0
1471704495621973847,-0.00876854360104,0.0124151594937,0.225722581148,1.56100583076,-0.0726870447397,3.10569596291,0.0
1471704495693704186,-0.00868229474872,0.0124171189964,0.225128889084,1.56199026108,-0.0822110325098,3.10518050194,0.0
1471704495770992006,-0.00870284158736,0.0123829608783,0.224799722433,1.56126654148,-0.0758324414492,3.11327052116,0.0
1471704495853449229,-0.00874022394419,0.0123957833275,0.224492564797,1.56053030491,-0.0710592493415,3.11215162277,0.0
1471704495939074440,-0.0087105864659,0.0123935658485,0.224104389548,1.56058657169,-0.0758351460099,3.11179018021,0.0
1471704496013842928,-0.00867847632617,0.0124476468191,0.22334985435,1.56171798706,-0.0793683454394,3.10227370262,0.0
1471704496085998820,-0.00870930682868,0.0124549409375,0.223039507866,1.56066727638,-0.0722826644778,3.10710120201,0.0
1471704496161896737,-0.00867494381964,0.0124176563695,0.22273029387,1.56041204929,-0.0738626644015,3.11105728149,0.0
1471704496238902854,-0.00864022411406,0.0124314995483,0.22205016017,1.56176626682,-0.0817896351218,3.10867500305,0.0
1471704496312534396,-0.00865287147462,0.0124892164022,0.221586465836,1.56198620796,-0.0793843865395,3.10330963135,0.0
1471704496390933044,-0.00868142396212,0.0124813430011,0.221190407872,1.56058633327,-0.0733414813876,3.10823822021,0.0
1471704496469199119,-0.00861518457532,0.0124847926199,0.220742970705,1.56091463566,-0.0810556411743,3.10653471947,0.0
1471704496544211801,-0.00863157585263,0.0124875968322,0.220326140523,1.56123709679,-0.0782400295138,3.10880637169,0.0
1471704496618467234,-0.00873166322708,0.0125314835459,0.21987195313,1.56166160107,-0.0652230456471,3.10597276688,0.0
1471704496694918837,-0.00859989598393,0.0125249624252,0.21939650178,1.56140017509,-0.0791998133063,3.10828518867,0.0
1471704496769372023,-0.00857483409345,0.0125174773857,0.219079419971,1.56125295162,-0.0828906968236,3.1103925705,0.0
1471704496842708428,-0.00864557269961,0.0125348418951,0.218717202544,1.5599386692,-0.0717120394111,3.11450743675,0.0
1471704496925273919,-0.00865751225501,0.0126215778291,0.218143060803,1.56128370762,-0.0727122873068,3.10010671616,0.0
1471704497003227330,-0.00859315134585,0.0125847542658,0.217686489224,1.5612834692,-0.0780139937997,3.10799598694,0.0
1471704497074503760,-0.00865197740495,0.0125840753317,0.217306777835,1.56040239334,-0.0672966465354,3.11289739609,0.0
1471704497153255549,-0.00863029807806,0.0125768473372,0.216915354133,1.56098353863,-0.072177991271,3.11154675484,0.0
1471704497227388932,-0.00861411262304,0.0126325823367,0.216418787837,1.56237316132,-0.0755721107125,3.10260725021,0.0
1471704497304934117,-0.00860538426787,0.012618644163,0.215922996402,1.56108605862,-0.074388794601,3.10886073112,0.0
1471704497380863472,-0.00860510859638,0.0126161240041,0.215608790517,1.56079876423,-0.0716692209244,3.11144423485,0.0
1471704497456949352,-0.00861176848412,0.012658059597,0.215073212981,1.5621881485,-0.0742678493261,3.10572290421,0.0
1471704497527441783,-0.00858865305781,0.0126541182399,0.214579120278,1.56156027317,-0.0750516057014,3.11027169228,0.0
1471704497604079361,-0.00860428251326,0.0126640200615,0.21425114572,1.56059849262,-0.071747854352,3.11074471474,0.0
1471704497676994270,-0.00853725615889,0.0126908868551,0.213761821389,1.56094360352,-0.0788636803627,3.10742092133,0.0
1471704497753505732,-0.00857115443796,0.0127023588866,0.211952105165,1.56058955193,-0.0606116726995,3.11518788338,0.0
1471704497826060686,-0.00851685553789,0.012669108808,0.210025534034,1.56130111217,-0.0701333582401,3.12222862244,0.0
1471704497904059831,-0.00851110368967,0.0129747223109,0.20929095149,1.56153261662,-0.0642090216279,3.1105632782,0.0
1471704497978605971,-0.00850870832801,0.013160138391,0.209168881178,1.56166219711,-0.062606588006,3.11421203613,0.0
1471704498053892027,-0.00850636977702,0.0133453356102,0.210189297795,1.56068885326,-0.0665850788355,3.12226247787,0.0
1471704498132464087,-0.00846384931356,0.0136484224349,0.210002586246,1.5601965189,-0.0658027902246,3.12064480782,0.0
1471704498208871154,-0.00842924974859,0.0138713382185,0.209587693214,1.56035614014,-0.0630570352077,3.123888731,0.0
1471704498281882953,-0.00841100793332,0.0140430210158,0.208600878716,1.56131505966,-0.0596001110971,3.11523151398,0.0
1471704498361927618,-0.00832038465887,0.0141247818246,0.208543866873,1.5615041256,-0.0680594369769,3.11261177063,0.0
1471704498441267932,-0.00824805535376,0.0141663821414,0.208433374763,1.5616518259,-0.0700401589274,3.11118340492,0.0
1471704498513605225,-0.00816203467548,0.0141474911943,0.208531916142,1.56099176407,-0.0745137631893,3.11979627609,0.0
1471704498587625653,-0.00820429716259,0.0144007876515,0.208079606295,1.56199872494,-0.0693118497729,3.11589741707,0.0
1471704498666219322,-0.00821120478213,0.0142299486324,0.206138089299,1.56044459343,-0.0722383335233,3.11872625351,0.0
1471704498745076546,-0.00818946305662,0.0142328999937,0.205774009228,1.56082642078,-0.0768494009972,3.11831688881,0.0
1471704498823479100,-0.00828803610057,0.014191782102,0.205829069018,1.56090974808,-0.0715423673391,3.1139061451,0.0
1471704498898176817,-0.00821782276034,0.0141695989296,0.205980554223,1.56047570705,-0.073862656951,3.11961936951,0.0
1471704498976364844,-0.00822526961565,0.0141795910895,0.206091061234,1.56018793583,-0.0734056010842,3.11665534973,0.0
1471704499050427425,-0.00823760963976,0.0142155168578,0.206729874015,1.56126642227,-0.0753818377852,3.11301875114,0.0
1471704499123043689,-0.00823943316936,0.0142063684762,0.206928133965,1.56144273281,-0.0750421658158,3.11156845093,0.0
1471704499195249893,-0.00822890084237,0.0141804497689,0.206411018968,1.5611307621,-0.07209982723,3.11157655716,0.0
1471704499267572335,-0.0082409447059,0.0141481608152,0.2061624825,1.56057882309,-0.0764175653458,3.11324858665,0.0
1471704499343058854,-0.00825761817396,0.0141679691151,0.205991208553,1.560744524,-0.0736369043589,3.1110033989,0.0
1471704499418747679,-0.00829885434359,0.0141459275037,0.205593392253,1.56111657619,-0.0690203383565,3.10785984993,0.0
1471704499495157825,-0.00827082432806,0.0141340894625,0.205614358187,1.56150126457,-0.0731056630611,3.10577607155,0.0
1471704499573658711,-0.00827821157873,0.0140852574259,0.205384671688,1.56117093563,-0.0691410526633,3.10961127281,0.0
1471704499649211625,-0.00822992715985,0.0140206282958,0.205063760281,1.5612308979,-0.0725241228938,3.11270642281,0.0
1471704499723777295,-0.00820353161544,0.0140087408945,0.204828113317,1.56132900715,-0.0740720331669,3.1138689518,0.0
1471704499798527711,-0.00826435443014,0.0140401627868,0.203937247396,1.56116819382,-0.0669183880091,3.10674858093,0.0
1471704499870635564,-0.00823004543781,0.0140323191881,0.203744471073,1.56080937386,-0.0711684003472,3.10878419876,0.0
1471704499946689979,-0.00819429010153,0.0140224630013,0.203546047211,1.56093668938,-0.0749236047268,3.11130356789,0.0
1471704500020670049,-0.00825115013868,0.0140621736646,0.202741354704,1.56148481369,-0.0681984201074,3.108273983,0.0
1471704500094479649,-0.00821819715202,0.0140734063461,0.202483892441,1.56185805798,-0.0714345872402,3.11090302467,0.0
1471704500168260890,-0.00817345734686,0.0140827912837,0.202270328999,1.56146132946,-0.0745688378811,3.10925579071,0.0
1471704500242724679,-0.00814129319042,0.0141004631296,0.202162086964,1.56169641018,-0.0750503018498,3.1081867218,0.0
1471704500314836092,-0.00812760926783,0.0141208730638,0.202012196183,1.561383605,-0.0758231133223,3.10894322395,0.0
1471704500392998507,-0.0081390067935,0.0141546064988,0.201784446836,1.56076276302,-0.070229023695,3.11219501495,0.0
1471704500466387373,-0.00812619086355,0.0141704976559,0.201708495617,1.56087350845,-0.0705489516258,3.11091518402,0.0
1471704500539633934,-0.00806880183518,0.0141810011119,0.201639175415,1.56079947948,-0.0748087987304,3.11145329475,0.0
