%time,field.linear.x,field.linear.y,field.linear.z,field.angular.x,field.angular.y,field.angular.z
1471706369182679158,0.15,-0.264098020152,0.0,0.0,0.0,0.014569688797
1471706369267342748,0.15,-0.166250393752,0.0,0.0,0.0,0.0122616181374
1471706369357320395,0.15,-0.167082512704,0.0,0.0,0.0,0.0115241298676
1471706369435744317,0.15,-0.167744611337,0.0,0.0,0.0,0.01157741642
1471706369512697711,0.15,-0.174592532107,0.0,0.0,0.0,0.0140130410194
1471706369590734121,0.15,-0.170582729298,0.0,0.0,0.0,0.013392616272
1471706369664908988,0.15,-0.172860163079,0.0,0.0,0.0,0.0139483699799
1471706369745240620,0.15,-0.17876565874,0.0,0.0,0.0,0.0166040549278
1471706369826489759,0.15,-0.109955440992,0.0,0.0,0.0,-0.00762290859222
1471706369903512205,0.15,-0.137307530996,0.0,0.0,0.0,-0.00612993144989
1471706369987014245,0.15,-0.129063799093,0.0,0.0,0.0,-0.00817085409164
1471706370059938439,0.15,-0.200896236049,0.0,0.0,0.0,0.0184757599831
1471706370138527476,0.15,-0.12488263137,0.0,0.0,0.0,0.0
1471706370214417532,0.15,-0.122766249002,0.0,0.0,0.0,0.0
1471706370288085574,0.15,-0.108980837865,0.0,0.0,0.0,-0.0066243519783
1471706370365370169,0.15,0.278382296526,0.0,0.0,0.0,-0.134365271568
1471706370436896038,0.15,-0.295058309309,0.0,0.0,0.0,0.0135071167946
1471706370514486227,0.15,-0.129828879168,0.0,0.0,0.0,0.0110488424301
1471706370587099668,0.15,0.262320217281,0.0,0.0,0.0,-0.122581850529
1471706370656622037,0.15,0.147304442362,0.0,0.0,0.0,-0.129674386024
1471706370727334415,0.15,-0.245836210759,0.0,0.0,0.0,0.00594066476822
1471706370800985300,0.15,-0.118717887016,0.0,0.0,0.0,0.0102849493027
1471706370871261117,0.15,-0.128534725518,0.0,0.0,0.0,0.0166159162521
1471706370946727691,0.15,-0.118189107806,0.0,0.0,0.0,0.0160260686874
1471706371023315843,0.15,0.297379161793,0.0,0.0,0.0,-0.13247312212
1471706371101236041,0.15,-0.250468081382,0.0,0.0,0.0,0.0176249632835
1471706371173464213,0.15,-0.0476193266274,0.0,0.0,0.0,-0.00446261072159
1471706371245899288,0.15,-0.106636935549,0.0,0.0,0.0,0.0107935557365
1471706371317697496,0.15,-0.0495912148162,0.0,0.0,0.0,-0.00470269823074
1471706371394580701,0.15,0.194988287312,0.0,0.0,0.0,-0.103255759716
1471706371473230238,0.15,-0.145020817978,0.0,0.0,0.0,-0.00794322395325
1471706371549040826,0.15,-0.122815567281,0.0,0.0,0.0,0.0182698259354
1471706371627565366,0.15,0.148586109061,0.0,0.0,0.0,-0.0781655421257
1471706371699824083,0.15,-0.191733778013,0.0,0.0,0.0,0.0234091172218
1471706371772429379,0.15,-0.104329862202,0.0,0.0,0.0,0.0285240302086
1471706371842964883,0.15,-0.0174623631769,0.0,0.0,0.0,-0.00578279399872
1471706371913129619,0.15,-0.093711644954,0.0,0.0,0.0,0.0151182303429
1471706371991812130,0.15,0.127951223706,0.0,0.0,0.0,-0.067690264225
1471706372063884195,0.15,0.105681259333,0.0,0.0,0.0,-0.0876038184166
1471706372142567524,0.15,-0.162147946149,0.0,0.0,0.0,0.020363617897
1471706372216866818,0.15,-0.0403241325604,0.0,0.0,0.0,0.00661032295227
1471706372294603667,0.15,-0.0157276928913,0.0,0.0,0.0,-0.00811780595779
1471706372369726509,0.15,0.13915349706,0.0,0.0,0.0,-0.0794307103157
1471706372442491100,0.15,0.0307180684487,0.0,0.0,0.0,-0.0556538214684
1471706372515512127,0.15,0.101601918503,0.0,0.0,0.0,-0.0792544593811
1471706372592626680,0.15,-0.135037276867,0.0,0.0,0.0,0.0213582406044
1471706372665390993,0.15,-0.0307129160946,0.0,0.0,0.0,0.00916903114319
1471706372745190886,0.15,0.0190849521365,0.0,0.0,0.0,-0.017673324585
1471706372821018753,0.15,-0.058576661051,0.0,0.0,0.0,0.0097877869606
1471706372899141107,0.15,-0.0681443184691,0.0,0.0,0.0,0.0246541390419
1471706372971693927,0.15,0.0989568911488,0.0,0.0,0.0,-0.0515557637215
1471706373045393068,0.15,-0.0552025847851,0.0,0.0,0.0,-0.00270361804962
1471706373122968928,0.15,-0.030769766273,0.0,0.0,0.0,0.00255619382858
1471706373206231479,0.15,-0.0335319505372,0.0,0.0,0.0,0.0064337143898
1471706373290584390,0.15,0.0858715676169,0.0,0.0,0.0,-0.0531526913643
1471706373371673610,0.15,-0.0565023792279,0.0,0.0,0.0,0.0
1471706373447409128,0.15,-0.0613208872138,0.0,0.0,0.0,0.0200633296967
1471706373523398635,0.15,0.118126273016,0.0,0.0,0.0,-0.0676204075813
1471706373595314897,0.15,-0.0873995703117,0.0,0.0,0.0,0.0121524820328
1471706373669096562,0.15,-0.0170013050854,0.0,0.0,0.0,0.00305174684525
1471706373741817300,0.15,-0.0425134650163,0.0,0.0,0.0,0.0144488105774
1471706373816576588,0.15,-0.0196068947332,0.0,0.0,0.0,0.00614689683914
1471706373897035324,0.15,-0.0178190405584,0.0,0.0,0.0,0.00343697166443
1471706373976462868,0.15,-0.0515545693295,0.0,0.0,0.0,0.0222728142738
1471706374052334376,0.15,0.100527130623,0.0,0.0,0.0,-0.0596487035751
1471706374133475796,0.15,-0.0830307448806,0.0,0.0,0.0,0.0209322462082
1471706374211795486,0.15,0.0168467917139,0.0,0.0,0.0,-0.0106697192192
1471706374290371211,0.15,-0.0299218908567,0.0,0.0,0.0,0.00777869319916
1471706374364585724,0.15,0.0303968548717,0.0,0.0,0.0,-0.0227585544586
1471706374438440716,0.15,-0.0351053930362,0.0,0.0,0.0,0.00839953517914
1471706374508941849,0.15,-0.00884213567868,0.0,0.0,0.0,0.00351910686493
1471706374581383013,0.15,-0.0320889467404,0.0,0.0,0.0,0.0174043664932
1471706374654622308,0.15,0.0,0.0,0.0,0.0,-0.00654680633545
1471706374731197926,0.15,-0.0172204952327,0.0,0.0,0.0,0.0143979082108
1471706374804741366,0.15,-0.00224016486151,0.0,0.0,0.0,0.00289975500107
1471706374880389197,0.15,-0.0285848229451,0.0,0.0,0.0,0.0180850515366
1471706374956488059,0.15,0.0589648542096,0.0,0.0,0.0,-0.0383461823463
1471706375038255328,0.15,-0.0356187044089,0.0,0.0,0.0,0.0101412425041
1471706375117086951,0.15,-0.00589675693289,0.0,0.0,0.0,0.00612132644653
1471706375192336712,0.15,-0.0151145354089,0.0,0.0,0.0,0.0118276367187
1471706375268131293,0.15,-0.0203064970744,0.0,0.0,0.0,0.018339861393
1471706375348761140,0.15,-0.00443336231469,0.0,0.0,0.0,0.0088232049942
1471706375421877885,0.15,-0.00970933254689,0.0,0.0,0.0,0.00997476673126
1471706375503326069,0.15,-0.0142709619577,0.0,0.0,0.0,0.0144527444839
1471706375577391899,0.15,-0.00320885605413,0.0,0.0,0.0,0.00737397766113
1471706375651817832,0.15,-0.00857712906252,0.0,0.0,0.0,0.00962095355988
1471706375728892503,0.15,0.00104303734,0.0,0.0,0.0,0.00233547782898
1471706375811474180,0.15,-0.0101654570627,0.0,0.0,0.0,0.0103075990677
1471706375888039643,0.15,-0.00790516602616,0.0,0.0,0.0,0.0114939699173
1471706375964077865,0.15,-0.00333481694503,0.0,0.0,0.0,0.00800793266296
1471706376041290207,0.15,-0.00111309789281,0.0,0.0,0.0,0.00512491559982
1471706376116006649,0.15,-0.00404355385542,0.0,0.0,0.0,0.0074182639122
1471706376187524525,0.15,0.0083198926169,0.0,0.0,0.0,-0.00412614250183
1471706376259152519,0.15,-0.00534764717083,0.0,0.0,0.0,0.00580196475983
1471706376332422295,0.15,-0.00481280252257,0.0,0.0,0.0,0.00920211172104
1471706376410671858,0.15,0.00524049999923,0.0,0.0,0.0,0.0
1471706376486740475,0.15,-0.00318419127257,0.0,0.0,0.0,0.00549357032776
1471706376565767522,0.15,-0.000529745413325,0.0,0.0,0.0,0.00480501747131
1471706376642132494,0.0,0.0,0.0,0.0,0.0,0.0026552567482
1471706376716906781,0.0,-0.00076666746997,0.0,0.0,0.0,0.0054104218483
1471706376792257115,0.0,-0.00081239465498,0.0,0.0,0.0,0.00570170974731
1471706376864761991,0.0,0.00347368164273,0.0,0.0,0.0,0.0
1471706376946829536,0.0,0.0,0.0,0.0,0.0,0.00480066633224
1471706377023709919,0.0,0.00288891847213,0.0,0.0,0.0,0.0
1471706377096974786,0.0,0.00409388352501,0.0,0.0,0.0,-0.00247491502762
1471706377170172108,0.0,0.000929863136989,0.0,0.0,0.0,0.0
1471706377247336700,0.0,0.00316101269185,0.0,0.0,0.0,0.0
1471706377322453656,0.0,0.000722335947594,0.0,0.0,0.0,0.00263964033127
1471706377400580823,0.0,0.00190185129104,0.0,0.0,0.0,0.0
1471706377474538974,0.0,0.00233987434396,0.0,0.0,0.0,0.0
1471706377553957017,0.0,0.0013070031903,0.0,0.0,0.0,0.0
1471706377628548285,0.0,0.00193792490817,0.0,0.0,0.0,0.0
1471706377707196313,0.0,0.0016437972435,0.0,0.0,0.0,0.0
1471706377782170921,0.0,0.00126585831234,0.0,0.0,0.0,0.0
1471706377855514321,0.0,0.00150927324695,0.0,0.0,0.0,0.0
1471706377929776977,0.0,0.00140619066295,0.0,0.0,0.0,0.0
1471706378007642640,0.0,0.00134683970575,0.0,0.0,0.0,0.0
1471706378084913723,0.0,0.000556132470396,0.0,0.0,0.0,0.00276516771317
1471706378158762165,0.0,0.000966636742091,0.0,0.0,0.0,0.00249915218353
1471706378237303986,0.0,0.00175056035954,0.0,0.0,0.0,0.0
1471706378312393318,0.0,0.00104288571901,0.0,0.0,0.0,0.0
1471706378383557494,0.0,0.00105083855429,0.0,0.0,0.0,0.0
1471706378455678852,0.0,0.000677956764237,0.0,0.0,0.0,0.00234340524673
1471706378533722438,0.0,0.00120472636634,0.0,0.0,0.0,0.0
1471706378606931695,0.0,0.00133405769759,0.0,0.0,0.0,0.0
1471706378682719155,0.0,0.00115184071415,0.0,0.0,0.0,0.0
1471706378755644826,0.0,0.000742104800566,0.0,0.0,0.0,0.0
1471706378832313387,0.0,0.0013868422293,0.0,0.0,0.0,0.0
1471706378916005929,0.0,0.0011801439744,0.0,0.0,0.0,0.0
1471706378993419898,0.0,0.00113392370467,0.0,0.0,0.0,0.0
1471706379072001508,0.0,0.000702058293642,0.0,0.0,0.0,0.0
1471706379149522061,0.006,0.0,0.0,0.0,0.0,0.0
1471706379225405636,0.0,0.000829303857511,0.0,0.0,0.0,0.0
1471706379303121644,0.0,0.0012749775539,0.0,0.0,0.0,0.0
1471706379379010040,0.0,0.000825211938281,0.0,0.0,0.0,0.0
1471706379451414117,0.0,0.000985269658675,0.0,0.0,0.0,0.0
1471706379522419809,0.0,0.000972237763616,0.0,0.0,0.0,0.0
1471706379603003197,0.0,0.00111912746152,0.0,0.0,0.0,0.0
1471706379686156922,0.0,0.00105106733261,0.0,0.0,0.0,0.0
1471706379768740994,0.0,0.000637978523832,0.0,0.0,0.0,0.0
1471706379845101944,0.006,0.0,0.0,0.0,0.0,0.0
1471706379920204393,0.006,0.0,0.0,0.0,0.0,0.0
1471706379989847996,0.0,0.000907249641666,0.0,0.0,0.0,0.0
1471706380065434617,0.0,0.0010364920749,0.0,0.0,0.0,0.0
1471706380155835062,0.0,0.000686796812,0.0,0.0,0.0,0.0
1471706380235459131,0.006,0.0,0.0,0.0,0.0,0.0
1471706380322373376,0.006,0.0,0.0,0.0,0.0,0.0
1471706380406631467,0.006,0.0,0.0,0.0,0.0,0.0
1471706380484001229,0.0,0.000896842764545,0.0,0.0,0.0,0.0
1471706380556510055,0.006,0.0,0.0,0.0,0.0,0.0
1471706380629143951,0.006,0.0,0.0,0.0,0.0,0.0
1471706380700825959,0.006,0.0,0.0,0.0,0.0,0.0
1471706380781714670,0.006,0.0,0.0,0.0,0.0,0.0
1471706380855251685,0.006,0.0,0.0,0.0,0.0,0.0
1471706380932741248,0.006,0.0,0.0,0.0,0.0,0.0
1471706381011491133,0.006,0.0,0.0,0.0,0.0,0.0
1471706381097513282,0.0,-0.00251993871697,0.0,0.0,0.0,0.00288252925873
1471706381177632485,0.0,-0.000505771265054,0.0,0.0,0.0,0.0
1471706381251478667,0.006,0.0,0.0,0.0,0.0,0.0
1471706381331388102,0.006,0.0,0.0,0.0,0.0,0.0
1471706381404972399,0.006,0.0,0.0,0.0,0.0,0.0
1471706381483121717,0.006,0.0,0.0,0.0,0.0,0.0
1471706381563836982,0.0,-0.00086590889269,0.0,0.0,0.0,0.0
1471706381637788251,0.0,-0.00226203621384,0.0,0.0,0.0,0.00336127376556
1471706381710072618,0.006,0.0,0.0,0.0,0.0,0.0
1471706381782672337,0.006,0.0,0.0,0.0,0.0,0.0
1471706381859070239,0.006,0.0,0.0,0.0,0.0,0.0
1471706381933738989,0.006,0.0,0.0,0.0,0.0,0.0
1471706382007780399,0.006,0.0,0.0,0.0,0.0,0.0
1471706382088688428,0.006,0.0,0.0,0.0,0.0,0.0
1471706382162375870,0.0,-0.00111597148822,0.0,0.0,0.0,0.00219463205338
1471706382236849555,0.0,-0.0011242315034,0.0,0.0,0.0,0.0
1471706382314168912,0.006,0.0,0.0,0.0,0.0,0.0
1471706382398183503,0.006,0.0,0.0,0.0,0.0,0.0
1471706382475743536,0.0,0.0,0.0,0.0,0.0,-0.00232214832306
1471706382550478163,0.006,0.0,0.0,0.0,0.0,0.0
1471706382635032404,0.0,-0.000664955534365,0.0,0.0,0.0,0.0
1471706382712702821,0.0,-0.00207747703388,0.0,0.0,0.0,0.00310545063019
1471706382787808856,0.0,-0.000734959349558,0.0,0.0,0.0,0.0
1471706382866700917,0.006,0.0,0.0,0.0,0.0,0.0
1471706382951964166,0.006,0.0,0.0,0.0,0.0,0.0
1471706383027662916,0.006,0.0,0.0,0.0,0.0,0.0
1471706383102451713,0.006,0.0,0.0,0.0,0.0,0.0
1471706383172706617,0.006,0.0,0.0,0.0,0.0,0.0
1471706383245239218,0.0,-0.000873119556832,0.0,0.0,0.0,0.0
1471706383315969217,0.006,0.0,0.0,0.0,0.0,0.0
1471706383391419753,0.0,-0.00093927296516,0.0,0.0,0.0,0.0
1471706383467927460,0.0,-0.000926112689456,0.0,0.0,0.0,0.0
1471706383543537073,0.006,0.0,0.0,0.0,0.0,0.0
1471706383616781533,0.006,0.0,0.0,0.0,0.0,0.0
1471706383698012840,0.006,0.0,0.0,0.0,0.0,0.0
1471706383775636501,0.0,-0.000780013355516,0.0,0.0,0.0,0.0
1471706383856655062,0.0,-0.00105187368712,0.0,0.0,0.0,0.0
1471706383934717029,0.0,-0.000814075432388,0.0,0.0,0.0,0.0
1471706384018021172,0.006,0.0,0.0,0.0,0.0,0.0
1471706384108161778,0.006,0.0,0.0,0.0,0.0,0.0
1471706384191100466,0.006,0.0,0.0,0.0,0.0,0.0
1471706384267528199,0.006,0.0,0.0,0.0,0.0,0.0
1471706384350123177,0.006,0.0,0.0,0.0,0.0,0.0
1471706384429024806,0.006,0.0,0.0,0.0,0.0,0.0
1471706384509229353,0.0,-0.00116669637629,0.0,0.0,0.0,0.00241499042511
1471706384586600846,0.0,-0.000876628045023,0.0,0.0,0.0,0.0
1471706384660498132,0.006,0.0,0.0,0.0,0.0,0.0
1471706384735129914,0.006,0.0,0.0,0.0,0.0,0.0
1471706384816235299,0.006,0.0,0.0,0.0,0.0,0.0
1471706384894502895,0.006,0.0,0.0,0.0,0.0,0.0
1471706384971077314,0.006,0.0,0.0,0.0,0.0,0.0
1471706385043983254,0.006,0.0,0.0,0.0,0.0,0.0
1471706385125046313,0.006,0.0,0.0,0.0,0.0,0.0
1471706385198551543,0.006,0.0,0.0,0.0,0.0,0.0
1471706385271762304,0.006,0.0,0.0,0.0,0.0,0.0
1471706385348182010,0.006,0.0,0.0,0.0,0.0,0.0
1471706385426143819,0.006,0.0,0.0,0.0,0.0,0.0
1471706385505201689,0.006,0.0,0.0,0.0,0.0,0.0
1471706385581731109,0.006,0.0,0.0,0.0,0.0,0.0
1471706385659577318,0.006,0.0,0.0,0.0,0.0,0.0
1471706385735960186,0.006,0.0,0.0,0.0,0.0,0.0
1471706385811547341,0.0,0.0,0.0,0.0,0.0,0.0022947678566
1471706385885152273,0.006,0.0,0.0,0.0,0.0,0.0
1471706385959255050,0.006,0.0,0.0,0.0,0.0,0.0
1471706386036452078,0.006,0.0,0.0,0.0,0.0,0.0
1471706386114186055,0.006,0.0,0.0,0.0,0.0,0.0
1471706386188465042,0.0,-0.000694401263867,0.0,0.0,0.0,0.00238870477676
1471706386264815067,0.006,0.0,0.0,0.0,0.0,0.0
1471706386338345431,0.006,0.0,0.0,0.0,0.0,0.0
1471706386414291800,0.006,0.0,0.0,0.0,0.0,0.0
1471706386487641283,0.006,0.0,0.0,0.0,0.0,0.0
1471706386562660391,0.006,0.0,0.0,0.0,0.0,0.0
1471706386637314714,0.006,0.0,0.0,0.0,0.0,0.0
1471706386712415911,0.006,0.0,0.0,0.0,0.0,0.0
1471706386784044620,0.006,0.0,0.0,0.0,0.0,0.0
1471706386862090149,0.006,0.0,0.0,0.0,0.0,0.0
1471706386936979243,0.006,0.0,0.0,0.0,0.0,0.0
1471706387011543180,0.006,0.0,0.0,0.0,0.0,0.0
1471706387085029608,0.006,0.0,0.0,0.0,0.0,0.0
1471706387158078198,0.006,0.0,0.0,0.0,0.0,0.0
1471706387235893661,0.0,-0.00118855621046,0.0,0.0,0.0,0.00330226516724
1471706387308463683,0.006,0.0,0.0,0.0,0.0,0.0
1471706387384712150,0.006,0.0,0.0,0.0,0.0,0.0
1471706387458927348,0.006,0.0,0.0,0.0,0.0,0.0
1471706387539156319,0.006,0.0,0.0,0.0,0.0,0.0
1471706387616403465,0.0,0.0,0.0,0.0,0.0,0.00230597352982
1471706387695566805,0.006,0.0,0.0,0.0,0.0,0.0
1471706387775238295,0.006,0.0,0.0,0.0,0.0,0.0
1471706387856559664,0.006,0.0,0.0,0.0,0.0,0.0
1471706387933405173,0.006,0.0,0.0,0.0,0.0,0.0
1471706388011558675,0.006,0.0,0.0,0.0,0.0,0.0
1471706388087271876,0.0,0.00186104244516,0.0,0.0,0.0,0.0
1471706388161314190,0.006,0.0,0.0,0.0,0.0,0.0
1471706388236801680,0.006,0.0,0.0,0.0,0.0,0.0
1471706388311683993,0.006,0.0,0.0,0.0,0.0,0.0
1471706388398483487,0.006,0.0,0.0,0.0,0.0,0.0
1471706388478498418,0.006,0.0,0.0,0.0,0.0,0.0
1471706388555339691,0.006,0.0,0.0,0.0,0.0,0.0
1471706388634057674,0.006,0.0,0.0,0.0,0.0,0.0
1471706388709018413,0.006,0.0,0.0,0.0,0.0,0.0
1471706388786932087,0.0,0.000930321347862,0.0,0.0,0.0,0.0
1471706388862414655,0.006,0.0,0.0,0.0,0.0,0.0
1471706388935476764,0.006,0.0,0.0,0.0,0.0,0.0
1471706389013790710,0.006,0.0,0.0,0.0,0.0,0.0
1471706389096455704,0.006,0.0,0.0,0.0,0.0,0.0
1471706389172021288,0.006,0.0,0.0,0.0,0.0,0.0
1471706389246329608,0.006,0.0,0.0,0.0,0.0,0.0
1471706389319679511,0.006,0.0,0.0,0.0,0.0,0.0
1471706389396467501,0.006,0.0,0.0,0.0,0.0,0.0
1471706389471949628,0.006,0.0,0.0,0.0,0.0,0.0
1471706389543929121,0.006,0.0,0.0,0.0,0.0,0.0
1471706389616725654,0.006,0.0,0.0,0.0,0.0,0.0
1471706389687778682,0.006,0.0,0.0,0.0,0.0,0.0
1471706389761957111,0.006,0.0,0.0,0.0,0.0,0.0
1471706389835270326,0.0,0.0,0.0,0.0,0.0,0.00249420499802
1471706389915418076,0.006,0.0,0.0,0.0,0.0,0.0
1471706389990319725,0.006,0.0,0.0,0.0,0.0,0.0
1471706390064589252,0.006,0.0,0.0,0.0,0.0,0.0
1471706390144296515,0.006,0.0,0.0,0.0,0.0,0.0
1471706390218562285,0.006,0.0,0.0,0.0,0.0,0.0
1471706390295721308,0.006,0.0,0.0,0.0,0.0,0.0
1471706390371188536,0.006,0.0,0.0,0.0,0.0,0.0
1471706390444847420,0.006,0.0,0.0,0.0,0.0,0.0
1471706390518632091,0.0,0.0,0.0,0.0,0.0,0.00256894922256
1471706390591619074,0.0,0.0,0.0,0.0,0.0,0.00276284313202
1471706390666876091,0.006,0.0,0.0,0.0,0.0,0.0
1471706390743024206,0.006,0.0,0.0,0.0,0.0,0.0
1471706390815282956,0.006,0.0,0.0,0.0,0.0,0.0
1471706390886220741,0.006,0.0,0.0,0.0,0.0,0.0
1471706390960709985,0.006,0.0,0.0,0.0,0.0,0.0
1471706391042343800,0.006,0.0,0.0,0.0,0.0,0.0
1471706391118611360,0.006,0.0,0.0,0.0,0.0,0.0
1471706391188855129,0.006,0.0,0.0,0.0,0.0,0.0
1471706391259631204,0.006,0.0,0.0,0.0,0.0,0.0
1471706391332984647,0.006,0.0,0.0,0.0,0.0,0.0
1471706391406436413,0.006,0.0,0.0,0.0,0.0,0.0
1471706391476906841,0.006,0.0,0.0,0.0,0.0,0.0
1471706391551781117,0.006,0.0,0.0,0.0,0.0,0.0
1471706391623686007,0.006,0.0,0.0,0.0,0.0,0.0
1471706391696812850,0.006,0.0,0.0,0.0,0.0,0.0
1471706391772366725,0.006,0.0,0.0,0.0,0.0,0.0
1471706391847823854,0.006,0.0,0.0,0.0,0.0,0.0
1471706391922876563,0.006,0.0,0.0,0.0,0.0,0.0
1471706391993809453,0.006,0.0,0.0,0.0,0.0,0.0
1471706392067166761,0.006,0.0,0.0,0.0,0.0,0.0
1471706392139637553,0.006,0.0,0.0,0.0,0.0,0.0
1471706392218385729,0.006,0.0,0.0,0.0,0.0,0.0
1471706392295217483,0.006,0.0,0.0,0.0,0.0,0.0
1471706392367402238,0.006,0.0,0.0,0.0,0.0,0.0
1471706392445318111,0.006,0.0,0.0,0.0,0.0,0.0
1471706392518256708,0.006,0.0,0.0,0.0,0.0,0.0
1471706392586931301,0.006,0.0,0.0,0.0,0.0,0.0
1471706392660683240,0.006,0.0,0.0,0.0,0.0,0.0
