%time,field.linear.x,field.linear.y,field.linear.z,field.angular.x,field.angular.y,field.angular.z
1470064445283461200,0.15,-0.110076036538,0.0,0.0,0.0,0.0406217685068
1470064445371880238,0.15,-0.110324981297,0.0,0.0,0.0,0.0395018541646
1470064445452000113,0.15,-0.109876206006,0.0,0.0,0.0,0.0409847443668
1470064445538161894,0.15,-0.110291686143,0.0,0.0,0.0,0.0213170104919
1470064445614854650,0.15,-0.110004654015,0.0,0.0,0.0,0.0407675070644
1470064445689376793,0.15,-0.109780695523,0.0,0.0,0.0,0.0273160660526
1470064445768384712,0.15,-0.109726383771,0.0,0.0,0.0,0.0292491046207
1470064445848718417,0.15,-0.109798481549,0.0,0.0,0.0,0.0316048616498
1470064445925153041,0.15,-0.112291600789,0.0,0.0,0.0,0.0444603008556
1470064446005513450,0.15,-0.109366991604,0.0,0.0,0.0,0.0168187486046
1470064446084835843,0.15,-0.104563834752,0.0,0.0,0.0,0.0248301965944
1470064446160749391,0.15,-0.104188921536,0.0,0.0,0.0,0.0310151301548
1470064446234982756,0.15,-0.102210631455,0.0,0.0,0.0,0.0128304028841
1470064446308778404,0.15,-0.0977087403189,0.0,0.0,0.0,0.0393688162436
1470064446383586057,0.15,-0.0982023383032,0.0,0.0,0.0,0.0109643170909
1470064446461330695,0.15,-0.0938688898932,0.0,0.0,0.0,0.0276953004278
1470064446539154252,0.15,-0.0929535652052,0.0,0.0,0.0,0.0308046490001
1470064446610732042,0.15,-0.0925263489138,0.0,0.0,0.0,0.0316024920784
1470064446685295221,0.15,-0.0918524051558,0.0,0.0,0.0,0.0152927573016
1470064446762905281,0.15,-0.0884729767691,0.0,0.0,0.0,0.00605527743208
1470064446836530529,0.15,-0.0854583168875,0.0,0.0,0.0,0.0182188937974
1470064446908417099,0.15,-0.084195991839,0.0,0.0,0.0,0.0296505918435
1470064446987664289,0.15,-0.0835068906199,0.0,0.0,0.0,0.0337930657718
1470064447065809974,0.15,-0.0813975776087,0.0,0.0,0.0,0.0143099684518
1470064447141668119,0.15,-0.0802867794882,0.0,0.0,0.0,0.00596368237636
1470064447219071536,0.15,-0.0791650439154,0.0,0.0,0.0,0.0164737250977
1470064447293723431,0.15,-0.0760263586889,0.0,0.0,0.0,0.0214912311121
1470064447368394024,0.15,-0.074725105847,0.0,0.0,0.0,0.0174183209773
1470064447451093711,0.15,-0.0742026830565,0.0,0.0,0.0,0.0143090772613
1470064447529038578,0.15,-0.0717221403967,0.0,0.0,0.0,0.0155621933606
1470064447604487195,0.15,-0.0711595857988,0.0,0.0,0.0,0.0368773266598
1470064447676672017,0.15,-0.0704313004862,0.0,0.0,0.0,0.0263566152512
1470064447752264906,0.15,-0.0678432608496,0.0,0.0,0.0,0.0228385073492
1470064447831698164,0.15,-0.0659061754595,0.0,0.0,0.0,0.0141481796682
1470064447904056551,0.15,-0.0646080578219,0.0,0.0,0.0,0.0156690838125
1470064447981912980,0.15,-0.0634545887362,0.0,0.0,0.0,0.00532206317776
1470064448059957090,0.15,-0.06281146654,0.0,0.0,0.0,0.0
1470064448135229981,0.15,-0.0596744144808,0.0,0.0,0.0,0.0148084289017
1470064448214407648,0.15,-0.0585197234999,0.0,0.0,0.0,0.0204972999217
1470064448291729151,0.15,-0.0576885009657,0.0,0.0,0.0,0.0036883735315
1470064448363982985,0.15,-0.0557043159853,0.0,0.0,0.0,0.0145357202759
1470064448439239010,0.15,-0.0546056354891,0.0,0.0,0.0,0.0210209133432
1470064448517538758,0.15,-0.0536067868124,0.0,0.0,0.0,0.0144477640094
1470064448599728631,0.15,-0.0516379977118,0.0,0.0,0.0,0.0232423886606
1470064448675254955,0.15,-0.0509388173472,0.0,0.0,0.0,0.013244213885
1470064448747503370,0.15,-0.0499622965704,0.0,0.0,0.0,0.0
1470064448818937409,0.15,-0.0490347171675,0.0,0.0,0.0,0.0126631964826
1470064448893020254,0.15,-0.0470309699427,0.0,0.0,0.0,0.0290008790118
1470064448969986382,0.15,-0.0462029064547,0.0,0.0,0.0,0.00977266583098
1470064449048356601,0.15,-0.0442025805365,0.0,0.0,0.0,0.00716194737451
1470064449126454571,0.15,-0.043347125734,0.0,0.0,0.0,0.0106816023959
1470064449204687976,0.15,-0.0421416724573,0.0,0.0,0.0,0.035419033981
1470064449280103506,0.15,-0.0416284764658,0.0,0.0,0.0,0.0
1470064449355945711,0.15,-0.0409031713854,0.0,0.0,0.0,0.0
1470064449428281527,0.15,-0.0398334170233,0.0,0.0,0.0,0.00769182165636
1470064449504799469,0.15,-0.0388760025154,0.0,0.0,0.0,0.00532414605687
1470064449582188119,0.15,-0.0383096511017,0.0,0.0,0.0,-0.00404175650797
1470064449658911023,0.15,-0.0376718903433,0.0,0.0,0.0,0.0
1470064449731065089,0.15,-0.0364133770119,0.0,0.0,0.0,0.00916864552482
1470064449803460551,0.15,-0.0355480248581,0.0,0.0,0.0,0.00600696707645
1470064449887154974,0.15,-0.0348631436478,0.0,0.0,0.0,0.0
1470064449966299985,0.15,-0.0335835898768,0.0,0.0,0.0,0.00868964232954
1470064450043996905,0.15,-0.0330130720984,0.0,0.0,0.0,0.0
1470064450122143991,0.15,-0.032098987187,0.0,0.0,0.0,0.00792398269109
1470064450199499026,0.15,-0.0313941264998,0.0,0.0,0.0,0.0240208996687
1470064450270959549,0.15,-0.0300817186485,0.0,0.0,0.0,0.00382380143966
1470064450347165364,0.15,-0.0289589131723,0.0,0.0,0.0,-0.0029970806844
1470064450422492287,0.15,-0.0280690843712,0.0,0.0,0.0,0.00576088103044
1470064450497980609,0.15,-0.0269650901209,0.0,0.0,0.0,0.00804068361502
1470064450572651482,0.15,-0.0262164766441,0.0,0.0,0.0,0.0222758375988
1470064450655864275,0.15,-0.0254614646088,0.0,0.0,0.0,0.00566758019445
1470064450734278484,0.15,-0.024292107905,0.0,0.0,0.0,0.0
1470064450807581765,0.15,-0.023934757198,0.0,0.0,0.0,-0.00648755852606
1470064450879352642,0.15,-0.0231786454569,0.0,0.0,0.0,0.0
1470064450950848235,0.15,-0.0225518012892,0.0,0.0,0.0,0.0104816140794
1470064451024256207,0.15,-0.0214907015215,0.0,0.0,0.0,0.00580245051227
1470064451100831903,0.15,-0.0209278503905,0.0,0.0,0.0,0.00723014971773
1470064451179069597,0.15,-0.0204505304347,0.0,0.0,0.0,0.00309427253037
1470064451252200156,0.15,-0.0199209133636,0.0,0.0,0.0,0.0
1470064451327198558,0.15,-0.0190415213357,0.0,0.0,0.0,0.0
1470064451406148569,0.15,-0.0185172642122,0.0,0.0,0.0,0.0
1470064451481139069,0.15,-0.0180416832219,0.0,0.0,0.0,0.00456695590429
1470064451555524140,0.15,-0.0175173888455,0.0,0.0,0.0,0.0105466122939
1470064451633696952,0.15,-0.016763196374,0.0,0.0,0.0,0.00958838068455
1470064451708181412,0.15,-0.0163078720223,0.0,0.0,0.0,0.0
1470064451785163483,0.15,-0.0158762583982,0.0,0.0,0.0,0.0
1470064451864492890,0.15,-0.0154806444894,0.0,0.0,0.0,0.00365723139087
1470064451935885848,0.15,-0.0150338003884,0.0,0.0,0.0,0.0210462807306
1470064452006963608,0.15,-0.0146856556188,0.0,0.0,0.0,0.0
1470064452080685759,0.15,-0.0142810905825,0.0,0.0,0.0,0.00388674981887
1470064452154089462,0.15,-0.013470498706,0.0,0.0,0.0,0.0
1470064452226146770,0.15,-0.0131002376329,0.0,0.0,0.0,-0.0046121059094
1470064452300012132,0.15,-0.0129228691112,0.0,0.0,0.0,0.0177713559864
1470064452380703542,0.15,-0.0125147501479,0.0,0.0,0.0,0.00307215795851
1470064452455863440,0.15,-0.0122227782856,0.0,0.0,0.0,0.0132963671405
1470064452535095341,0.15,-0.0119707728277,0.0,0.0,0.0,0.00981077601862
1470064452611005094,0.0,-0.0116703996907,0.0,0.0,0.0,0.0121411545157
1470064452689960758,0.0,-0.0114070618998,0.0,0.0,0.0,0.0177769733344
1470064452765408318,0.0,-0.0110472882639,0.0,0.0,0.0,0.009113281216
1470064452839546683,0.0,-0.0106610874187,0.0,0.0,0.0,0.00554453015324
1470064452909378744,0.0,-0.0104332412134,0.0,0.0,0.0,0.00984722473272
1470064452979761099,0.0,-0.0101490164648,0.0,0.0,0.0,0.00365674653286
1470064453053364459,0.0,-0.0098005721818,0.0,0.0,0.0,0.00585991093764
1470064453125827443,0.0,-0.00960266836987,0.0,0.0,0.0,0.00846836012628
1470064453201635112,0.0,-0.00948425629245,0.0,0.0,0.0,0.00358253079709
1470064453279131314,0.0,-0.00943163433181,0.0,0.0,0.0,0.00747441539101
1470064453351289959,0.0,-0.00947303571807,0.0,0.0,0.0,0.0
1470064453426768291,0.0,-0.00958076813327,0.0,0.0,0.0,0.0
1470064453501845978,0.0,-0.00977640845881,0.0,0.0,0.0,0.0
1470064453578528122,0.0,-0.00997365065919,0.0,0.0,0.0,0.0
1470064453651911496,0.0,-0.0100261399995,0.0,0.0,0.0,0.00281089891571
1470064453726078772,0.0,-0.0100293944131,0.0,0.0,0.0,0.0
1470064453800269535,0.0,-0.0100050846587,0.0,0.0,0.0,0.0
1470064453874819805,0.0,-0.00984812029706,0.0,0.0,0.0,0.0
1470064453950998472,0.0,-0.00973153212176,0.0,0.0,0.0,0.0
1470064454026319274,0.0,-0.00951905050383,0.0,0.0,0.0,0.0
1470064454099777456,0.0,-0.00929369279252,0.0,0.0,0.0,0.0
1470064454172473150,0.0,-0.00907258191214,0.0,0.0,0.0,0.0
1470064454248717645,0.0,-0.00885726832853,0.0,0.0,0.0,0.0
1470064454321772883,0.0,-0.00846728631364,0.0,0.0,0.0,0.0
1470064454398083016,0.0,-0.00822166972862,0.0,0.0,0.0,0.0
1470064454469163137,0.0,-0.00797179439174,0.0,0.0,0.0,0.0
1470064454541903607,0.0,-0.00770375230418,0.0,0.0,0.0,0.0
1470064454624315421,0.0,-0.00730690383421,0.0,0.0,0.0,0.0
1470064454711691334,0.0,-0.00705051519976,0.0,0.0,0.0,0.0
1470064454788393460,0.0,-0.00677759968744,0.0,0.0,0.0,0.0
1470064454861516393,0.0,-0.00652686455355,0.0,0.0,0.0,0.0
1470064454938982044,0.0,-0.00628161900745,0.0,0.0,0.0,0.0
1470064455011828782,0.0,-0.00589431920157,0.0,0.0,0.0,0.0
1470064455092411460,0.0,-0.00567819499479,0.0,0.0,0.0,0.0
1470064455167221668,0.0,-0.0053534733604,0.0,0.0,0.0,0.0
1470064455246183773,0.0,-0.00511667453752,0.0,0.0,0.0,0.0
1470064455323674164,0.0,-0.00490301349269,0.0,0.0,0.0,0.0
1470064455396906490,0.0,-0.00470615276204,0.0,0.0,0.0,0.0
1470064455481113578,0.0,-0.00443337955581,0.0,0.0,0.0,0.0
1470064455560394251,0.0,-0.00425828271614,0.0,0.0,0.0,0.0
1470064455631518088,0.0,-0.00396388121949,0.0,0.0,0.0,0.0
1470064455706505145,0.0,-0.00380726778017,0.0,0.0,0.0,0.0
1470064455787402328,0.0,-0.00363612421857,0.0,0.0,0.0,0.0
1470064455859940201,0.0,-0.00349587523447,0.0,0.0,0.0,0.0
1470064455932185833,0.0,-0.00330832772957,0.0,0.0,0.0,0.0
1470064456005215615,0.0,-0.00315682836877,0.0,0.0,0.0,0.0
1470064456085160403,0.0,-0.00302795493112,0.0,0.0,0.0,0.0
1470064456166276408,0.0,-0.00285628461347,0.0,0.0,0.0,0.0
1470064456244535049,0.0,-0.00272808619843,0.0,0.0,0.0,0.0
1470064456318253965,0.0,-0.002615012462,0.0,0.0,0.0,0.00388290573627
1470064456389871574,0.0,-0.00254381992923,0.0,0.0,0.0,0.0
1470064456462963003,0.0,-0.00235374220715,0.0,0.0,0.0,0.0
1470064456535528638,0.0,-0.00226494171725,0.0,0.0,0.0,0.0
1470064456606387795,0.0,-0.00217832461999,0.0,0.0,0.0,0.0
1470064456677367551,0.0,-0.00204763808356,0.0,0.0,0.0,0.00304213032084
1470064456748718623,0.0,-0.00196715728448,0.0,0.0,0.0,0.0
1470064456826378384,0.0,-0.00188293256865,0.0,0.0,0.0,0.00316725722077
1470064456905520031,0.0,-0.0018328192185,0.0,0.0,0.0,0.00338932396974
1470064456977727923,0.0,-0.00174948894487,0.0,0.0,0.0,0.0
1470064457063877551,0.0,-0.00168130607413,0.0,0.0,0.0,0.00390311735972
1470064457139071582,0.0,-0.00160422497497,0.0,0.0,0.0,0.00322710231418
1470064457217062015,0.0,-0.00152889923261,0.0,0.0,0.0,0.00345495148047
1470064457294736792,0.0,-0.00148120955632,0.0,0.0,0.0,0.00528178232806
1470064457369602791,0.0,-0.00144910835729,0.0,0.0,0.0,0.00590967327094
1470064457443084439,0.0,-0.00135747143136,0.0,0.0,0.0,0.00457901181243
1470064457520227034,0.0,-0.0013114015113,0.0,0.0,0.0,0.00618931462093
1470064457597385545,0.0,-0.00128090777503,0.0,0.0,0.0,0.00471169960093
1470064457671632949,0.0,-0.00123769328998,0.0,0.0,0.0,0.00529790917971
1470064457744155930,0.0,-0.00123960734413,0.0,0.0,0.0,0.00532770563742
1470064457822788202,0.0,-0.00124315605567,0.0,0.0,0.0,0.00384589239955
1470064457905246189,0.0,-0.00124944024788,0.0,0.0,0.0,0.0029260277668
1470064457983719295,0.0,-0.00128236101077,0.0,0.0,0.0,0.00358806009883
1470064458064347711,0.0,-0.00134196081267,0.0,0.0,0.0,0.0
1470064458140068900,0.0,-0.00140538425253,0.0,0.0,0.0,0.0
1470064458215962596,0.0,-0.0015036086093,0.0,0.0,0.0,0.00347199339699
1470064458286951969,0.0,-0.00156930335866,0.0,0.0,0.0,0.0
1470064458366087454,0.0,-0.00165168256567,0.0,0.0,0.0,0.0029092926945
1470064458440867643,0.0,-0.00169772007571,0.0,0.0,0.0,0.0
1470064458514232612,0.0,-0.00177484997617,0.0,0.0,0.0,0.00365028176497
1470064458587156856,0.0,-0.00186020159231,0.0,0.0,0.0,0.00379646450845
1470064458658979481,0.0,-0.00188766368733,0.0,0.0,0.0,0.00336500599061
1470064458730472184,0.0,-0.00192118384944,0.0,0.0,0.0,0.0
1470064458802582843,0.0,-0.00195175656186,0.0,0.0,0.0,0.00399265470208
1470064458879155639,0.0,-0.00213775397347,0.0,0.0,0.0,0.0038140898527
1470064458952935817,0.0,-0.00222165868686,0.0,0.0,0.0,0.00281745383336
1470064459026085318,0.0,-0.00221626372145,0.0,0.0,0.0,0.0
1470064459101623649,0.0,-0.00219597877072,0.0,0.0,0.0,0.0
1470064459174956816,0.0,-0.00220501744257,0.0,0.0,0.0,0.0
1470064459245524037,0.0,-0.00217494131134,0.0,0.0,0.0,0.0
1470064459323754631,0.0,-0.00215181694434,0.0,0.0,0.0,0.0
1470064459398985644,0.0,-0.00213257097708,0.0,0.0,0.0,0.0
1470064459472467345,0.0,-0.00209429138408,0.0,0.0,0.0,0.0
1470064459546636917,0.0,-0.00207654745386,0.0,0.0,0.0,0.0
1470064459625486226,0.0,-0.00211486131953,0.0,0.0,0.0,0.0
1470064459700081018,0.0,-0.00219818786786,0.0,0.0,0.0,0.0
1470064459772989989,0.0,-0.00222458490239,0.0,0.0,0.0,0.0
1470064459846143943,0.0,-0.00223641232656,0.0,0.0,0.0,0.0
1470064459923906886,0.0,-0.00220446945236,0.0,0.0,0.0,0.0
1470064459997639155,0.0,-0.00217285216854,0.0,0.0,0.0,0.0
1470064460079833942,0.0,-0.00215426669524,0.0,0.0,0.0,0.0
1470064460154765429,0.0,-0.00208688625203,0.0,0.0,0.0,0.0
1470064460227697285,0.0,-0.00203290120767,0.0,0.0,0.0,0.0
1470064460298597148,0.0,-0.0019984202932,0.0,0.0,0.0,0.0
1470064460373265274,0.0,-0.00194108099745,0.0,0.0,0.0,0.0
1470064460445138217,0.0,-0.00187957831727,0.0,0.0,0.0,0.0
1470064460520153967,0.0,-0.00180421941982,0.0,0.0,0.0,0.0
1470064460597737855,0.0,-0.00176397287355,0.0,0.0,0.0,0.00287305082846
1470064460673551488,0.0,-0.00169652053223,0.0,0.0,0.0,0.0
1470064460747144660,0.0,-0.00163243585335,0.0,0.0,0.0,0.0
1470064460817415800,0.0,-0.00160052352653,0.0,0.0,0.0,0.0
1470064460890590585,0.0,-0.001520832489,0.0,0.0,0.0,0.0
1470064460960969356,0.0,-0.00145989530788,0.0,0.0,0.0,0.0
1470064461033495101,0.0,-0.00139765762792,0.0,0.0,0.0,0.0
1470064461114477378,0.0,-0.0013416262816,0.0,0.0,0.0,0.0
1470064461188017463,0.0,-0.00128816762076,0.0,0.0,0.0,0.00289062269589
1470064461264936886,0.0,-0.00123594948159,0.0,0.0,0.0,0.0
1470064461343392276,0.0,-0.00120599516736,0.0,0.0,0.0,0.0
1470064461418962864,0.0,-0.0011696203153,0.0,0.0,0.0,0.00377628733542
1470064461494755483,0.0,-0.00110536799835,0.0,0.0,0.0,0.00333745733095
1470064461573874417,0.0,-0.00105471410857,0.0,0.0,0.0,0.0
1470064461645139275,0.0,-0.00102274105953,0.0,0.0,0.0,0.0
1470064461722371058,0.0,-0.000980000058873,0.0,0.0,0.0,0.00339589541471
1470064461799810995,0.0,-0.000922708074315,0.0,0.0,0.0,0.00312785191602
1470064461872856984,0.0,-0.00089392610894,0.0,0.0,0.0,0.0
1470064461944883771,0.0,-0.000860544900163,0.0,0.0,0.0,0.0
1470064462018836145,0.0,-0.000827862183316,0.0,0.0,0.0,0.0
1470064462090837520,0.0,0.0,0.0,0.0,0.0,0.00493140835698
1470064462162936038,0.0,0.0,0.0,0.0,0.0,0.00617194671349
1470064462233729959,0.0,0.0,0.0,0.0,0.0,0.00416126003848
1470064462308528589,0.0,0.0,0.0,0.0,0.0,0.00293009637063
1470064462384889480,0.006,0.0,0.0,0.0,0.0,0.0
1470064462460890898,0.006,0.0,0.0,0.0,0.0,0.0
1470064462535188753,0.006,0.0,0.0,0.0,0.0,0.0
1470064462613560798,0.0,0.0,0.0,0.0,0.0,0.00458772229727
1470064462688440162,0.0,0.0,0.0,0.0,0.0,0.00302316223903
1470064462762393233,0.0,0.0,0.0,0.0,0.0,0.00325108350033
1470064462837334599,0.0,0.0,0.0,0.0,0.0,0.00457594974782
1470064462913249751,0.0,0.0,0.0,0.0,0.0,0.00407117794774
1470064462986119675,0.006,0.0,0.0,0.0,0.0,0.0
1470064463060497322,0.0,-0.000923933694823,0.0,0.0,0.0,0.0
1470064463133851753,0.0,-0.00101411440478,0.0,0.0,0.0,0.0
1470064463209966588,0.0,-0.00102351629244,0.0,0.0,0.0,0.0
1470064463286046628,0.0,-0.00101172463105,0.0,0.0,0.0,0.0
1470064463364624627,0.0,-0.000935294712646,0.0,0.0,0.0,0.0
1470064463442774150,0.0,-0.000936363125904,0.0,0.0,0.0,0.0
1470064463517910750,0.0,-0.000959110493525,0.0,0.0,0.0,0.0
1470064463603322678,0.0,-0.00103534967707,0.0,0.0,0.0,0.00338842698034
1470064463681241322,0.0,-0.00123139754937,0.0,0.0,0.0,0.0
1470064463760088793,0.0,-0.00133774192141,0.0,0.0,0.0,0.0
1470064463838930287,0.0,-0.00136348181473,0.0,0.0,0.0,0.0
1470064463912221926,0.0,-0.0013758020948,0.0,0.0,0.0,0.0
1470064463991466658,0.0,-0.00139224850641,0.0,0.0,0.0,0.0
1470064464065942228,0.0,-0.00137753994273,0.0,0.0,0.0,0.0
1470064464139498445,0.0,-0.00131409489618,0.0,0.0,0.0,0.0
1470064464214567217,0.0,-0.0013097102295,0.0,0.0,0.0,0.0
1470064464287000619,0.0,-0.00129904397832,0.0,0.0,0.0,0.0
1470064464363342754,0.0,-0.00126773924635,0.0,0.0,0.0,0.0
1470064464438409290,0.0,-0.00125799872981,0.0,0.0,0.0,0.0
1470064464512270361,0.0,-0.00121375010417,0.0,0.0,0.0,0.0
1470064464591888350,0.0,-0.00115829804049,0.0,0.0,0.0,0.0
1470064464668908792,0.0,-0.00112772272037,0.0,0.0,0.0,0.0
1470064464741625971,0.0,-0.00109834470855,0.0,0.0,0.0,0.0
1470064464815244386,0.0,-0.00107839652406,0.0,0.0,0.0,0.0
1470064464892724553,0.0,-0.00104443901287,0.0,0.0,0.0,0.0
1470064464968158068,0.0,-0.000991348783238,0.0,0.0,0.0,0.0
1470064465040623096,0.0,-0.000961065525873,0.0,0.0,0.0,0.0
1470064465112606688,0.0,-0.000945398817523,0.0,0.0,0.0,0.0
1470064465186723936,0.0,-0.000889498228891,0.0,0.0,0.0,0.0
1470064465263681755,0.0,-0.000862172852023,0.0,0.0,0.0,0.0
1470064465338021551,0.0,-0.000819109986289,0.0,0.0,0.0,0.0
1470064465411303585,0.006,0.0,0.0,0.0,0.0,0.0
1470064465484252049,0.006,0.0,0.0,0.0,0.0,0.0
1470064465559737484,0.006,0.0,0.0,0.0,0.0,0.0
1470064465640188591,0.006,0.0,0.0,0.0,0.0,0.0
1470064465716855650,0.006,0.0,0.0,0.0,0.0,0.0
1470064465791368178,0.006,0.0,0.0,0.0,0.0,0.0
1470064465867088543,0.006,0.0,0.0,0.0,0.0,0.0
1470064465940198743,0.006,0.0,0.0,0.0,0.0,0.0
1470064466012304661,0.006,0.0,0.0,0.0,0.0,0.0
1470064466086398687,0.006,0.0,0.0,0.0,0.0,0.0
1470064466163127538,0.006,0.0,0.0,0.0,0.0,0.0
1470064466242004150,0.006,0.0,0.0,0.0,0.0,0.0
1470064466316172306,0.006,0.0,0.0,0.0,0.0,0.0
1470064466394597122,0.006,0.0,0.0,0.0,0.0,0.0
1470064466471485075,0.0,0.0,0.0,0.0,0.0,0.00307329715002
1470064466551037424,0.0,0.0,0.0,0.0,0.0,0.00348289697057
1470064466627351520,0.006,0.0,0.0,0.0,0.0,0.0
1470064466706444771,0.006,0.0,0.0,0.0,0.0,0.0
1470064466780726691,0.006,0.0,0.0,0.0,0.0,0.0
1470064466853903578,0.006,0.0,0.0,0.0,0.0,0.0
1470064466926978720,0.0,0.0,0.0,0.0,0.0,0.0034412382294
1470064467001854044,0.0,0.0,0.0,0.0,0.0,0.00396356500494
1470064467079160833,0.0,0.0,0.0,0.0,0.0,0.00348387025353
1470064467151753110,0.0,0.0,0.0,0.0,0.0,0.00721114556492
1470064467229071266,0.006,0.0,0.0,0.0,0.0,0.0
1470064467304763218,0.006,0.0,0.0,0.0,0.0,0.0
1470064467381997747,0.006,0.0,0.0,0.0,0.0,0.0
1470064467455866660,0.006,0.0,0.0,0.0,0.0,0.0
1470064467532528285,0.006,0.0,0.0,0.0,0.0,0.0
1470064467606053640,0.006,0.0,0.0,0.0,0.0,0.0
1470064467680655885,0.006,0.0,0.0,0.0,0.0,0.0
1470064467763333275,0.0,0.000820513022379,0.0,0.0,0.0,0.0
1470064467841362042,0.0,0.000864083645181,0.0,0.0,0.0,0.0
1470064467917711348,0.0,0.000837552127676,0.0,0.0,0.0,0.0
1470064467991404711,0.006,0.0,0.0,0.0,0.0,0.0
1470064468065018061,0.006,0.0,0.0,0.0,0.0,0.0
1470064468138871794,0.0,0.0,0.0,0.0,0.0,0.00436510882265
1470064468213262676,0.006,0.0,0.0,0.0,0.0,0.0
1470064468291096240,0.006,0.0,0.0,0.0,0.0,0.0
1470064468364645499,0.006,0.0,0.0,0.0,0.0,0.0
1470064468442550763,0.0,0.0,0.0,0.0,0.0,0.00299017970919
1470064468526267051,0.006,0.0,0.0,0.0,0.0,0.0
1470064468603295873,0.0,0.0,0.0,0.0,0.0,0.00331985966897
1470064468678538940,0.0,0.0,0.0,0.0,0.0,0.00403042462733
1470064468751578420,0.0,0.0,0.0,0.0,0.0,0.00336246551772
1470064468823810594,0.006,0.0,0.0,0.0,0.0,0.0
1470064468899837492,0.006,0.0,0.0,0.0,0.0,0.0
1470064468973173299,0.006,0.0,0.0,0.0,0.0,0.0
1470064469047985979,0.006,0.0,0.0,0.0,0.0,0.0
1470064469120915688,0.006,0.0,0.0,0.0,0.0,0.0
1470064469191726662,0.006,0.0,0.0,0.0,0.0,0.0
1470064469272754327,0.006,0.0,0.0,0.0,0.0,0.0
1470064469346374786,0.0,0.0,0.0,0.0,0.0,0.00396878162933
1470064469423497870,0.006,0.0,0.0,0.0,0.0,0.0
1470064469508666887,0.0,0.0,0.0,0.0,0.0,0.00491582814675
1470064469585672032,0.006,0.0,0.0,0.0,0.0,0.0
1470064469659585367,0.006,0.0,0.0,0.0,0.0,0.0
1470064469733228615,0.006,0.0,0.0,0.0,0.0,0.0
1470064469808269162,0.006,0.0,0.0,0.0,0.0,0.0
1470064469889411303,0.0,-0.000868124003275,0.0,0.0,0.0,0.0
1470064469964147922,0.0,-0.000943165505989,0.0,0.0,0.0,0.00287937780328
1470064470042170902,0.0,-0.000975171710117,0.0,0.0,0.0,0.0
1470064470116758529,0.0,-0.000960002700551,0.0,0.0,0.0,0.0
1470064470188980230,0.0,-0.000966839725836,0.0,0.0,0.0,0.0
1470064470261729786,0.0,-0.000975648174747,0.0,0.0,0.0,0.0
1470064470335676399,0.0,-0.00101470598088,0.0,0.0,0.0,0.0
1470064470411634475,0.0,-0.00106233791517,0.0,0.0,0.0,0.0
1470064470486237908,0.0,-0.00113101550446,0.0,0.0,0.0,0.0
1470064470560897989,0.0,-0.00117226191865,0.0,0.0,0.0,0.0
1470064470635462632,0.0,-0.00130030238138,0.0,0.0,0.0,0.0
1470064470707090083,0.0,-0.00147459157811,0.0,0.0,0.0,0.0
1470064470791263309,0.0,-0.00157993459211,0.0,0.0,0.0,0.0
1470064470867206915,0.0,-0.00155635164188,0.0,0.0,0.0,0.0
1470064470943526916,0.0,-0.00153847360121,0.0,0.0,0.0,0.0
1470064471021605835,0.0,-0.00152118788169,0.0,0.0,0.0,0.0
1470064471096882125,0.0,-0.00152846486376,0.0,0.0,0.0,0.0
1470064471169403108,0.0,-0.00149904885398,0.0,0.0,0.0,0.0
1470064471243295699,0.0,-0.00147945382701,0.0,0.0,0.0,0.0
1470064471316705779,0.0,-0.00145852365599,0.0,0.0,0.0,0.0
1470064471388527271,0.0,-0.00140251764165,0.0,0.0,0.0,0.0
1470064471461212111,0.0,-0.00136959948645,0.0,0.0,0.0,0.0
1470064471538112562,0.0,-0.00132410475121,0.0,0.0,0.0,0.0
1470064471613656387,0.0,-0.00129133150981,0.0,0.0,0.0,0.0
1470064471686172238,0.0,-0.00123048969613,0.0,0.0,0.0,0.0
1470064471759475960,0.0,-0.00119549357401,0.0,0.0,0.0,0.0
1470064471833807886,0.0,-0.00115487375365,0.0,0.0,0.0,0.0
1470064471906482971,0.0,-0.00111448788153,0.0,0.0,0.0,0.0
1470064471978492698,0.0,-0.00106977582978,0.0,0.0,0.0,0.0
1470064472051491600,0.0,-0.00102277868496,0.0,0.0,0.0,0.0
1470064472124798989,0.0,-0.000992512563928,0.0,0.0,0.0,0.0
1470064472199749118,0.0,-0.000961790839894,0.0,0.0,0.0,0.0
1470064472273735780,0.0,-0.000934509793981,0.0,0.0,0.0,0.0
1470064472348634424,0.0,-0.000885927165611,0.0,0.0,0.0,0.0
1470064472421524325,0.0,-0.000840684259995,0.0,0.0,0.0,0.0
1470064472493729664,0.0,-0.00082267695175,0.0,0.0,0.0,0.0
1470064472568451281,0.006,0.0,0.0,0.0,0.0,0.0
1470064472644243803,0.006,0.0,0.0,0.0,0.0,0.0
1470064472718222995,0.006,0.0,0.0,0.0,0.0,0.0
1470064472790769181,0.006,0.0,0.0,0.0,0.0,0.0
1470064472865030598,0.006,0.0,0.0,0.0,0.0,0.0
1470064472942221425,0.006,0.0,0.0,0.0,0.0,0.0
1470064473018483139,0.006,0.0,0.0,0.0,0.0,0.0
1470064473091232719,0.006,0.0,0.0,0.0,0.0,0.0
1470064473165558325,0.006,0.0,0.0,0.0,0.0,0.0
1470064473245291943,0.006,0.0,0.0,0.0,0.0,0.0
1470064473323395560,0.006,0.0,0.0,0.0,0.0,0.0
1470064473396820841,0.006,0.0,0.0,0.0,0.0,0.0
1470064473489448796,0.006,0.0,0.0,0.0,0.0,0.0
1470064473560781892,0.006,0.0,0.0,0.0,0.0,0.0
1470064473632974776,0.006,0.0,0.0,0.0,0.0,0.0
1470064473706680502,0.006,0.0,0.0,0.0,0.0,0.0
1470064473789067978,0.006,0.0,0.0,0.0,0.0,0.0
1470064473861943184,0.006,0.0,0.0,0.0,0.0,0.0
1470064473938808513,0.006,0.0,0.0,0.0,0.0,0.0
1470064474013870035,0.006,0.0,0.0,0.0,0.0,0.0
1470064474087388703,0.006,0.0,0.0,0.0,0.0,0.0
1470064474159226728,0.006,0.0,0.0,0.0,0.0,0.0
1470064474242516668,0.006,0.0,0.0,0.0,0.0,0.0
1470064474315234475,0.006,0.0,0.0,0.0,0.0,0.0
1470064474390021915,0.006,0.0,0.0,0.0,0.0,0.0
1470064474463423730,0.0,0.0,0.0,0.0,0.0,0.00352012998255
1470064474539964156,0.0,0.0,0.0,0.0,0.0,0.00285883039826
1470064474615182984,0.006,0.0,0.0,0.0,0.0,0.0
1470064474689057291,0.006,0.0,0.0,0.0,0.0,0.0
1470064474765112820,0.006,0.0,0.0,0.0,0.0,0.0
1470064474841500246,0.006,0.0,0.0,0.0,0.0,0.0
1470064474921175632,0.006,0.0,0.0,0.0,0.0,0.0
1470064474995197383,0.0,0.0,0.0,0.0,0.0,0.00294426952675
1470064475071346234,0.006,0.0,0.0,0.0,0.0,0.0
1470064475144593785,0.006,0.0,0.0,0.0,0.0,0.0
1470064475219313283,0.006,0.0,0.0,0.0,0.0,0.0
1470064475295122816,0.006,0.0,0.0,0.0,0.0,0.0
1470064475370445622,0.006,0.0,0.0,0.0,0.0,0.0
1470064475445234625,0.006,0.0,0.0,0.0,0.0,0.0
1470064475520442515,0.006,0.0,0.0,0.0,0.0,0.0
1470064475596900404,0.006,0.0,0.0,0.0,0.0,0.0
1470064475671722671,0.006,0.0,0.0,0.0,0.0,0.0
1470064475745352652,0.006,0.0,0.0,0.0,0.0,0.0
1470064475815838993,0.006,0.0,0.0,0.0,0.0,0.0
1470064475894434168,0.006,0.0,0.0,0.0,0.0,0.0
1470064475971252046,0.006,0.0,0.0,0.0,0.0,0.0
1470064476047886432,0.006,0.0,0.0,0.0,0.0,0.0
1470064476120609934,0.006,0.0,0.0,0.0,0.0,0.0
1470064476197400254,0.006,0.0,0.0,0.0,0.0,0.0
1470064476271191658,0.006,0.0,0.0,0.0,0.0,0.0
1470064476344928694,0.006,0.0,0.0,0.0,0.0,0.0
1470064476417241824,0.006,0.0,0.0,0.0,0.0,0.0
1470064476491196107,0.006,0.0,0.0,0.0,0.0,0.0
1470064476566043156,0.006,0.0,0.0,0.0,0.0,0.0
1470064476643557766,0.0,0.0,0.0,0.0,0.0,0.00299730371462
1470064476716877204,0.006,0.0,0.0,0.0,0.0,0.0
1470064476791638983,0.006,0.0,0.0,0.0,0.0,0.0
1470064476869108027,0.006,0.0,0.0,0.0,0.0,0.0
1470064476944667689,0.006,0.0,0.0,0.0,0.0,0.0
1470064477016392848,0.006,0.0,0.0,0.0,0.0,0.0
1470064477089189536,0.006,0.0,0.0,0.0,0.0,0.0
1470064477162636241,0.006,0.0,0.0,0.0,0.0,0.0
1470064477237019025,0.006,0.0,0.0,0.0,0.0,0.0
1470064477312958102,0.006,0.0,0.0,0.0,0.0,0.0
1470064477390911992,0.006,0.0,0.0,0.0,0.0,0.0
1470064477462665430,0.006,0.0,0.0,0.0,0.0,0.0
1470064477539736639,0.006,0.0,0.0,0.0,0.0,0.0
1470064477615409746,0.006,0.0,0.0,0.0,0.0,0.0
1470064477689847029,0.006,0.0,0.0,0.0,0.0,0.0
1470064477762772734,0.006,0.0,0.0,0.0,0.0,0.0
1470064477835012664,0.006,0.0,0.0,0.0,0.0,0.0
1470064477915414265,0.006,0.0,0.0,0.0,0.0,0.0
1470064477987130215,0.006,0.0,0.0,0.0,0.0,0.0
1470064478059718768,0.006,0.0,0.0,0.0,0.0,0.0
1470064478139181486,0.006,0.0,0.0,0.0,0.0,0.0
1470064478214708315,0.006,0.0,0.0,0.0,0.0,0.0
1470064478292312865,0.006,0.0,0.0,0.0,0.0,0.0
1470064478374151598,0.006,0.0,0.0,0.0,0.0,0.0
1470064478446866178,0.006,0.0,0.0,0.0,0.0,0.0
1470064478522949772,0.006,0.0,0.0,0.0,0.0,0.0
1470064478601120517,0.006,0.0,0.0,0.0,0.0,0.0
1470064478676567573,0.006,0.0,0.0,0.0,0.0,0.0
1470064478755612503,0.006,0.0,0.0,0.0,0.0,0.0
1470064478828650571,0.006,0.0,0.0,0.0,0.0,0.0
1470064478900697262,0.006,0.0,0.0,0.0,0.0,0.0
1470064478975176574,0.006,0.0,0.0,0.0,0.0,0.0
1470064479046692449,0.006,0.0,0.0,0.0,0.0,0.0
1470064479124053653,0.0,0.0,0.0,0.0,0.0,0.00287403775135
1470064479198771908,0.006,0.0,0.0,0.0,0.0,0.0
1470064479272409127,0.006,0.0,0.0,0.0,0.0,0.0
1470064479344634108,0.006,0.0,0.0,0.0,0.0,0.0
1470064479421188437,0.006,0.0,0.0,0.0,0.0,0.0
1470064479498693111,0.006,0.0,0.0,0.0,0.0,0.0
1470064479571891303,0.006,0.0,0.0,0.0,0.0,0.0
1470064479651381906,0.006,0.0,0.0,0.0,0.0,0.0
1470064479730985899,0.0,0.0,0.0,0.0,0.0,0.00408216749275
1470064479805549852,0.006,0.0,0.0,0.0,0.0,0.0
1470064479880578743,0.006,0.0,0.0,0.0,0.0,0.0
1470064479957439513,0.006,0.0,0.0,0.0,0.0,0.0
1470064480030234985,0.0,0.0,0.0,0.0,0.0,0.0034061021862
1470064480102628868,0.006,0.0,0.0,0.0,0.0,0.0
1470064480172682083,0.006,0.0,0.0,0.0,0.0,0.0
1470064480253629282,0.006,0.0,0.0,0.0,0.0,0.0
1470064480328177322,0.0,0.0,0.0,0.0,0.0,0.00352871550294
1470064480399412887,0.006,0.0,0.0,0.0,0.0,0.0
1470064480473296278,0.006,0.0,0.0,0.0,0.0,0.0
1470064480546084601,0.006,0.0,0.0,0.0,0.0,0.0
1470064480620010888,0.006,0.0,0.0,0.0,0.0,0.0
1470064480694770531,0.006,0.0,0.0,0.0,0.0,0.0
1470064480768429475,0.006,0.0,0.0,0.0,0.0,0.0
1470064480844799106,0.006,0.0,0.0,0.0,0.0,0.0
1470064480928683621,0.0,0.0,0.0,0.0,0.0,0.00282729286241
1470064481002918626,0.006,0.0,0.0,0.0,0.0,0.0
1470064481078455361,0.0,0.0,0.0,0.0,0.0,0.00307418482629
1470064481155621403,0.006,0.0,0.0,0.0,0.0,0.0
1470064481231844462,0.006,0.0,0.0,0.0,0.0,0.0
1470064481316399277,0.0,0.0,0.0,0.0,0.0,0.00339349171983
1470064481392138777,0.0,0.0,0.0,0.0,0.0,0.00328820057523
1470064481467118139,0.006,0.0,0.0,0.0,0.0,0.0
1470064481539049788,0.006,0.0,0.0,0.0,0.0,0.0
1470064481613105527,0.0,0.0,0.0,0.0,0.0,0.00291340118567
1470064481685801571,0.0,0.0,0.0,0.0,0.0,0.00305835812795
1470064481761773455,0.006,0.0,0.0,0.0,0.0,0.0
1470064481835959352,0.006,0.0,0.0,0.0,0.0,0.0
1470064481909917970,0.0,0.0,0.0,0.0,0.0,0.00281796768259
1470064481983079690,0.0,0.0,0.0,0.0,0.0,0.00344713249411
1470064482055278202,0.006,0.0,0.0,0.0,0.0,0.0
1470064482127086577,0.006,0.0,0.0,0.0,0.0,0.0
1470064482200387183,0.0,0.0,0.0,0.0,0.0,0.00287744316475
1470064482272785383,0.0,0.0,0.0,0.0,0.0,0.00302952243597
1470064482348440903,0.006,0.0,0.0,0.0,0.0,0.0
1470064482421710015,0.006,0.0,0.0,0.0,0.0,0.0
1470064482497559828,0.0,0.0,0.0,0.0,0.0,0.0028416381262
1470064482571249962,0.0,0.0,0.0,0.0,0.0,0.0027967283266
1470064482645387507,0.0,0.0,0.0,0.0,0.0,0.00412809988697
1470064482722820771,0.006,0.0,0.0,0.0,0.0,0.0
1470064482798872702,0.006,0.0,0.0,0.0,0.0,0.0
1470064482872978141,0.006,0.0,0.0,0.0,0.0,0.0
1470064482945182176,0.006,0.0,0.0,0.0,0.0,0.0
1470064483023948639,0.0,0.0,0.0,0.0,0.0,0.00282925686071
1470064483099858060,0.0,0.0,0.0,0.0,0.0,0.00345451281616
1470064483174180423,0.0,0.0,0.0,0.0,0.0,0.0035363827767
1470064483246163778,0.0,0.0,0.0,0.0,0.0,0.00372361991786
1470064483325063752,0.0,0.0,0.0,0.0,0.0,0.00388664798225
1470064483398886028,0.006,0.0,0.0,0.0,0.0,0.0
1470064483472176852,0.006,0.0,0.0,0.0,0.0,0.0
1470064483547391847,0.006,0.0,0.0,0.0,0.0,0.0
1470064483625128879,0.0,0.0,0.0,0.0,0.0,0.00305294072896
1470064483699832364,0.006,0.0,0.0,0.0,0.0,0.0
1470064483774139997,0.006,0.0,0.0,0.0,0.0,0.0
1470064483847456586,0.006,0.0,0.0,0.0,0.0,0.0
1470064483923993861,0.006,0.0,0.0,0.0,0.0,0.0
1470064484000505848,0.006,0.0,0.0,0.0,0.0,0.0
1470064484076570486,0.006,0.0,0.0,0.0,0.0,0.0
1470064484154967972,0.006,0.0,0.0,0.0,0.0,0.0
1470064484228576356,0.006,0.0,0.0,0.0,0.0,0.0
1470064484300966050,0.006,0.0,0.0,0.0,0.0,0.0
1470064484381242080,0.006,0.0,0.0,0.0,0.0,0.0
1470064484455719729,0.006,0.0,0.0,0.0,0.0,0.0
1470064484528123562,0.006,0.0,0.0,0.0,0.0,0.0
1470064484598668729,0.006,0.0,0.0,0.0,0.0,0.0
1470064484670634767,0.006,0.0,0.0,0.0,0.0,0.0
1470064484743233930,0.006,0.0,0.0,0.0,0.0,0.0
