%time,field.linear.x,field.linear.y,field.linear.z,field.angular.x,field.angular.y,field.angular.z
1470066232432953485,0.1,-0.0520511651884,0.0,0.0,0.0,0.0281848467053
1470066232518175471,0.1,-0.0520511651884,0.0,0.0,0.0,0.0281848467053
1470066232592237069,0.1,-0.0520511651884,0.0,0.0,0.0,0.0281848467053
1470066232663750126,0.1,-0.0520511651884,0.0,0.0,0.0,0.0281848467053
1470066232736742202,0.1,-0.0520511651884,0.0,0.0,0.0,0.0281848467053
1470066232808265446,0.1,-0.0520511651884,0.0,0.0,0.0,0.0281848467053
1470066232880693356,0.1,-0.0520511651884,0.0,0.0,0.0,0.0281848467053
1470066232951603399,0.1,-0.0520511651884,0.0,0.0,0.0,0.0281848467053
1470066233023343289,0.1,-0.0516482139479,0.0,0.0,0.0,0.0214510746338
1470066233093293104,0.1,-0.0516760671984,0.0,0.0,0.0,0.0177945426614
1470066233170388040,0.1,-0.0527417624842,0.0,0.0,0.0,0.0
1470066233240910844,0.1,-0.052590861405,0.0,0.0,0.0,0.00404673695953
1470066233316977907,0.1,-0.0522456491839,0.0,0.0,0.0,0.012124952671
1470066233394734107,0.1,-0.0511224056135,0.0,0.0,0.0,0.0149591545737
1470066233480334784,0.1,-0.0514804209124,0.0,0.0,0.0,0.0320673926807
1470066233555511905,0.1,-0.0514805997263,0.0,0.0,0.0,0.0377072219645
1470066233632797719,0.1,-0.052147969092,0.0,0.0,0.0,0.0305803081825
1470066233707444053,0.1,-0.0525006259333,0.0,0.0,0.0,0.040239391397
1470066233785230923,0.1,-0.0525228763472,0.0,0.0,0.0,0.0283418252388
1470066233864935605,0.1,-0.0523251260172,0.0,0.0,0.0,0.0131892987342
1470066233939191697,0.1,-0.0519037807833,0.0,0.0,0.0,0.0122919821992
1470066234012992728,0.1,-0.0495837593924,0.0,0.0,0.0,0.0235517618661
1470066234095277992,0.1,-0.0492970014464,0.0,0.0,0.0,0.0330212173083
1470066234175498498,0.1,-0.0484423304449,0.0,0.0,0.0,0.0193795479242
1470066234256261780,0.1,-0.0484344089876,0.0,0.0,0.0,0.0212352878545
1470066234334854311,0.1,-0.0483997369658,0.0,0.0,0.0,0.0235594199228
1470066234413476161,0.1,-0.0474769616972,0.0,0.0,0.0,0.0437181650625
1470066234492067301,0.1,-0.0474943066488,0.0,0.0,0.0,0.0221957441419
1470066234572219112,0.1,-0.0482263410936,0.0,0.0,0.0,0.0284188274019
1470066234648282797,0.1,-0.0485630536924,0.0,0.0,0.0,0.0296043561021
1470066234729338454,0.1,-0.0486281956087,0.0,0.0,0.0,0.0250737890321
1470066234806128128,0.1,-0.0484134519945,0.0,0.0,0.0,0.0167444232268
1470066234888601499,0.1,-0.0479383791338,0.0,0.0,0.0,0.0149962460742
1470066234971758816,0.1,-0.0463275427471,0.0,0.0,0.0,0.00759134952223
1470066235051807987,0.1,-0.0460409099709,0.0,0.0,0.0,0.00805250058327
1470066235127743643,0.1,-0.0460650200497,0.0,0.0,0.0,0.0398112263752
1470066235205105547,0.1,-0.0460813696037,0.0,0.0,0.0,0.03222971096
1470066235282948483,0.1,-0.046077137674,0.0,0.0,0.0,0.0146369991589
1470066235364444545,0.1,-0.0452538962017,0.0,0.0,0.0,0.0341791980388
1470066235443794943,0.1,-0.0452368492733,0.0,0.0,0.0,0.0331797865558
1470066235519142364,0.1,-0.0451822752606,0.0,0.0,0.0,0.0155400140096
1470066235594708569,0.1,-0.0444570119034,0.0,0.0,0.0,0.00677456035613
1470066235681271496,0.1,-0.0443647796761,0.0,0.0,0.0,0.0138119143663
1470066235760701832,0.1,-0.0437926972757,0.0,0.0,0.0,0.005356324817
1470066235840802317,0.1,-0.0436301524292,0.0,0.0,0.0,0.013001333547
1470066235917460112,0.1,-0.0424260968815,0.0,0.0,0.0,0.0181463361736
1470066235992414525,0.1,-0.0421865726362,0.0,0.0,0.0,0.0208995828072
1470066236075566547,0.1,-0.0415773893248,0.0,0.0,0.0,0.0123193360361
1470066236152374960,0.1,-0.0416613126646,0.0,0.0,0.0,0.0396208447812
1470066236230515370,0.1,-0.0416795159231,0.0,0.0,0.0,0.0289580584118
1470066236304768615,0.1,-0.0415650839459,0.0,0.0,0.0,0.0148940242424
1470066236387649315,0.1,-0.0404841566931,0.0,0.0,0.0,0.0111494482691
1470066236466117488,0.1,-0.0401855851065,0.0,0.0,0.0,0.0098678956305
1470066236554562820,0.1,-0.0397747988354,0.0,0.0,0.0,0.0291584418358
1470066236627136742,0.1,-0.0390098596464,0.0,0.0,0.0,0.00858988971437
1470066236707107372,0.1,-0.038312696899,0.0,0.0,0.0,0.0190211830922
1470066236795158278,0.1,-0.0377933944117,0.0,0.0,0.0,0.0249358619904
1470066236875797699,0.1,-0.0371911371599,0.0,0.0,0.0,0.0289298614145
1470066236949553885,0.1,-0.037037223066,0.0,0.0,0.0,0.0177962471774
1470066237022276873,0.1,-0.0362317169558,0.0,0.0,0.0,0.0
1470066237095426821,0.1,-0.0351603383671,0.0,0.0,0.0,0.00918170167741
1470066237174710496,0.1,-0.0350366259466,0.0,0.0,0.0,0.00975501995704
1470066237253460797,0.1,-0.034885256971,0.0,0.0,0.0,0.023733408556
1470066237335009756,0.1,-0.0337118084084,0.0,0.0,0.0,0.0436760014048
1470066237409162775,0.1,-0.0338236624847,0.0,0.0,0.0,0.0366888873381
1470066237490704863,0.1,-0.0333393807064,0.0,0.0,0.0,0.00412773279303
1470066237565965738,0.1,-0.0326181496035,0.0,0.0,0.0,0.00858658803676
1470066237642760057,0.1,-0.0323677206884,0.0,0.0,0.0,0.00659056159558
1470066237722997671,0.1,-0.0324959064375,0.0,0.0,0.0,0.00996564391747
1470066237806627377,0.1,-0.0319946909796,0.0,0.0,0.0,0.0115526473758
1470066237888916287,0.1,-0.0320282990585,0.0,0.0,0.0,0.0248863440426
1470066237971811473,0.1,-0.0316567654263,0.0,0.0,0.0,-0.00629681152374
1470066238051668161,0.1,-0.0310126180302,0.0,0.0,0.0,0.0379973608655
1470066238128896283,0.1,-0.0309131199967,0.0,0.0,0.0,0.0101131952648
1470066238209096078,0.1,-0.0308893764864,0.0,0.0,0.0,0.00786094434671
1470066238290607608,0.1,-0.030096956576,0.0,0.0,0.0,0.0
1470066238365630798,0.1,-0.0299059415709,0.0,0.0,0.0,0.0329872099985
1470066238444256602,0.1,-0.0294373000513,0.0,0.0,0.0,-0.00318542379658
1470066238520468297,0.1,-0.0288221830975,0.0,0.0,0.0,0.0169453031078
1470066238593778122,0.1,-0.0283108974348,0.0,0.0,0.0,0.0138475849109
1470066238668267260,0.1,-0.0278703475844,0.0,0.0,0.0,-0.00718208591722
1470066238751232430,0.1,-0.0269363934647,0.0,0.0,0.0,-0.00818421047906
1470066238828942075,0.1,-0.0267054195057,0.0,0.0,0.0,0.00805982037176
1470066238902849603,0.1,-0.0261033053051,0.0,0.0,0.0,0.0
1470066238982414693,0.1,-0.0254578317057,0.0,0.0,0.0,0.0169834457546
1470066239067427498,0.1,-0.0249993676792,0.0,0.0,0.0,0.00671848014481
1470066239145087589,0.1,-0.024237864698,0.0,0.0,0.0,-0.00754444338677
1470066239226964551,0.1,-0.0234057629953,0.0,0.0,0.0,0.0386280130353
1470066239303377054,0.1,-0.0230157400023,0.0,0.0,0.0,0.00810864354537
1470066239379498023,0.1,-0.0223571653019,0.0,0.0,0.0,-0.00380228708583
1470066239459122328,0.1,-0.0215663994204,0.0,0.0,0.0,0.0368214557096
1470066239535270435,0.1,-0.0211322332274,0.0,0.0,0.0,0.00307076554968
1470066239613812916,0.1,-0.0206312055241,0.0,0.0,0.0,0.00303764666054
1470066239692053873,0.1,-0.0195821280132,0.0,0.0,0.0,0.0
1470066239768737712,0.1,-0.0189126531135,0.0,0.0,0.0,0.0396322078558
1470066239841485457,0.1,-0.0185479680549,0.0,0.0,0.0,0.0
1470066239914506388,0.1,-0.0177157963167,0.0,0.0,0.0,0.00692851211012
1470066239986939770,0.1,-0.017520769919,0.0,0.0,0.0,0.0120849090973
1470066240063685613,0.1,-0.0169830793987,0.0,0.0,0.0,0.0183725201274
1470066240137259559,0.1,-0.0165639484774,0.0,0.0,0.0,0.00489696452942
1470066240214010725,0.1,-0.0160540068995,0.0,0.0,0.0,0.0094066471876
1470066240291210755,0.1,-0.0159892673145,0.0,0.0,0.0,0.0102188971659
1470066240369920419,0.1,-0.0154721746694,0.0,0.0,0.0,0.0
1470066240444371514,0.1,-0.0150415281306,0.0,0.0,0.0,0.0
1470066240520541794,0.1,-0.0146133775364,0.0,0.0,0.0,-0.00378217162098
1470066240599934879,0.1,-0.0145734543453,0.0,0.0,0.0,0.0
1470066240683857523,0.1,-0.0141634339939,0.0,0.0,0.0,0.015350265812
1470066240763604801,0.1,-0.0137017930399,0.0,0.0,0.0,-0.00579795579953
1470066240841430071,0.1,-0.0137391383301,0.0,0.0,0.0,0.00816545081205
1470066240921496902,0.1,-0.01333991387,0.0,0.0,0.0,0.0
1470066240997405197,0.1,-0.0132520178805,0.0,0.0,0.0,0.0
1470066241076480453,0.1,-0.0130310470711,0.0,0.0,0.0,0.0
1470066241155453247,0.1,-0.0127746904741,0.0,0.0,0.0,0.0
1470066241232015998,0.1,-0.0125393653761,0.0,0.0,0.0,0.0
1470066241312141728,0.1,-0.0122574070941,0.0,0.0,0.0,-0.00310612111129
1470066241391637014,0.1,-0.0118568728219,0.0,0.0,0.0,0.0116126838075
1470066241471500893,0.1,-0.0115691850434,0.0,0.0,0.0,-0.00581369809981
1470066241546282926,0.1,-0.0113726670395,0.0,0.0,0.0,0.0
1470066241627228444,0.1,-0.0108607838403,0.0,0.0,0.0,0.0
1470066241703944040,0.1,-0.0105222756516,0.0,0.0,0.0,0.0116737363054
1470066241783916774,0.1,-0.0101917619358,0.0,0.0,0.0,0.0
1470066241864534079,0.1,-0.00967554249869,0.0,0.0,0.0,-0.00609126394444
1470066241944790993,0.1,-0.00939198234187,0.0,0.0,0.0,-0.00862605170141
1470066242025990453,0.1,-0.00915639200316,0.0,0.0,0.0,0.00921453642981
1470066242104694781,0.1,-0.00871428796159,0.0,0.0,0.0,0.0
1470066242184054714,0.1,-0.00840748348342,0.0,0.0,0.0,0.00431233358095
1470066242261389955,0.1,-0.00798048474894,0.0,0.0,0.0,0.00852239209856
1470066242341900779,0.1,-0.0077262314509,0.0,0.0,0.0,0.0
1470066242419646206,0.1,-0.00745787718402,0.0,0.0,0.0,0.00747839847276
1470066242495293847,0.1,-0.00709000923739,0.0,0.0,0.0,0.00420479171197
1470066242566592235,0.1,-0.00689362161861,0.0,0.0,0.0,0.0
1470066242644926438,0.1,-0.0065384285997,0.0,0.0,0.0,0.00542051341273
1470066242721898465,0.1,-0.00631361403571,0.0,0.0,0.0,0.00321032867058
1470066242797724768,0.1,-0.00612777420388,0.0,0.0,0.0,0.00940056311368
1470066242875206373,0.1,-0.00595321157084,0.0,0.0,0.0,0.0111406778089
1470066242952242199,0.0,-0.00576039501534,0.0,0.0,0.0,0.0102753641505
1470066243028496760,0.0,-0.00565763437258,0.0,0.0,0.0,0.0102268570538
1470066243103178135,0.0,-0.00560218566166,0.0,0.0,0.0,0.00350460340496
1470066243175464016,0.0,-0.00553355314837,0.0,0.0,0.0,0.0
1470066243251014271,0.0,-0.00549144544707,0.0,0.0,0.0,0.0
1470066243327520439,0.0,-0.0055150578271,0.0,0.0,0.0,0.0103446085415
1470066243403578503,0.0,-0.00547612407313,0.0,0.0,0.0,0.00414937083718
1470066243476761236,0.0,-0.00545258694397,0.0,0.0,0.0,0.00999457826184
1470066243549502035,0.0,-0.00546740614878,0.0,0.0,0.0,-0.00447465825806
1470066243622757976,0.0,-0.00551175274955,0.0,0.0,0.0,0.0
1470066243699087923,0.0,-0.00557005577789,0.0,0.0,0.0,0.0
1470066243776560443,0.0,-0.00566268959151,0.0,0.0,0.0,0.0
1470066243857091494,0.0,-0.00570568689214,0.0,0.0,0.0,0.00534392756735
1470066243931220041,0.0,-0.00593058490263,0.0,0.0,0.0,-0.00441192008049
1470066244004447644,0.0,-0.00616210871445,0.0,0.0,0.0,0.0
1470066244079681885,0.0,-0.0061270134996,0.0,0.0,0.0,-0.00556523515146
1470066244153734310,0.0,-0.00606782087193,0.0,0.0,0.0,-0.00573866461928
1470066244229279741,0.0,-0.0060202563654,0.0,0.0,0.0,-0.00572614403739
1470066244304419359,0.0,-0.0059448646854,0.0,0.0,0.0,-0.00521773678048
1470066244378780526,0.0,-0.00582963251577,0.0,0.0,0.0,-0.00462034472671
1470066244458680613,0.0,-0.00568472617374,0.0,0.0,0.0,-0.00444637491368
1470066244531540842,0.0,-0.00550569840775,0.0,0.0,0.0,-0.0038260077051
1470066244605191249,0.0,-0.00527930134044,0.0,0.0,0.0,0.0
1470066244679128955,0.0,-0.00508893081055,0.0,0.0,0.0,0.0
1470066244758922337,0.0,-0.0048743391882,0.0,0.0,0.0,0.0
1470066244835773056,0.0,-0.00464164489017,0.0,0.0,0.0,0.0
1470066244913700662,0.0,-0.0042412328075,0.0,0.0,0.0,0.0
1470066244989318305,0.0,-0.00397394546376,0.0,0.0,0.0,0.00309648370965
1470066245061964287,0.0,-0.00372966178761,0.0,0.0,0.0,0.00312473262153
1470066245143577105,0.0,-0.00349061288939,0.0,0.0,0.0,0.00641365536459
1470066245217440761,0.0,-0.00314061143504,0.0,0.0,0.0,0.0
1470066245296991584,0.0,-0.00292753302561,0.0,0.0,0.0,0.0
1470066245373144260,0.0,-0.00277038016425,0.0,0.0,0.0,0.00309415350885
1470066245447541790,0.0,-0.00255484976874,0.0,0.0,0.0,0.0
1470066245524976874,0.0,-0.00242202193545,0.0,0.0,0.0,0.00853165535006
1470066245605375255,0.0,-0.00229033739374,0.0,0.0,0.0,0.00337589721906
1470066245682994866,0.0,-0.00212945328162,0.0,0.0,0.0,0.0
1470066245762184644,0.0,-0.00205000401543,0.0,0.0,0.0,0.0
1470066245841237560,0.0,-0.00197200574981,0.0,0.0,0.0,0.00657836376982
1470066245920150427,0.0,-0.00186173529433,0.0,0.0,0.0,-0.00437467054352
1470066245995308940,0.0,-0.00179891684161,0.0,0.0,0.0,0.0
1470066246075721994,0.0,-0.00175551944481,0.0,0.0,0.0,0.0
1470066246152931184,0.0,-0.00168837220476,0.0,0.0,0.0,0.0
1470066246228962629,0.0,-0.00163287581013,0.0,0.0,0.0,-0.00279464166072
1470066246312981935,0.0,-0.0016145786743,0.0,0.0,0.0,0.0
1470066246393631205,0.0,-0.00157833756016,0.0,0.0,0.0,0.0
1470066246469462967,0.0,-0.00149707333253,0.0,0.0,0.0,0.0
1470066246548550856,0.0,-0.00149083905922,0.0,0.0,0.0,-0.00372485601691
1470066246627020537,0.0,-0.00152450897799,0.0,0.0,0.0,0.0
1470066246702795053,0.0,-0.00147700035082,0.0,0.0,0.0,-0.00404954858768
1470066246777386595,0.0,-0.00134846665965,0.0,0.0,0.0,-0.00293275863487
1470066246848503776,0.0,-0.00121089466916,0.0,0.0,0.0,-0.00432868713269
1470066246921886786,0.0,-0.00118378908442,0.0,0.0,0.0,-0.00354492502453
1470066246998224584,0.0,-0.00113853649305,0.0,0.0,0.0,0.0
1470066247076024233,0.0,-0.00106365108,0.0,0.0,0.0,-0.00373103031791
1470066247155450511,0.0,-0.00101659544812,0.0,0.0,0.0,-0.0036389977504
1470066247234234593,0.0,-0.000977552915676,0.0,0.0,0.0,-0.00325917313777
1470066247310877694,0.0,-0.000915170321925,0.0,0.0,0.0,0.0
1470066247392228424,0.0,-0.000811309973462,0.0,0.0,0.0,-0.00357657867817
1470066247472412621,0.0,0.0,0.0,0.0,0.0,-0.0033203965898
1470066247553144142,0.0,0.0,0.0,0.0,0.0,-0.00452256784648
1470066247628342234,0.006,0.0,0.0,0.0,0.0,0.0
1470066247702819768,0.0,0.0,0.0,0.0,0.0,-0.00303298935495
1470066247791091584,0.006,0.0,0.0,0.0,0.0,0.0
1470066247868650215,0.006,0.0,0.0,0.0,0.0,0.0
1470066247946391116,0.006,0.0,0.0,0.0,0.0,0.0
1470066248023141715,0.006,0.0,0.0,0.0,0.0,0.0
1470066248101211470,0.0,0.0,0.0,0.0,0.0,-0.003129392346
1470066248182845118,0.006,0.0,0.0,0.0,0.0,0.0
1470066248265136930,0.0,0.0,0.0,0.0,0.0,-0.00287902924645
1470066248346960347,0.006,0.0,0.0,0.0,0.0,0.0
1470066248422172449,0.0,0.0,0.0,0.0,0.0,0.00303716248282
1470066248497279350,0.0,0.00120306624963,0.0,0.0,0.0,0.0
1470066248576836295,0.0,0.00149653120829,0.0,0.0,0.0,0.0
1470066248656849985,0.0,0.00170959900065,0.0,0.0,0.0,0.0
1470066248734121661,0.0,0.00175757682814,0.0,0.0,0.0,0.00740192730605
1470066248813077877,0.0,0.00181224062039,0.0,0.0,0.0,0.0
1470066248892825930,0.0,0.00183213534697,0.0,0.0,0.0,0.00448743274821
1470066248974369968,0.0,0.00183240543051,0.0,0.0,0.0,0.0
1470066249049180185,0.0,0.00182816660895,0.0,0.0,0.0,0.0
1470066249131460052,0.0,0.00182202565415,0.0,0.0,0.0,0.0
1470066249215170212,0.0,0.00186847890659,0.0,0.0,0.0,0.00509310954848
1470066249291364250,0.0,0.00189998201026,0.0,0.0,0.0,0.00819931072748
1470066249369242200,0.0,0.00175456623478,0.0,0.0,0.0,0.00642777576526
1470066249443474405,0.0,0.00154159660383,0.0,0.0,0.0,0.0078031690654
1470066249518453289,0.0,0.00139068174108,0.0,0.0,0.0,0.0
1470066249593433922,0.0,0.00135917975499,0.0,0.0,0.0,0.0
1470066249669252553,0.0,0.00131383887424,0.0,0.0,0.0,0.00789780795213
1470066249741510057,0.0,0.00120798475041,0.0,0.0,0.0,0.0
1470066249816308091,0.0,0.00115651837482,0.0,0.0,0.0,0.0
1470066249895213585,0.0,0.00108793559416,0.0,0.0,0.0,0.00933191139866
1470066249971304480,0.0,0.000965058197515,0.0,0.0,0.0,0.0
1470066250055624064,0.0,0.000804265727536,0.0,0.0,0.0,0.0
1470066250125208022,0.0,0.0,0.0,0.0,0.0,0.00731906645857
1470066250196963985,0.006,0.0,0.0,0.0,0.0,0.0
1470066250270934129,0.0,0.0,0.0,0.0,0.0,0.00364143061101
1470066250343673630,0.006,0.0,0.0,0.0,0.0,0.0
1470066250419044161,0.0,0.0,0.0,0.0,0.0,0.00436259452008
1470066250495901815,0.0,0.0,0.0,0.0,0.0,0.00337473111882
1470066250569590737,0.006,0.0,0.0,0.0,0.0,0.0
1470066250644496771,0.0,0.0,0.0,0.0,0.0,0.00412128580935
1470066250714727423,0.006,0.0,0.0,0.0,0.0,0.0
1470066250791307821,0.006,0.0,0.0,0.0,0.0,0.0
1470066250869225044,0.0,0.0,0.0,0.0,0.0,-0.00396732845734
1470066250942434284,0.006,0.0,0.0,0.0,0.0,0.0
1470066251024018522,0.0,0.0,0.0,0.0,0.0,-0.00425524293842
1470066251100382963,0.0,0.0,0.0,0.0,0.0,-0.00455763523515
1470066251171881070,0.0,0.0,0.0,0.0,0.0,-0.00345045511906
1470066251250192525,0.0,0.0,0.0,0.0,0.0,0.00383832374706
1470066251324002067,0.006,0.0,0.0,0.0,0.0,0.0
1470066251397288417,0.006,0.0,0.0,0.0,0.0,0.0
1470066251469531447,0.0,-0.000858442346318,0.0,0.0,0.0,0.0
1470066251542492607,0.0,-0.000976921106441,0.0,0.0,0.0,0.00510761793654
1470066251617896556,0.0,-0.00101891034351,0.0,0.0,0.0,0.0
1470066251695285854,0.0,-0.00104915448533,0.0,0.0,0.0,0.0
1470066251783996455,0.0,-0.00118241706,0.0,0.0,0.0,0.0
1470066251861790224,0.0,-0.00120818191276,0.0,0.0,0.0,0.00282382551327
1470066251939793262,0.0,-0.00116019272314,0.0,0.0,0.0,0.00527717160255
1470066252014887847,0.0,-0.00108444155262,0.0,0.0,0.0,0.00660147253995
1470066252089822931,0.0,-0.00100785181926,0.0,0.0,0.0,0.0
1470066252170768687,0.0,-0.000841936330064,0.0,0.0,0.0,0.00305307094177
1470066252247603778,0.0,0.0,0.0,0.0,0.0,0.0100845974819
1470066252321372615,0.0,0.0,0.0,0.0,0.0,0.010009737817
1470066252395007480,0.0,0.0,0.0,0.0,0.0,0.0074059679049
1470066252473780722,0.0,0.0,0.0,0.0,0.0,0.00751216427051
1470066252555615608,0.006,0.0,0.0,0.0,0.0,0.0
1470066252635184215,0.006,0.0,0.0,0.0,0.0,0.0
1470066252713431889,0.006,0.0,0.0,0.0,0.0,0.0
1470066252790037025,0.0,0.0,0.0,0.0,0.0,0.00701820316039
1470066252863512129,0.006,0.0,0.0,0.0,0.0,0.0
1470066252936627506,0.0,-0.000825485820635,0.0,0.0,0.0,0.00683185707871
1470066253017178863,0.0,-0.00101262056337,0.0,0.0,0.0,0.00569730417973
1470066253093077582,0.0,-0.00109448270009,0.0,0.0,0.0,0.0
1470066253172933099,0.0,-0.00117130228387,0.0,0.0,0.0,0.0
1470066253244318635,0.0,-0.00135676809655,0.0,0.0,0.0,0.0
1470066253316516019,0.0,-0.00143662937985,0.0,0.0,0.0,0.0
1470066253392048779,0.0,-0.00159888477133,0.0,0.0,0.0,0.0
1470066253470651088,0.0,-0.00181491100298,0.0,0.0,0.0,0.0
1470066253548050811,0.0,-0.00205116891371,0.0,0.0,0.0,0.0
1470066253623076061,0.0,-0.00208446667598,0.0,0.0,0.0,-0.00310918904353
1470066253698898309,0.0,-0.00210529104875,0.0,0.0,0.0,-0.00505944875045
1470066253772331180,0.0,-0.00209172950195,0.0,0.0,0.0,-0.00455567860522
1470066253845680412,0.0,-0.00191981257008,0.0,0.0,0.0,-0.00485462939067
1470066253918509737,0.0,-0.00182296284543,0.0,0.0,0.0,-0.0064383778555
1470066253992900008,0.0,-0.00174080492066,0.0,0.0,0.0,-0.00364748648803
1470066254070909633,0.0,-0.00166388214634,0.0,0.0,0.0,-0.00568674811973
1470066254145962835,0.0,-0.0016244238715,0.0,0.0,0.0,-0.00539401582902
1470066254219337709,0.0,-0.00155488462256,0.0,0.0,0.0,-0.00489750649158
1470066254292331885,0.0,-0.00149215706693,0.0,0.0,0.0,-0.00515245627093
1470066254371626560,0.0,-0.00141967893647,0.0,0.0,0.0,-0.00552679355882
1470066254444038042,0.0,-0.00120772519217,0.0,0.0,0.0,-0.00538308982814
1470066254521535890,0.0,-0.00112558738397,0.0,0.0,0.0,-0.00425881583093
1470066254596673471,0.0,-0.00108240009354,0.0,0.0,0.0,-0.00380836481828
1470066254671977350,0.0,-0.0010015232961,0.0,0.0,0.0,-0.00295510241773
1470066254744806051,0.0,-0.000870665768846,0.0,0.0,0.0,0.0
1470066254823177817,0.006,0.0,0.0,0.0,0.0,0.0
1470066254901918903,0.0,0.0,0.0,0.0,0.0,-0.00327868887363
1470066254974562764,0.0,0.0,0.0,0.0,0.0,-0.00311820046325
1470066255052558146,0.006,0.0,0.0,0.0,0.0,0.0
1470066255127293060,0.006,0.0,0.0,0.0,0.0,0.0
1470066255201832114,0.006,0.0,0.0,0.0,0.0,0.0
1470066255275789408,0.006,0.0,0.0,0.0,0.0,0.0
1470066255355648141,0.006,0.0,0.0,0.0,0.0,0.0
1470066255430571214,0.006,0.0,0.0,0.0,0.0,0.0
1470066255507552955,0.0,0.0,0.0,0.0,0.0,0.00473002936577
1470066255587287828,0.006,0.0,0.0,0.0,0.0,0.0
1470066255662417818,0.006,0.0,0.0,0.0,0.0,0.0
1470066255739644029,0.0,0.0,0.0,0.0,0.0,0.00438969069188
1470066255813053959,0.0,0.00124055421843,0.0,0.0,0.0,0.00343470917279
1470066255885442293,0.0,0.00142980548485,0.0,0.0,0.0,0.0
1470066255958221144,0.0,0.00158507148667,0.0,0.0,0.0,0.0
1470066256031672851,0.0,0.00177820580943,0.0,0.0,0.0,0.00440456186961
1470066256116043213,0.0,0.00183311342193,0.0,0.0,0.0,0.0
1470066256186806108,0.0,0.00184313482537,0.0,0.0,0.0,0.00360859992626
1470066256265240388,0.0,0.00189104988171,0.0,0.0,0.0,0.0032571321046
1470066256343653682,0.0,0.00198063510402,0.0,0.0,0.0,0.00458497726778
1470066256418276246,0.0,0.00209015370278,0.0,0.0,0.0,0.00666920115514
1470066256498445012,0.0,0.00214385637014,0.0,0.0,0.0,0.0
1470066256575235692,0.0,0.00212525543688,0.0,0.0,0.0,0.0
1470066256650969236,0.0,0.00214710957302,0.0,0.0,0.0,0.0
1470066256728088930,0.0,0.00205823783694,0.0,0.0,0.0,0.00969474220736
1470066256803832614,0.0,0.00194745003177,0.0,0.0,0.0,0.0
1470066256878782552,0.0,0.0018997277592,0.0,0.0,0.0,0.00567120330734
1470066256953172697,0.0,0.00185837815447,0.0,0.0,0.0,0.00975722722486
1470066257032035870,0.0,0.0017011545126,0.0,0.0,0.0,0.00477831180407
1470066257110928112,0.0,0.001615986367,0.0,0.0,0.0,0.0045321385936
1470066257185426680,0.0,0.00152401341988,0.0,0.0,0.0,0.0
1470066257265223723,0.0,0.00141653171672,0.0,0.0,0.0,0.00553777709776
1470066257346654261,0.0,0.00132002434625,0.0,0.0,0.0,0.0
1470066257425214935,0.0,0.00114545538022,0.0,0.0,0.0,0.0
1470066257507188924,0.0,0.00107717825963,0.0,0.0,0.0,0.00707560017144
1470066257584370366,0.0,0.000979980220334,0.0,0.0,0.0,0.0
1470066257659396994,0.006,0.0,0.0,0.0,0.0,0.0
1470066257733323806,0.006,0.0,0.0,0.0,0.0,0.0
1470066257811120284,0.0,0.0,0.0,0.0,0.0,0.00834546125507
1470066257896809151,0.0,0.0,0.0,0.0,0.0,0.00493069323584
1470066257973560430,0.006,0.0,0.0,0.0,0.0,0.0
1470066258051769624,0.0,0.0,0.0,0.0,0.0,0.00722219503964
1470066258131910465,0.006,0.0,0.0,0.0,0.0,0.0
1470066258204379944,0.006,0.0,0.0,0.0,0.0,0.0
1470066258282338157,0.006,0.0,0.0,0.0,0.0,0.0
1470066258366971178,0.006,0.0,0.0,0.0,0.0,0.0
1470066258446201349,0.006,0.0,0.0,0.0,0.0,0.0
1470066258521947680,0.0,0.0,0.0,0.0,0.0,0.00328598516314
1470066258598714315,0.006,0.0,0.0,0.0,0.0,0.0
1470066258676838188,0.0,-0.00083641992019,0.0,0.0,0.0,0.0
1470066258751021462,0.0,-0.000965494896038,0.0,0.0,0.0,0.00288462470648
1470066258824284406,0.0,-0.00111709856497,0.0,0.0,0.0,0.0
1470066258899060336,0.0,-0.0012728536974,0.0,0.0,0.0,-0.00452672824026
1470066258978118557,0.0,-0.00155366719769,0.0,0.0,0.0,-0.00285896606091
1470066259052532696,0.0,-0.0016638046603,0.0,0.0,0.0,-0.00403997812213
1470066259125462147,0.0,-0.00176389874028,0.0,0.0,0.0,0.0
1470066259198381948,0.0,-0.00180410840617,0.0,0.0,0.0,0.0
1470066259274895794,0.0,-0.00184159004198,0.0,0.0,0.0,0.00677155507398
1470066259355363466,0.0,-0.00186974988387,0.0,0.0,0.0,0.00372491519155
1470066259429520318,0.0,-0.00196340070175,0.0,0.0,0.0,0.0
1470066259509434600,0.0,-0.00202254043029,0.0,0.0,0.0,0.00485558757082
1470066259585275440,0.0,-0.00204605036484,0.0,0.0,0.0,0.0
1470066259664337933,0.0,-0.0019853400539,0.0,0.0,0.0,0.0
1470066259741779864,0.0,-0.00194832147167,0.0,0.0,0.0,0.0
1470066259816921672,0.0,-0.00199625440942,0.0,0.0,0.0,0.0031801317307
1470066259891787868,0.0,-0.00196463302778,0.0,0.0,0.0,0.0
1470066259971162103,0.0,-0.00189220965908,0.0,0.0,0.0,0.0
1470066260048182292,0.0,-0.0018317772548,0.0,0.0,0.0,0.0
1470066260120540630,0.0,-0.00180652872728,0.0,0.0,0.0,0.0
1470066260193607408,0.0,-0.00176790640758,0.0,0.0,0.0,0.00412108217949
1470066260267100833,0.0,-0.00174545780824,0.0,0.0,0.0,0.0
1470066260342360138,0.0,-0.00170788043247,0.0,0.0,0.0,0.0
1470066260419521037,0.0,-0.0016678905587,0.0,0.0,0.0,0.0
1470066260493104961,0.0,-0.00164237120257,0.0,0.0,0.0,0.0
1470066260564861215,0.0,-0.00161047712968,0.0,0.0,0.0,0.0
1470066260638873640,0.0,-0.00154623263584,0.0,0.0,0.0,0.0
1470066260716114391,0.0,-0.00149903730558,0.0,0.0,0.0,0.0
1470066260793246794,0.0,-0.00145256319152,0.0,0.0,0.0,0.0
1470066260868558062,0.0,-0.0014077155392,0.0,0.0,0.0,0.0
1470066260949947706,0.0,-0.00136964381741,0.0,0.0,0.0,0.00389277184389
1470066261036608790,0.0,-0.00133341425167,0.0,0.0,0.0,0.00326277181028
1470066261115799329,0.0,-0.00130143077181,0.0,0.0,0.0,0.0
1470066261189790122,0.0,-0.00125543871032,0.0,0.0,0.0,0.0
1470066261263796723,0.0,-0.00120095186935,0.0,0.0,0.0,0.0
1470066261343451125,0.0,-0.0011653149973,0.0,0.0,0.0,0.00387052643186
1470066261420679971,0.0,-0.00109950476394,0.0,0.0,0.0,0.0
1470066261495868277,0.0,-0.00106336311506,0.0,0.0,0.0,0.0
1470066261584358100,0.0,-0.00102805071579,0.0,0.0,0.0,0.0
1470066261667916725,0.0,-0.000971128652556,0.0,0.0,0.0,0.00534157277347
1470066261747323572,0.0,-0.000944252918227,0.0,0.0,0.0,0.00731224993984
1470066261824011116,0.0,-0.00091873952256,0.0,0.0,0.0,0.0
1470066261899148969,0.0,-0.000881564478143,0.0,0.0,0.0,0.0
1470066261974040246,0.0,-0.000839415798648,0.0,0.0,0.0,0.0
1470066262051370018,0.0,-0.000840689102872,0.0,0.0,0.0,0.0
1470066262126414066,0.0,-0.000833644951447,0.0,0.0,0.0,0.0
1470066262199225740,0.0,-0.000823542336686,0.0,0.0,0.0,0.0
1470066262271031103,0.0,0.0,0.0,0.0,0.0,0.00293660223015
1470066262343427922,0.006,0.0,0.0,0.0,0.0,0.0
1470066262421274562,0.006,0.0,0.0,0.0,0.0,0.0
1470066262500663865,0.006,0.0,0.0,0.0,0.0,0.0
1470066262579773336,0.006,0.0,0.0,0.0,0.0,0.0
1470066262657233359,0.006,0.0,0.0,0.0,0.0,0.0
1470066262735426546,0.006,0.0,0.0,0.0,0.0,0.0
1470066262810647368,0.006,0.0,0.0,0.0,0.0,0.0
1470066262883700878,0.006,0.0,0.0,0.0,0.0,0.0
1470066262956217740,0.006,0.0,0.0,0.0,0.0,0.0
1470066263032904957,0.006,0.0,0.0,0.0,0.0,0.0
1470066263109410519,0.006,0.0,0.0,0.0,0.0,0.0
1470066263183533569,0.0,0.0,0.0,0.0,0.0,0.0074267240001
1470066263260781718,0.006,0.0,0.0,0.0,0.0,0.0
1470066263344255891,0.0,0.0,0.0,0.0,0.0,0.00666725209108
1470066263422753385,0.006,0.0,0.0,0.0,0.0,0.0
1470066263502521527,0.006,0.0,0.0,0.0,0.0,0.0
1470066263581097698,0.006,0.0,0.0,0.0,0.0,0.0
1470066263655627847,0.006,0.0,0.0,0.0,0.0,0.0
1470066263732790694,0.0,0.0,0.0,0.0,0.0,-0.00402568172186
1470066263806272188,0.0,0.0,0.0,0.0,0.0,-0.00559992192217
1470066263879366997,0.006,0.0,0.0,0.0,0.0,0.0
1470066263966142102,0.0,0.0,0.0,0.0,0.0,0.00495909960358
1470066264046754364,0.006,0.0,0.0,0.0,0.0,0.0
1470066264125650522,0.006,0.0,0.0,0.0,0.0,0.0
1470066264200532442,0.006,0.0,0.0,0.0,0.0,0.0
1470066264274783375,0.0,0.0,0.0,0.0,0.0,0.00479884907264
1470066264347914613,0.006,0.0,0.0,0.0,0.0,0.0
1470066264429105536,0.0,0.0,0.0,0.0,0.0,-0.00375292616299
1470066264518128674,0.006,0.0,0.0,0.0,0.0,0.0
1470066264596413399,0.0,0.0,0.0,0.0,0.0,0.00808332719825
1470066264673387155,0.0,0.0,0.0,0.0,0.0,0.00811505060473
1470066264747441418,0.0,0.0,0.0,0.0,0.0,0.00642893432728
1470066264823099390,0.006,0.0,0.0,0.0,0.0,0.0
1470066264897477775,0.006,0.0,0.0,0.0,0.0,0.0
1470066264968825297,0.006,0.0,0.0,0.0,0.0,0.0
1470066265043914096,0.006,0.0,0.0,0.0,0.0,0.0
1470066265121997764,0.006,0.0,0.0,0.0,0.0,0.0
1470066265202407052,0.006,0.0,0.0,0.0,0.0,0.0
1470066265279625204,0.006,0.0,0.0,0.0,0.0,0.0
1470066265355405835,0.0,0.0,0.0,0.0,0.0,0.00683001021647
1470066265432594386,0.0,0.000833486718373,0.0,0.0,0.0,0.00877369655729
1470066265509843184,0.0,0.000826162611382,0.0,0.0,0.0,0.00642800831986
1470066265587763201,0.0,0.0,0.0,0.0,0.0,0.00308173869124
1470066265663913688,0.0,0.0,0.0,0.0,0.0,0.00424613515899
1470066265736707003,0.006,0.0,0.0,0.0,0.0,0.0
1470066265810462690,0.0,0.0,0.0,0.0,0.0,0.00389671817907
1470066265883865327,0.0,0.0,0.0,0.0,0.0,-0.003932221918
1470066265960459811,0.0,0.0,0.0,0.0,0.0,-0.00571347222668
1470066266034995196,0.0,0.0,0.0,0.0,0.0,-0.00365125094399
1470066266122608680,0.006,0.0,0.0,0.0,0.0,0.0
1470066266195025639,0.006,0.0,0.0,0.0,0.0,0.0
1470066266270841869,0.006,0.0,0.0,0.0,0.0,0.0
1470066266348366338,0.006,0.0,0.0,0.0,0.0,0.0
1470066266434128225,0.006,0.0,0.0,0.0,0.0,0.0
1470066266514247883,0.0,0.0,0.0,0.0,0.0,0.00675168101594
1470066266590568793,0.0,0.0,0.0,0.0,0.0,0.00389570483899
1470066266665477774,0.0,0.0,0.0,0.0,0.0,0.00318018395564
1470066266745055071,0.006,0.0,0.0,0.0,0.0,0.0
1470066266827324682,0.006,0.0,0.0,0.0,0.0,0.0
1470066266904145891,0.006,0.0,0.0,0.0,0.0,0.0
1470066266991120669,0.006,0.0,0.0,0.0,0.0,0.0
1470066267070498424,0.0,0.0,0.0,0.0,0.0,-0.0040789684677
1470066267150796383,0.0,0.0,0.0,0.0,0.0,-0.00522790553539
1470066267224817231,0.0,0.0,0.0,0.0,0.0,-0.00384948401128
1470066267300541727,0.006,0.0,0.0,0.0,0.0,0.0
1470066267379012492,0.006,0.0,0.0,0.0,0.0,0.0
1470066267455305145,0.006,0.0,0.0,0.0,0.0,0.0
1470066267528350121,0.0,0.0,0.0,0.0,0.0,0.00329587676237
1470066267607006540,0.006,0.0,0.0,0.0,0.0,0.0
1470066267686675227,0.006,0.0,0.0,0.0,0.0,0.0
1470066267764939742,0.0,0.0,0.0,0.0,0.0,-0.00347723700289
1470066267839748267,0.0,0.0,0.0,0.0,0.0,-0.00418492497927
1470066267933662367,0.0,0.0,0.0,0.0,0.0,-0.00383306741422
1470066268010321705,0.006,0.0,0.0,0.0,0.0,0.0
1470066268089174796,0.006,0.0,0.0,0.0,0.0,0.0
1470066268165490118,0.006,0.0,0.0,0.0,0.0,0.0
1470066268241851830,0.006,0.0,0.0,0.0,0.0,0.0
1470066268320604541,0.006,0.0,0.0,0.0,0.0,0.0
1470066268399216912,0.006,0.0,0.0,0.0,0.0,0.0
1470066268478754876,0.006,0.0,0.0,0.0,0.0,0.0
1470066268556533980,0.0,0.0,0.0,0.0,0.0,-0.00527633788782
1470066268633027558,0.0,0.0,0.0,0.0,0.0,-0.00462498608335
1470066268711776483,0.006,0.0,0.0,0.0,0.0,0.0
1470066268788099561,0.0,0.0,0.0,0.0,0.0,0.00470788371124
1470066268865579161,0.0,0.0,0.0,0.0,0.0,0.0085612526414
1470066268942056127,0.0,0.0,0.0,0.0,0.0,0.00727068722453
1470066269013465507,0.0,0.0,0.0,0.0,0.0,0.00564599446824
1470066269086313783,0.006,0.0,0.0,0.0,0.0,0.0
1470066269163849482,0.006,0.0,0.0,0.0,0.0,0.0
1470066269240894018,0.006,0.0,0.0,0.0,0.0,0.0
1470066269315049538,0.006,0.0,0.0,0.0,0.0,0.0
1470066269388755961,0.006,0.0,0.0,0.0,0.0,0.0
1470066269465406893,0.006,0.0,0.0,0.0,0.0,0.0
1470066269543787658,0.0,0.0,0.0,0.0,0.0,0.00344302053654
1470066269616482966,0.006,0.0,0.0,0.0,0.0,0.0
1470066269696709280,0.006,0.0,0.0,0.0,0.0,0.0
1470066269772531633,0.006,0.0,0.0,0.0,0.0,0.0
1470066269851184100,0.0,0.0,0.0,0.0,0.0,0.00321807070758
1470066269924477317,0.006,0.0,0.0,0.0,0.0,0.0
1470066269999597298,0.006,0.0,0.0,0.0,0.0,0.0
1470066270079336235,0.006,0.0,0.0,0.0,0.0,0.0
1470066270155340498,0.0,-0.00083428868161,0.0,0.0,0.0,-0.00412573772476
1470066270231279789,0.0,-0.000892242277725,0.0,0.0,0.0,-0.00512949605481
1470066270307273812,0.0,-0.00096697234617,0.0,0.0,0.0,0.0
1470066270381847440,0.0,-0.000998246903284,0.0,0.0,0.0,0.00304726964193
1470066270468363025,0.0,-0.000990930805667,0.0,0.0,0.0,0.0
1470066270546065699,0.0,-0.00100182206438,0.0,0.0,0.0,0.0
1470066270621406488,0.0,-0.00103301019476,0.0,0.0,0.0,0.0
1470066270697373370,0.0,-0.00104738646255,0.0,0.0,0.0,0.0
1470066270775149475,0.0,-0.00105462097631,0.0,0.0,0.0,-0.00389851749037
1470066270851801254,0.0,-0.00123484903084,0.0,0.0,0.0,0.0
1470066270926409463,0.0,-0.00132996686803,0.0,0.0,0.0,0.0
1470066271003112778,0.0,-0.00137081318603,0.0,0.0,0.0,0.0
1470066271077378251,0.0,-0.00120967016624,0.0,0.0,0.0,0.0
1470066271151501817,0.0,-0.000925633544786,0.0,0.0,0.0,0.0
1470066271223723029,0.006,0.0,0.0,0.0,0.0,0.0
1470066271300857749,0.006,0.0,0.0,0.0,0.0,0.0
1470066271377243482,0.006,0.0,0.0,0.0,0.0,0.0
1470066271450278360,0.006,0.0,0.0,0.0,0.0,0.0
1470066271526148455,0.006,0.0,0.0,0.0,0.0,0.0
1470066271604222628,0.006,0.0,0.0,0.0,0.0,0.0
1470066271680825079,0.006,0.0,0.0,0.0,0.0,0.0
1470066271754033199,0.0,0.0,0.0,0.0,0.0,0.00323770160952
1470066271829535594,0.006,0.0,0.0,0.0,0.0,0.0
1470066271912841566,0.006,0.0,0.0,0.0,0.0,0.0
1470066271987884095,0.006,0.0,0.0,0.0,0.0,0.0
1470066272063412729,0.0,0.0,0.0,0.0,0.0,0.00324888189754
1470066272141352864,0.006,0.0,0.0,0.0,0.0,0.0
1470066272217025267,0.006,0.0,0.0,0.0,0.0,0.0
1470066272291406833,0.006,0.0,0.0,0.0,0.0,0.0
1470066272375121740,0.0,0.0,0.0,0.0,0.0,-0.00286329146295
1470066272452556352,0.0,0.0,0.0,0.0,0.0,-0.00440350660462
1470066272527158815,0.0,0.0,0.0,0.0,0.0,-0.00373132518135
1470066272602007603,0.006,0.0,0.0,0.0,0.0,0.0
1470066272678533509,0.006,0.0,0.0,0.0,0.0,0.0
1470066272755663706,0.0,0.0,0.0,0.0,0.0,0.00416223855904
1470066272828391165,0.0,0.0,0.0,0.0,0.0,0.00315400402081
1470066272902579017,0.0,0.0,0.0,0.0,0.0,-0.00301613621561
1470066272988917970,0.0,0.0,0.0,0.0,0.0,-0.00401859611252
1470066273066060082,0.0,0.0,0.0,0.0,0.0,-0.00521423066093
1470066273139555215,0.0,0.0,0.0,0.0,0.0,-0.00558720241243
1470066273218968703,0.0,0.0,0.0,0.0,0.0,0.00608342695897
1470066273297704696,0.0,0.0,0.0,0.0,0.0,0.00401400096457
1470066273374186541,0.006,0.0,0.0,0.0,0.0,0.0
1470066273450389012,0.006,0.0,0.0,0.0,0.0,0.0
1470066273526577137,0.0,0.0,0.0,0.0,0.0,0.00405898140109
1470066273604914117,0.006,0.0,0.0,0.0,0.0,0.0
1470066273681634961,0.006,0.0,0.0,0.0,0.0,0.0
1470066273761796806,0.006,0.0,0.0,0.0,0.0,0.0
1470066273837847638,0.006,0.0,0.0,0.0,0.0,0.0
1470066273911717555,0.006,0.0,0.0,0.0,0.0,0.0
1470066273993375206,0.006,0.0,0.0,0.0,0.0,0.0
1470066274071524078,0.006,0.0,0.0,0.0,0.0,0.0
1470066274160796752,0.0,0.0,0.0,0.0,0.0,0.00355979063411
1470066274235081845,0.0,0.0,0.0,0.0,0.0,0.00497414931939
1470066274314675602,0.006,0.0,0.0,0.0,0.0,0.0
1470066274388985453,0.0,-0.000849162275656,0.0,0.0,0.0,0.00452339769473
1470066274464106447,0.0,-0.00108672739075,0.0,0.0,0.0,0.0
1470066274543271888,0.0,-0.00130970873938,0.0,0.0,0.0,0.00671285491035
1470066274615860941,0.0,-0.00141135850058,0.0,0.0,0.0,-0.00310059070323
1470066274700314140,0.0,-0.00143434018896,0.0,0.0,0.0,-0.00461231906552
1470066274774992164,0.0,-0.00143129401909,0.0,0.0,0.0,-0.00643575057435
1470066274854576477,0.0,-0.00142343812691,0.0,0.0,0.0,-0.0053779269436
1470066274931740197,0.0,-0.00145807475851,0.0,0.0,0.0,0.0
1470066275012042837,0.0,-0.00147421755896,0.0,0.0,0.0,0.0
1470066275087482489,0.0,-0.00146646224962,0.0,0.0,0.0,0.0
1470066275166404467,0.0,-0.00144877233611,0.0,0.0,0.0,0.0
1470066275241738650,0.0,-0.00146297835813,0.0,0.0,0.0,0.0
1470066275324426017,0.0,-0.00152682163821,0.0,0.0,0.0,-0.00302608947032
1470066275400058335,0.0,-0.00153931998716,0.0,0.0,0.0,0.0
1470066275477487574,0.0,-0.00153390602277,0.0,0.0,0.0,0.0
1470066275556567185,0.0,-0.00142350294696,0.0,0.0,0.0,0.0
1470066275635171551,0.0,-0.00135215469704,0.0,0.0,0.0,0.0
1470066275711231902,0.0,-0.00131119289504,0.0,0.0,0.0,0.0
1470066275785451779,0.0,-0.00123981745051,0.0,0.0,0.0,0.0
1470066275863755479,0.0,-0.00120072239147,0.0,0.0,0.0,0.0
1470066275943533793,0.0,-0.00114632309483,0.0,0.0,0.0,0.0
1470066276023376691,0.0,-0.0010595793377,0.0,0.0,0.0,0.0
1470066276101320694,0.0,-0.00103359283016,0.0,0.0,0.0,0.0
1470066276179620523,0.0,-0.000992022315724,0.0,0.0,0.0,0.0
1470066276251937320,0.0,-0.000925402204259,0.0,0.0,0.0,0.0
1470066276331153184,0.0,-0.00090274647878,0.0,0.0,0.0,0.0
1470066276404048517,0.0,-0.00086170942591,0.0,0.0,0.0,0.0
1470066276481691928,0.006,0.0,0.0,0.0,0.0,0.0
1470066276557015432,0.006,0.0,0.0,0.0,0.0,0.0
1470066276638302347,0.006,0.0,0.0,0.0,0.0,0.0
1470066276716062960,0.006,0.0,0.0,0.0,0.0,0.0
1470066276793689456,0.006,0.0,0.0,0.0,0.0,0.0
1470066276872216879,0.006,0.0,0.0,0.0,0.0,0.0
1470066276944945373,0.006,0.0,0.0,0.0,0.0,0.0
1470066277016774171,0.006,0.0,0.0,0.0,0.0,0.0
1470066277104486696,0.006,0.0,0.0,0.0,0.0,0.0
1470066277181158691,0.006,0.0,0.0,0.0,0.0,0.0
1470066277256102630,0.006,0.0,0.0,0.0,0.0,0.0
1470066277329080799,0.006,0.0,0.0,0.0,0.0,0.0
1470066277403556015,0.006,0.0,0.0,0.0,0.0,0.0
1470066277480561311,0.0,0.0,0.0,0.0,0.0,0.00352147715782
1470066277557038174,0.0,0.00083497590317,0.0,0.0,0.0,0.0
1470066277630938940,0.0,0.000888594565229,0.0,0.0,0.0,0.0
1470066277704504531,0.0,0.00095192356898,0.0,0.0,0.0,-0.00355806260744
1470066277782392596,0.0,0.000979227339165,0.0,0.0,0.0,-0.00449996074857
1470066277860642700,0.0,0.000941391800777,0.0,0.0,0.0,0.0
1470066277933852014,0.0,0.000940943275826,0.0,0.0,0.0,0.0
1470066278014916964,0.0,0.00095042022808,0.0,0.0,0.0,0.0
1470066278085792787,0.0,0.000965128605501,0.0,0.0,0.0,0.0
1470066278164433087,0.0,0.000982142937617,0.0,0.0,0.0,0.0
1470066278237655944,0.0,0.00108673400177,0.0,0.0,0.0,-0.00345233471322
1470066278311914009,0.0,0.00117511409266,0.0,0.0,0.0,0.0
1470066278385029782,0.0,0.00115098594619,0.0,0.0,0.0,0.0
1470066278456547177,0.0,0.00114463637515,0.0,0.0,0.0,0.0
1470066278543363306,0.0,0.00112978941693,0.0,0.0,0.0,0.0
1470066278623457153,0.0,0.0010496096213,0.0,0.0,0.0,0.0
1470066278702623990,0.0,0.00102039012058,0.0,0.0,0.0,0.0
1470066278782357215,0.0,0.00102639472975,0.0,0.0,0.0,0.0
1470066278859798630,0.0,0.000992734682993,0.0,0.0,0.0,0.0
1470066278937050980,0.0,0.000984663282768,0.0,0.0,0.0,0.0
1470066279015503455,0.0,0.000970172276036,0.0,0.0,0.0,0.0
1470066279088220004,0.0,0.000930166197257,0.0,0.0,0.0,0.0
1470066279162800295,0.0,0.000922087346451,0.0,0.0,0.0,0.0
1470066279238935458,0.0,0.000881570530371,0.0,0.0,0.0,0.0
1470066279318482918,0.0,0.000848810513751,0.0,0.0,0.0,0.0
1470066279392312854,0.0,0.000825642002062,0.0,0.0,0.0,0.0
1470066279466818893,0.006,0.0,0.0,0.0,0.0,0.0
1470066279545063302,0.006,0.0,0.0,0.0,0.0,0.0
1470066279619311982,0.006,0.0,0.0,0.0,0.0,0.0
1470066279692261327,0.006,0.0,0.0,0.0,0.0,0.0
1470066279765038148,0.006,0.0,0.0,0.0,0.0,0.0
1470066279843976806,0.006,0.0,0.0,0.0,0.0,0.0
1470066279919079427,0.006,0.0,0.0,0.0,0.0,0.0
1470066279992965767,0.006,0.0,0.0,0.0,0.0,0.0
1470066280068315502,0.006,0.0,0.0,0.0,0.0,0.0
1470066280148226424,0.006,0.0,0.0,0.0,0.0,0.0
1470066280221399189,0.0,0.0,0.0,0.0,0.0,-0.0039440914241
1470066280302407631,0.006,0.0,0.0,0.0,0.0,0.0
1470066280378765094,0.006,0.0,0.0,0.0,0.0,0.0
1470066280461446641,0.006,0.0,0.0,0.0,0.0,0.0
1470066280532992979,0.006,0.0,0.0,0.0,0.0,0.0
1470066280607280583,0.006,0.0,0.0,0.0,0.0,0.0
1470066280686322851,0.0,0.0,0.0,0.0,0.0,-0.00446596385198
1470066280763295977,0.0,0.0,0.0,0.0,0.0,-0.00376028933311
1470066280837021392,0.006,0.0,0.0,0.0,0.0,0.0
1470066280921689830,0.006,0.0,0.0,0.0,0.0,0.0
1470066280996916151,0.006,0.0,0.0,0.0,0.0,0.0
1470066281069923504,0.006,0.0,0.0,0.0,0.0,0.0
1470066281146465257,0.0,0.0,0.0,0.0,0.0,-0.004473378313
1470066281217216477,0.006,0.0,0.0,0.0,0.0,0.0
1470066281291239826,0.006,0.0,0.0,0.0,0.0,0.0
1470066281365467584,0.006,0.0,0.0,0.0,0.0,0.0
1470066281447353201,0.006,0.0,0.0,0.0,0.0,0.0
1470066281523901488,0.0,0.0,0.0,0.0,0.0,-0.00281121323987
1470066281598751452,0.0,0.0,0.0,0.0,0.0,-0.0030064366262
1470066281671992134,0.006,0.0,0.0,0.0,0.0,0.0
1470066281749304088,0.006,0.0,0.0,0.0,0.0,0.0
1470066281825180156,0.006,0.0,0.0,0.0,0.0,0.0
1470066281899955489,0.006,0.0,0.0,0.0,0.0,0.0
1470066281973039093,0.0,0.0,0.0,0.0,0.0,-0.00391305476699
1470066282044259004,0.006,0.0,0.0,0.0,0.0,0.0
1470066282120514410,0.006,0.0,0.0,0.0,0.0,0.0
1470066282195246868,0.006,0.0,0.0,0.0,0.0,0.0
1470066282271532926,0.006,0.0,0.0,0.0,0.0,0.0
1470066282344476020,0.006,0.0,0.0,0.0,0.0,0.0
1470066282418919686,0.006,0.0,0.0,0.0,0.0,0.0
1470066282497583803,0.0,0.0,0.0,0.0,0.0,-0.00318652099858
1470066282571417451,0.006,0.0,0.0,0.0,0.0,0.0
1470066282644533338,0.006,0.0,0.0,0.0,0.0,0.0
1470066282721905189,0.006,0.0,0.0,0.0,0.0,0.0
1470066282796762820,0.006,0.0,0.0,0.0,0.0,0.0
1470066282872509846,0.006,0.0,0.0,0.0,0.0,0.0
1470066282944590185,0.006,0.0,0.0,0.0,0.0,0.0
1470066283016912302,0.006,0.0,0.0,0.0,0.0,0.0
1470066283090540082,0.006,0.0,0.0,0.0,0.0,0.0
1470066283166793597,0.0,0.0,0.0,0.0,0.0,-0.0028283844162
1470066283243763009,0.006,0.0,0.0,0.0,0.0,0.0
1470066283321156610,0.006,0.0,0.0,0.0,0.0,0.0
1470066283392632225,0.006,0.0,0.0,0.0,0.0,0.0
1470066283470394422,0.006,0.0,0.0,0.0,0.0,0.0
1470066283543429572,0.006,0.0,0.0,0.0,0.0,0.0
1470066283616255045,0.0,0.0,0.0,0.0,0.0,-0.00309289139304
1470066283690157810,0.0,0.0,0.0,0.0,0.0,-0.00338709401229
1470066283763101421,0.006,0.0,0.0,0.0,0.0,0.0
1470066283836736192,0.006,0.0,0.0,0.0,0.0,0.0
1470066283914004472,0.006,0.0,0.0,0.0,0.0,0.0
1470066283989185182,0.0,0.0,0.0,0.0,0.0,-0.00297297233945
1470066284069271310,0.006,0.0,0.0,0.0,0.0,0.0
1470066284141134583,0.006,0.0,0.0,0.0,0.0,0.0
1470066284214214775,0.006,0.0,0.0,0.0,0.0,0.0
1470066284290135996,0.006,0.0,0.0,0.0,0.0,0.0
1470066284363757348,0.0,0.0,0.0,0.0,0.0,-0.00317368717465
1470066284440560347,0.006,0.0,0.0,0.0,0.0,0.0
1470066284512571148,0.006,0.0,0.0,0.0,0.0,0.0
1470066284586284703,0.006,0.0,0.0,0.0,0.0,0.0
1470066284663168008,0.006,0.0,0.0,0.0,0.0,0.0
1470066284734039281,0.0,0.0,0.0,0.0,0.0,-0.00357729961651
1470066284814923396,0.006,0.0,0.0,0.0,0.0,0.0
1470066284889610231,0.006,0.0,0.0,0.0,0.0,0.0
1470066284960710553,0.006,0.0,0.0,0.0,0.0,0.0
1470066285034353190,0.006,0.0,0.0,0.0,0.0,0.0
1470066285108406418,0.006,0.0,0.0,0.0,0.0,0.0
1470066285186609417,0.0,0.0,0.0,0.0,0.0,-0.00283459548928
1470066285264984496,0.006,0.0,0.0,0.0,0.0,0.0
1470066285339441456,0.006,0.0,0.0,0.0,0.0,0.0
1470066285413770671,0.006,0.0,0.0,0.0,0.0,0.0
1470066285490221735,0.006,0.0,0.0,0.0,0.0,0.0
1470066285568581225,0.006,0.0,0.0,0.0,0.0,0.0
1470066285643554735,0.006,0.0,0.0,0.0,0.0,0.0
1470066285717393755,0.006,0.0,0.0,0.0,0.0,0.0
1470066285794800534,0.006,0.0,0.0,0.0,0.0,0.0
1470066285872839600,0.006,0.0,0.0,0.0,0.0,0.0
1470066285948367881,0.006,0.0,0.0,0.0,0.0,0.0
1470066286029120082,0.006,0.0,0.0,0.0,0.0,0.0
1470066286105175608,0.006,0.0,0.0,0.0,0.0,0.0
1470066286182455558,0.006,0.0,0.0,0.0,0.0,0.0
1470066286255871266,0.006,0.0,0.0,0.0,0.0,0.0
1470066286332286535,0.006,0.0,0.0,0.0,0.0,0.0
1470066286409260220,0.0,0.0,0.0,0.0,0.0,0.00297317006188
1470066286482605185,0.006,0.0,0.0,0.0,0.0,0.0
1470066286561973164,0.006,0.0,0.0,0.0,0.0,0.0
1470066286638066948,0.006,0.0,0.0,0.0,0.0,0.0
1470066286712141324,0.006,0.0,0.0,0.0,0.0,0.0
1470066286783890917,0.006,0.0,0.0,0.0,0.0,0.0
1470066286863144303,0.006,0.0,0.0,0.0,0.0,0.0
1470066286936447341,0.006,0.0,0.0,0.0,0.0,0.0
1470066287010140169,0.006,0.0,0.0,0.0,0.0,0.0
1470066287084020027,0.006,0.0,0.0,0.0,0.0,0.0
1470066287160321846,0.006,0.0,0.0,0.0,0.0,0.0
1470066287238287287,0.006,0.0,0.0,0.0,0.0,0.0
1470066287312722837,0.006,0.0,0.0,0.0,0.0,0.0
1470066287384506950,0.006,0.0,0.0,0.0,0.0,0.0
1470066287455852598,0.006,0.0,0.0,0.0,0.0,0.0
1470066287532147269,0.006,0.0,0.0,0.0,0.0,0.0
1470066287608624187,0.006,0.0,0.0,0.0,0.0,0.0
1470066287686788709,0.006,0.0,0.0,0.0,0.0,0.0
1470066287763639973,0.006,0.0,0.0,0.0,0.0,0.0
1470066287841271557,0.006,0.0,0.0,0.0,0.0,0.0
1470066287914329135,0.006,0.0,0.0,0.0,0.0,0.0
1470066287985810622,0.006,0.0,0.0,0.0,0.0,0.0
1470066288068601761,0.006,0.0,0.0,0.0,0.0,0.0
1470066288139194289,0.006,0.0,0.0,0.0,0.0,0.0
1470066288212354746,0.006,0.0,0.0,0.0,0.0,0.0
1470066288287614951,0.006,0.0,0.0,0.0,0.0,0.0
1470066288363403481,0.006,0.0,0.0,0.0,0.0,0.0
1470066288440210284,0.006,0.0,0.0,0.0,0.0,0.0
1470066288512701583,0.006,0.0,0.0,0.0,0.0,0.0
1470066288585162540,0.006,0.0,0.0,0.0,0.0,0.0
1470066288661201017,0.006,0.0,0.0,0.0,0.0,0.0
1470066288736558802,0.006,0.0,0.0,0.0,0.0,0.0
1470066288811554218,0.006,0.0,0.0,0.0,0.0,0.0
1470066288884384633,0.006,0.0,0.0,0.0,0.0,0.0
1470066288960626619,0.006,0.0,0.0,0.0,0.0,0.0
1470066289037155863,0.006,0.0,0.0,0.0,0.0,0.0
1470066289112984446,0.006,0.0,0.0,0.0,0.0,0.0
1470066289184838313,0.006,0.0,0.0,0.0,0.0,0.0
1470066289263719826,0.006,0.0,0.0,0.0,0.0,0.0
1470066289337325932,0.006,0.0,0.0,0.0,0.0,0.0
1470066289411229888,0.006,0.0,0.0,0.0,0.0,0.0
1470066289484023052,0.006,0.0,0.0,0.0,0.0,0.0
1470066289557480491,0.006,0.0,0.0,0.0,0.0,0.0
1470066289627273618,0.006,0.0,0.0,0.0,0.0,0.0
1470066289698713241,0.006,0.0,0.0,0.0,0.0,0.0
1470066289773808111,0.006,0.0,0.0,0.0,0.0,0.0
1470066289850847074,0.006,0.0,0.0,0.0,0.0,0.0
1470066289928956523,0.006,0.0,0.0,0.0,0.0,0.0
1470066290001121652,0.006,0.0,0.0,0.0,0.0,0.0
1470066290074087347,0.006,0.0,0.0,0.0,0.0,0.0
1470066290146982324,0.006,0.0,0.0,0.0,0.0,0.0
1470066290220141884,0.006,0.0,0.0,0.0,0.0,0.0
