%time,field.position.x,field.position.y,field.position.z,field.orientation.x,field.orientation.y,field.orientation.z,field.orientation.w
1471704135488217461,-0.0244919713587,-0.361982226372,1.37075996399,1.56813561916,-0.0818707644939,3.11494255066,0.0
1471704135583687685,-0.0245018042624,-0.362113922834,1.37111341953,1.56802380085,-0.0787250027061,3.11729240417,0.0
1471704135665517440,-0.0244905687869,-0.361969083548,1.37071013451,1.56812012196,-0.0823230072856,3.11511063576,0.0
1471704135742170585,-0.0244905687869,-0.361969083548,1.37071013451,1.56812012196,-0.0823230072856,3.11511063576,0.0
1471704135818539562,-0.0244905687869,-0.361969083548,1.37071013451,1.56812012196,-0.0823230072856,3.11511063576,0.0
1471704135895926766,-0.0244905687869,-0.361969083548,1.37071013451,1.56812012196,-0.0823230072856,3.11511063576,0.0
1471704135967954508,-0.0244905687869,-0.361969083548,1.37071013451,1.56812012196,-0.0823230072856,3.11511063576,0.0
1471704136044171877,-0.0244905687869,-0.361969083548,1.37071013451,1.56812012196,-0.0823230072856,3.11511063576,0.0
1471704136122544613,-0.0239669661969,-0.359178692102,1.35972416401,1.5579713583,-0.0365699417889,2.62133312225,0.0
1471704136207409029,-0.0234655477107,-0.357516407967,1.34793698788,1.53790795803,0.00650741718709,2.62102460861,0.0
1471704136279361208,-0.0226961057633,-0.354990959167,1.33221399784,1.56619369984,-0.106656506658,-3.11386466026,0.0
1471704136351754033,-0.0228605084121,-0.352467298508,1.33704710007,1.56935465336,-0.0369611904025,3.13041472435,0.0
1471704136429589635,-0.0229539014399,-0.340018689632,1.31179153919,1.54639661312,-0.0672174543142,-3.07526230812,0.0
1471704136509205403,-0.0230858493596,-0.325069963932,1.29274082184,1.56491565704,-0.114149644971,-3.08860969543,0.0
1471704136584501298,-0.0231514703482,-0.322370111942,1.30194318295,1.55430269241,-0.0502921417356,-3.13219261169,0.0
1471704136665941661,-0.0228494033217,-0.313486993313,1.28983223438,1.54340398312,-0.00617851363495,2.63247013092,0.0
1471704136743317818,-0.0229150969535,-0.299142837524,1.28318822384,1.54360175133,-0.0316352248192,-3.10800743103,0.0
1471704136821369908,-0.0213260427117,-0.287320315838,1.25581288338,1.56617152691,-0.129884213209,-3.10087966919,0.0
1471704136899567682,-0.0213583204895,-0.281820625067,1.25487005711,1.52375102043,0.0465410463512,2.64529180527,0.0
1471704136975388796,-0.0213707182556,-0.265952020884,1.24168038368,1.54299342632,0.0347555316985,-3.07122850418,0.0
1471704137048800354,-0.0214516222477,-0.253683179617,1.22707748413,1.54000079632,0.0253491867334,-3.07702088356,0.0
1471704137126336866,-0.0201179552823,-0.244139105082,1.20783650875,1.54700064659,-0.0727241784334,-3.0593380928,0.0
1471704137201648781,-0.0208950918168,-0.227671027184,1.20420026779,1.54149866104,0.00387966376729,2.65578150749,0.0
1471704137277634556,-0.0208529550582,-0.215553373098,1.18814992905,1.54595291615,-0.0185892712325,-3.05015420914,0.0
1471704137350701771,-0.0203869882971,-0.20778170228,1.18292248249,1.55052852631,-0.0953033044934,-3.097209692,0.0
1471704137421170623,-0.0208798889071,-0.192991882563,1.16593360901,1.55406308174,-0.0877542644739,-2.99528026581,0.0
1471704137494912827,-0.0205056574196,-0.181221425533,1.15654146671,1.53523695469,0.0294500533491,2.77378535271,0.0
1471704137571421814,-0.0194805432111,-0.176954314113,1.14542365074,1.55443501472,-0.0282388050109,-3.09456634521,0.0
1471704137645677756,-0.0192190594971,-0.169483423233,1.13785815239,1.55371451378,-0.117818593979,-3.05145430565,0.0
1471704137717013910,-0.0214181877673,-0.151550635695,1.1259598732,1.54686224461,-0.0231324583292,-2.94940209389,0.0
1471704137789002231,-0.0197678375989,-0.1401322335,1.10502767563,1.55533969402,-0.141400277615,-3.07890844345,0.0
1471704137862897402,-0.0187601763755,-0.139513254166,1.10514676571,1.54074919224,0.0353272743523,-3.12051200867,0.0
1471704137936985197,-0.0201663151383,-0.129677325487,1.09842777252,1.54997467995,-0.0216137953103,-2.96083164215,0.0
1471704138009436941,-0.0209027398378,-0.108296513557,1.06965303421,1.55721998215,0.0267914570868,-3.0388007164,0.0
1471704138087119103,-0.0192759055644,-0.106116272509,1.06633138657,1.56029176712,-0.0295617692173,2.91626048088,0.0
1471704138163057014,-0.0189631730318,-0.104228287935,1.0566920042,1.53661429882,0.0679441094398,2.85323929787,0.0
1471704138235242255,-0.020767480135,-0.0923729091883,1.05854940414,1.54855310917,0.0122613832355,2.78937840462,0.0
1471704138308739256,-0.0208948738873,-0.0810774639249,1.03560090065,1.55197453499,-0.0996649935842,-3.0808596611,0.0
1471704138393246676,-0.0195284076035,-0.0785908773541,1.02713906765,1.54216921329,0.109668731689,3.01816701889,0.0
1471704138473020561,-0.0190130602568,-0.0724361240864,1.01482856274,1.54084718227,-0.00432501360774,-3.01330971718,0.0
1471704138545903901,-0.0199192687869,-0.0615265257657,1.00643479824,1.54812073708,-0.0426069684327,-2.98590087891,0.0
1471704138621982338,-0.0192627087235,-0.0556325390935,0.983242332935,1.55830860138,0.117578722537,-3.03866219521,0.0
1471704138700392160,-0.0186027400196,-0.0558722093701,0.986680746078,1.55875313282,-0.0755887851119,-3.09274458885,0.0
1471704138775315138,-0.0189289227128,-0.0486527234316,0.972259521484,1.55889713764,-0.0948514416814,-3.02352261543,0.0
1471704138848851832,-0.0185145810246,-0.043861169368,0.963537096977,1.56448733807,-0.123720444739,3.04500412941,0.0
1471704138922960354,-0.0180790610611,-0.0434950664639,0.944147646427,1.56665658951,-0.152076363564,2.98878383636,0.0
1471704138995266805,-0.0183299910277,-0.0423781275749,0.935342013836,1.56779062748,-0.0396862998605,-3.13389396667,0.0
1471704139073462587,-0.0185939203948,-0.0416492857039,0.92364948988,1.55601143837,0.0685082376003,-3.10083580017,0.0
1471704139147605001,-0.0185832921416,-0.042192928493,0.916181743145,1.55565047264,0.0424424633384,-3.09946131706,0.0
1471704139231965871,-0.0184245724231,-0.0369611531496,0.903942227364,1.54443836212,0.0106666851789,3.05370593071,0.0
1471704139305560744,-0.0186228025705,-0.0323766246438,0.886706531048,1.54957592487,0.0241083167493,2.98273539543,0.0
1471704139379071684,-0.0176974516362,-0.0287700556219,0.873820245266,1.56191551685,-0.156465008855,-3.0885617733,0.0
1471704139453394541,-0.0182685032487,-0.0264277197421,0.868671357632,1.55355489254,0.0612758547068,-3.10130691528,0.0
1471704139535645674,-0.017684571445,-0.022743653506,0.853540122509,1.55968892574,-0.062463182956,3.00705862045,0.0
1471704139611570170,-0.0173729937524,-0.0212971437722,0.842184484005,1.5543628931,-0.0540477223694,-3.05756688118,0.0
1471704139687100959,-0.0174520052969,-0.0196395535022,0.833278894424,1.55575704575,-0.100164093077,-3.07745456696,0.0
1471704139766621277,-0.0172694567591,-0.0179552268237,0.824815571308,1.5626333952,-0.154689311981,3.09740018845,0.0
1471704139844152748,-0.016881916672,-0.0156496092677,0.806949734688,1.5637358427,-0.14401575923,3.08327651024,0.0
1471704139917703400,-0.0173313729465,-0.0153627647087,0.799141585827,1.55763685703,0.117626026273,3.07808303833,0.0
1471704140000852667,-0.0173119939864,-0.0149435959756,0.787890315056,1.56270039082,0.115366086364,-3.05963587761,0.0
1471704140072044059,-0.0163914468139,-0.0128856990486,0.773693561554,1.55988264084,-0.151060208678,-3.13253307343,0.0
1471704140145440528,-0.0165288392454,-0.0124633647501,0.76796323061,1.54735779762,0.0150906387717,-3.13901138306,0.0
1471704140220192434,-0.0158198773861,-0.0133489677683,0.750076472759,1.55700027943,-0.122140035033,-3.04639959335,0.0
1471704140302983268,-0.0159877352417,-0.0134735126048,0.742178916931,1.54958450794,-0.0856989249587,-3.07039737701,0.0
1471704140384351879,-0.0161860827357,-0.0125056104735,0.733466207981,1.55171871185,0.0338908396661,3.04173374176,0.0
1471704140458134743,-0.0156155023724,-0.0120006175712,0.723000526428,1.55787992477,-0.137162715197,3.11704206467,0.0
1471704140531144742,-0.0158718246967,-0.01235696394,0.709449887276,1.5507106781,-0.0508736297488,-3.09682369232,0.0
1471704140614968137,-0.0160864312202,-0.0121638430282,0.698943912983,1.55156338215,0.0483497269452,3.08508825302,0.0
1471704140693314769,-0.0155563112348,-0.0121029308066,0.687865912914,1.56368136406,-0.13529111445,3.07536053658,0.0
1471704140769523319,-0.0154450237751,-0.0125851584598,0.673157155514,1.56342124939,-0.137795493007,3.05374503136,0.0
1471704140841348678,-0.0159990359098,-0.0131540475413,0.66324275732,1.55720448494,0.070976048708,-3.08748698235,0.0
1471704140912758580,-0.016040481627,-0.0131186060607,0.655363380909,1.5538932085,0.0240931883454,-3.13001012802,0.0
1471704140984095980,-0.0160049013793,-0.012549104169,0.640424191952,1.55185806751,-0.00169637030922,-3.13239479065,0.0
1471704141062156013,-0.0159454643726,-0.0118804601952,0.630839049816,1.55297040939,0.01776689291,3.11795783043,0.0
1471704141138310194,-0.015298246406,-0.0108025772497,0.618338465691,1.56271290779,-0.142706021667,3.1041738987,0.0
1471704141219839375,-0.0151436300948,-0.0101306242868,0.608673036098,1.56150281429,-0.151372894645,3.09014678001,0.0
1471704141298557815,-0.0148316686973,-0.00869219657034,0.594811677933,1.56148982048,-0.145420104265,3.07623457909,0.0
1471704141373101386,-0.0148787656799,-0.00833932310343,0.586986660957,1.56002676487,-0.107422530651,-3.12797188759,0.0
1471704141452684193,-0.0147556113079,-0.00758160371333,0.57772564888,1.56460368633,-0.0903394892812,3.06777048111,0.0
1471704141528168211,-0.0143994977698,-0.00732222432271,0.567126214504,1.56211555004,-0.130263224244,3.09512734413,0.0
1471704141609476585,-0.0142042348161,-0.00711251655594,0.553672194481,1.56277310848,-0.100024566054,3.09336566925,0.0
1471704141686035377,-0.0140627268702,-0.00714674079791,0.543014705181,1.56348931789,-0.0816464498639,-3.11387753487,0.0
1471704141763734169,-0.014252836816,-0.00716415792704,0.533580005169,1.5559450388,0.0562340170145,-3.1314406395,0.0
1471704141838529753,-0.0135826831684,-0.00690636690706,0.51990634203,1.5585283041,-0.0526356622577,-3.138276577,0.0
1471704141911816292,-0.0136150531471,-0.00696766795591,0.510587573051,1.55635380745,0.00747227435932,3.13572883606,0.0
1471704141989519601,-0.0132266357541,-0.00692253559828,0.501246869564,1.55966770649,-0.0700802579522,3.12866425514,0.0
1471704142063340656,-0.0132342614233,-0.00662192516029,0.486604422331,1.5557924509,-0.00464088097215,3.12811946869,0.0
1471704142141326079,-0.0130215967074,-0.00655399216339,0.477061986923,1.55587852001,-0.00429052067921,3.13783025742,0.0
1471704142217650904,-0.0127823064104,-0.00631522387266,0.467196524143,1.55753004551,-0.0271403137594,-3.13640904427,0.0
1471704142291850278,-0.0123325670138,-0.00622806604952,0.452708303928,1.56201648712,-0.0808479636908,3.11624670029,0.0
1471704142363618329,-0.0123920291662,-0.00608721468598,0.443229496479,1.55783164501,-0.0015592710115,-3.13450598717,0.0
1471704142437207777,-0.0121977897361,-0.00599261745811,0.434091150761,1.55692017078,-0.0098836524412,3.13902020454,0.0
1471704142509223853,-0.0120200263336,-0.00587610015646,0.42413148284,1.55618917942,-0.0282452851534,3.12935304642,0.0
1471704142581322446,-0.0118004353717,-0.00579060567543,0.409924507141,1.55709266663,-0.0390769429505,-3.14062595367,0.0
1471704142652454722,-0.0116249276325,-0.00591492047533,0.40036046505,1.55653119087,-0.00863883830607,-3.13506889343,0.0
1471704142726120820,-0.0110598877072,-0.00561236171052,0.38995423913,1.56043326855,-0.0882160514593,3.13091635704,0.0
1471704142812939779,-0.0112446928397,-0.00551203638315,0.380796760321,1.5572129488,-0.0101335905492,-3.12588000298,0.0
1471704142888562438,-0.0110543547198,-0.00509604904801,0.37132063508,1.55628037453,-0.00733215082437,-3.13865399361,0.0
1471704142961917764,-0.0107499342412,-0.00445672823116,0.357115745544,1.55793642998,-0.0219293683767,3.13194465637,0.0
1471704143035255873,-0.0104327918962,-0.00413488736376,0.347247093916,1.55977916718,-0.0769340246916,-3.13616943359,0.0
1471704143106685008,-0.0104664964601,-0.00374932331033,0.338232249022,1.55698299408,-0.0440656095743,3.13890314102,0.0
1471704143176330337,-0.0103746000677,-0.00311392196454,0.323845028877,1.55838394165,-0.0435837544501,-3.13284373283,0.0
1471704143256666964,-0.0101224770769,-0.00266512925737,0.314096748829,1.56019973755,-0.0666659474373,3.13828587532,0.0
1471704143333466021,-0.00994663313031,-0.00221434980631,0.304862678051,1.55905604362,-0.0618899427354,-3.14084601402,0.0
1471704143409894017,-0.00987574458122,-0.00182769459207,0.295370548964,1.55914962292,-0.0537209697068,3.13624882698,0.0
1471704143481128067,-0.00983736850321,-0.00154570222367,0.285606533289,1.55787456036,-0.0378932058811,-3.14070081711,0.0
1471704143554587089,-0.00970820058137,-0.000996695482172,0.276327371597,1.55897319317,-0.0566711239517,3.1398358345,0.0
1471704143630017580,-0.00973089877516,-0.000483379466459,0.26628652215,1.55801486969,-0.0455441102386,3.13976073265,0.0
1471704143707231890,-0.00966008473188,-0.000306759349769,0.262654006481,1.55982363224,-0.0681757554412,3.13592195511,0.0
1471704143778638647,-0.00949108786881,-0.000244306516834,0.262796461582,1.5592455864,-0.0696666091681,3.13401436806,0.0
1471704143851144930,-0.00934362690896,-0.000497155881021,0.259280800819,1.55984807014,-0.0581021122634,-3.13463258743,0.0
1471704143925074142,-0.00930445082486,-0.000493541301694,0.258616983891,1.56008017063,-0.0622734092176,-3.14026546478,0.0
1471704143997208723,-0.00939353182912,-0.000520270376001,0.258550643921,1.5604288578,-0.0585743822157,-3.14063262939,0.0
1471704144069883487,-0.00936629623175,-0.000828134594485,0.259013712406,1.55961537361,-0.0681854039431,3.13981580734,0.0
1471704144148891176,-0.00938914995641,-0.000809501099866,0.25906214118,1.55942380428,-0.0676656290889,3.13864016533,0.0
1471704144224206021,-0.00942457374185,-0.000441462994786,0.258731514215,1.55951142311,-0.0645581334829,3.13596820831,0.0
1471704144297860764,-0.00940033886582,-0.000481837283587,0.258602797985,1.559258461,-0.0679617077112,3.13823056221,0.0
1471704144368699978,-0.00941137690097,-0.000483923708089,0.25855833292,1.55914926529,-0.067051872611,3.13702774048,0.0
1471704144439976015,-0.00944456178695,-0.000434502639109,0.258722454309,1.55942285061,-0.0643219798803,3.13681030273,0.0
1471704144511354882,-0.00944640208036,-0.000337483856129,0.258941650391,1.5591609478,-0.0663016438484,3.13652300835,0.0
1471704144587500033,-0.00940993987024,-8.21684952825e-05,0.258458077908,1.55907201767,-0.0699204355478,3.13542890549,0.0
1471704144663485242,-0.00943379942328,-3.30744987878e-05,0.258531838655,1.55908405781,-0.0664182901382,3.13661670685,0.0
1471704144741058125,-0.00946041569114,1.37755050673e-05,0.258648008108,1.55924236774,-0.0641513243318,3.13452458382,0.0
1471704144819334217,-0.00945336092263,6.3795800088e-05,0.258796721697,1.55894994736,-0.0650703087449,3.13497638702,0.0
1471704144894074150,-0.00941978674382,0.00036572231329,0.25834646821,1.55904102325,-0.0675720125437,3.13413691521,0.0
1471704144967000547,-0.00943030510098,0.000420575990574,0.258488833904,1.55879497528,-0.0677291974425,3.13262152672,0.0
1471704145043593794,-0.00944187119603,0.000436460220953,0.258557230234,1.55908882618,-0.0647300556302,3.13439536095,0.0
1471704145119568650,-0.00943541992456,0.000521633308381,0.258806049824,1.55879759789,-0.0671020075679,3.13375973701,0.0
1471704145195990048,-0.00940866861492,0.000836796476506,0.258341342211,1.558781147,-0.069378271699,3.13105225563,0.0
1471704145269570471,-0.00942117534578,0.000866843678523,0.258490264416,1.55884504318,-0.067408695817,3.13336825371,0.0
1471704145342533383,-0.00945962499827,0.000931431190111,0.258711963892,1.55919885635,-0.0622402727604,3.13345742226,0.0
1471704145419262972,-0.00945504661649,0.000984599930234,0.258770614862,1.55893707275,-0.0640539079905,3.13125038147,0.0
1471704145492473582,-0.00942954514176,0.00115874013864,0.259510993958,1.55977511406,-0.0764972046018,3.13144659996,0.0
1471704145566633416,-0.00951505172998,0.00137725437526,0.260618180037,1.56025278568,-0.0667416825891,3.12117886543,0.0
1471704145638118184,-0.00954176392406,0.00143380393274,0.261324137449,1.55924928188,-0.0665059164166,3.12752985954,0.0
1471704145712433641,-0.00942694861442,0.00159278849605,0.261488139629,1.56047153473,-0.0820824801922,3.12370324135,0.0
1471704145783577009,-0.00949671585113,0.00182179617696,0.261273652315,1.55888819695,-0.0695364102721,3.12794232368,0.0
1471704145855332461,-0.00951012037694,0.00190931861289,0.261494398117,1.559055686,-0.0667238906026,3.12400197983,0.0
1471704145929796469,-0.00948575045913,0.00197251653299,0.261630326509,1.55957424641,-0.0722086057067,3.12502169609,0.0
1471704146007486213,-0.00941829010844,0.00214947271161,0.261356920004,1.55999958515,-0.0826560780406,3.12446260452,0.0
1471704146088279130,-0.00949384272099,0.00230057537556,0.261365681887,1.55899143219,-0.0686757490039,3.12615203857,0.0
1471704146176153459,-0.0094891525805,0.00236491276883,0.261566281319,1.55891036987,-0.0696937069297,3.12581396103,0.0
1471704146253369080,-0.00941049214453,0.00247140647843,0.261552542448,1.56022930145,-0.0823531374335,3.12499260902,0.0
1471704146328516543,-0.00937041267753,0.00254948530346,0.261366814375,1.5607830286,-0.0862083807588,3.12456607819,0.0
1471704146409253976,-0.00946655683219,0.00272755860351,0.261299967766,1.5590429306,-0.069593578577,3.12587809563,0.0
1471704146483503352,-0.00949610676616,0.00285393581726,0.261602729559,1.5590685606,-0.0680411979556,3.12362909317,0.0
1471704146558331164,-0.00936456304044,0.00301566114649,0.261405080557,1.5605546236,-0.0891003534198,3.12113785744,0.0
1471704146634667140,-0.00949630420655,0.00320452265441,0.261377125978,1.55902004242,-0.0659058243036,3.12521076202,0.0
1471704146708032141,-0.00946948118508,0.00333364494145,0.261658549309,1.55930531025,-0.0716080516577,3.12333536148,0.0
1471704146782339289,-0.00933916121721,0.00348753621802,0.261359065771,1.5603761673,-0.0919829234481,3.11979413033,0.0
1471704146858520470,-0.00950070470572,0.00368189415894,0.261414200068,1.55924630165,-0.0652748942375,3.12392139435,0.0
1471704146934456976,-0.00950685050339,0.00374984252267,0.261601537466,1.55914950371,-0.0652662962675,3.12389183044,0.0
1471704147011267012,-0.00942422542721,0.00400061346591,0.26120454073,1.55872237682,-0.0759374275804,3.126257658,0.0
1471704147089134818,-0.00947982817888,0.00409796647727,0.261314123869,1.55899238586,-0.0671251639724,3.12255716324,0.0
1471704147161315979,-0.00947755295783,0.00422525405884,0.26161929965,1.55934894085,-0.0698276609182,3.12240147591,0.0
1471704147236901879,-0.00932036526501,0.00439582951367,0.261409044266,1.56058192253,-0.0915763750672,3.11916971207,0.0
1471704147309342408,-0.00946994777769,0.00452500255778,0.261286169291,1.55893266201,-0.0679329931736,3.12454485893,0.0
1471704147389249078,-0.00945747736841,0.0046720164828,0.261587589979,1.55937302113,-0.0718436390162,3.12310147285,0.0
1471704147465313440,-0.00932497810572,0.00481828302145,0.261334955692,1.5607560873,-0.0918241292238,3.11693382263,0.0
1471704147536344536,-0.0094594117254,0.00496047036722,0.261260092258,1.55860102177,-0.0708950459957,3.12475180626,0.0
1471704147608681046,-0.00949910189956,0.00505060469732,0.261421114206,1.55917787552,-0.0653812810779,3.12134385109,0.0
1471704147684480657,-0.00947581604123,0.00512961437926,0.261564910412,1.55947351456,-0.0697465837002,3.12084269524,0.0
1471704147760187943,-0.00937251653522,0.00534585025162,0.261261999607,1.5596807003,-0.0843526870012,3.12263607979,0.0
1471704147838274138,-0.00948879029602,0.00544985430315,0.261345148087,1.55891752243,-0.0658520236611,3.12414908409,0.0
1471704147910647951,-0.00950202904642,0.0054988078773,0.261447519064,1.55907618999,-0.0638580545783,3.12304162979,0.0
1471704147994563401,-0.00942090433091,0.0056165587157,0.26144939661,1.56016898155,-0.0790636613965,3.11995220184,0.0
1471704148074283855,-0.00932135153562,0.00576821295545,0.261290788651,1.56082427502,-0.094258621335,3.11477470398,0.0
1471704148156034888,-0.00950827263296,0.0058927400969,0.261297404766,1.55906832218,-0.0652207359672,3.12295842171,0.0
1471704148234856461,-0.00951485987753,0.00595670752227,0.261479616165,1.55929899216,-0.0623795166612,3.12168526649,0.0
1471704148311445395,-0.00946835428476,0.0060560721904,0.261477679014,1.55981636047,-0.071204662323,3.11593914032,0.0
1471704148385924675,-0.00934609863907,0.00626016175374,0.261315464973,1.55993103981,-0.090484239161,3.11795687675,0.0
1471704148459693239,-0.00949059706181,0.00633174320683,0.261274725199,1.55876111984,-0.0665177553892,3.1226644516,0.0
1471704148531079547,-0.0095144007355,0.006384561304,0.261418879032,1.55933010578,-0.063468657434,3.12134099007,0.0
1471704148612048659,-0.00944143068045,0.00649180589244,0.261463493109,1.56001412868,-0.0753650069237,3.12042617798,0.0
1471704148686157030,-0.00934218429029,0.00662123505026,0.261357605457,1.56071186066,-0.0913840010762,3.11493039131,0.0
1471704148766215882,-0.00939121097326,0.0067129926756,0.26124343276,1.56001758575,-0.0840353444219,3.11981749535,0.0
1471704148840795568,-0.00950914993882,0.0067965677008,0.261318475008,1.55898475647,-0.0639840960503,3.12308740616,0.0
1471704148913342775,-0.00951888691634,0.00680048251525,0.261379182339,1.55908405781,-0.063422203064,3.12492609024,0.0
1471704148990704822,-0.00954902730882,0.00687166489661,0.261476367712,1.55954384804,-0.0588279925287,3.11950230598,0.0
1471704149066631696,-0.00950483325869,0.00692533841357,0.261481463909,1.55968821049,-0.0675736963749,3.11779785156,0.0
1471704149142354440,-0.00936665106565,0.00703848153353,0.261361658573,1.56062853336,-0.0879039317369,3.11618232727,0.0
1471704149218404510,-0.00934504065663,0.00712072150782,0.261266201735,1.56102609634,-0.0934544429183,3.11382079124,0.0
1471704149291970579,-0.00947248749435,0.00722481682897,0.261251598597,1.55952548981,-0.0728612467647,3.11807537079,0.0
1471704149373095494,-0.00952788069844,0.00726096658036,0.261338174343,1.5591301918,-0.0641241446137,3.12110543251,0.0
1471704149451011232,-0.00952805113047,0.00734217651188,0.26139330864,1.55993425846,-0.0629414841533,3.11714601517,0.0
1471704149525463433,-0.00944039598107,0.00743837235495,0.261370927095,1.56057178974,-0.0791528895497,3.11403226852,0.0
1471704149598801744,-0.00935418903828,0.00754365557805,0.26124766469,1.5610691309,-0.0921815335751,3.11376452446,0.0
1471704149670792283,-0.00948013458401,0.00766988052055,0.261271268129,1.55946838856,-0.0699812620878,3.12135338783,0.0
1471704149751730663,-0.00951997190714,0.00770994322374,0.261321127415,1.55924284458,-0.0628560185432,3.12052059174,0.0
1471704149826941593,-0.00953146908432,0.00776194222271,0.261368870735,1.55976629257,-0.0611722059548,3.11658620834,0.0
1471704149898094919,-0.00953600741923,0.00774297257885,0.261403381824,1.55928170681,-0.0626620873809,3.11935281754,0.0
1471704149972119301,-0.00948110688478,0.00784186366946,0.261388987303,1.5597987175,-0.0703112632036,3.11479687691,0.0
1471704150046764865,-0.00939608737826,0.0079023623839,0.261407017708,1.56046354771,-0.082516528666,3.11642169952,0.0
1471704150124409023,-0.0093833040446,0.00793982762843,0.261418551207,1.56064283848,-0.0859271734953,3.11414384842,0.0
1471704150210168257,-0.00932753738016,0.00804709549993,0.261320084333,1.56086671352,-0.0953646153212,3.11259126663,0.0
1471704150285078722,-0.00953294616193,0.00820209830999,0.261324584484,1.55944502354,-0.0626463890076,3.11572813988,0.0
1471704150356567076,-0.00953601207584,0.00827066600323,0.261436283588,1.5599347353,-0.0654094517231,3.115639925,0.0
1471704150427994525,-0.00952124223113,0.00831119623035,0.261431455612,1.56032121181,-0.0664291977882,3.11222839355,0.0
1471704150502996792,-0.00942433252931,0.00833889376372,0.261384308338,1.56052649021,-0.0809585377574,3.11718535423,0.0
1471704150581968924,-0.00936969555914,0.00850676279515,0.261278748512,1.56107151508,-0.0911570861936,3.10966420174,0.0
1471704150660399280,-0.00942748598754,0.0085689201951,0.261300653219,1.56019759178,-0.0816059932113,3.11451864243,0.0
1471704150738357833,-0.00955693423748,0.00865472014993,0.261353880167,1.55943989754,-0.0609483644366,3.11535286903,0.0
1471704150814066269,-0.00951921381056,0.00872307922691,0.261547148228,1.55974781513,-0.0687451586127,3.11815786362,0.0
1471704150889174639,-0.00939802266657,0.00886532478034,0.261431992054,1.56070685387,-0.0875926688313,3.11395120621,0.0
1471704150969473561,-0.00953196827322,0.00909034721553,0.261391580105,1.55926477909,-0.0638400092721,3.11629366875,0.0
1471704151040841878,-0.00953862257302,0.00915541965514,0.261538147926,1.55986452103,-0.0646793991327,3.11829829216,0.0
1471704151111017930,-0.00939912721515,0.00927874725312,0.26136097312,1.56063687801,-0.0853884592652,3.11236429214,0.0
1471704151185083790,-0.00945468433201,0.00948514789343,0.261343330145,1.55960762501,-0.0764446407557,3.11499977112,0.0
1471704151257406290,-0.0095731774345,0.00957606825978,0.261471062899,1.55940783024,-0.0593186505139,3.11728954315,0.0
1471704151332755814,-0.00946764275432,0.00968440622091,0.261487007141,1.55973672867,-0.0789782628417,3.11484479904,0.0
1471704151408043101,-0.00937179569155,0.00981816463172,0.261406064034,1.56054377556,-0.0910409763455,3.11121535301,0.0
1471704151481825799,-0.0094290478155,0.00992793682963,0.261372476816,1.56015574932,-0.081444375217,3.11446046829,0.0
1471704151557959752,-0.00953696854413,0.010048462078,0.261441528797,1.55979561806,-0.0652696341276,3.11791491508,0.0
1471704151636180351,-0.00941426120698,0.0101877981797,0.261437177658,1.56051445007,-0.0867490023375,3.11552047729,0.0
1471704151711523609,-0.00938585121185,0.0103348884732,0.261353820562,1.56072175503,-0.0907147675753,3.11165428162,0.0
1471704151784581406,-0.00954488292336,0.0104181841016,0.261342346668,1.55959832668,-0.0642047077417,3.11670207977,0.0
1471704151854323884,-0.00956228468567,0.0105327153578,0.261351525784,1.55970025063,-0.0631606504321,3.11029720306,0.0
1471704151932613215,-0.00946254469454,0.0105818230659,0.261409729719,1.56029868126,-0.0811417475343,3.11632394791,0.0
1471704152009099551,-0.00942027941346,0.0106580797583,0.261348754168,1.5606212616,-0.0861443057656,3.11074852943,0.0
1471704152083477729,-0.00940110068768,0.0106939198449,0.261367410421,1.56059122086,-0.0895769894123,3.11446666718,0.0
1471704152163789705,-0.00952289626002,0.0108481990173,0.261275261641,1.55984950066,-0.0703638792038,3.11546134949,0.0
1471704152243337416,-0.00961609650403,0.0108976801857,0.261376261711,1.55968570709,-0.0575013756752,3.11622285843,0.0
1471704152319092841,-0.0095953149721,0.0109170079231,0.261395096779,1.55970346928,-0.0588166825473,3.11619305611,0.0
1471704152397248414,-0.00954703520983,0.0109633402899,0.261436462402,1.56001675129,-0.0676699876785,3.11645174026,0.0
1471704152469939842,-0.00938573200256,0.0112154809758,0.261509388685,1.56047213078,-0.0916372388601,3.11542749405,0.0
1471704152545357149,-0.0095035135746,0.0118012437597,0.261705249548,1.55846202374,-0.063798174262,3.12409687042,0.0
1471704152621152837,-0.00935547985137,0.0135482568294,0.261845558882,1.5597461462,-0.0707480236888,3.12440848351,0.0
1471704152696922758,-0.00926852785051,0.0143018644303,0.261901855469,1.56123864651,-0.0820354223251,3.12272000313,0.0
1471704152769519904,-0.00939067732543,0.0145023511723,0.261765658855,1.5609484911,-0.0630228817463,3.12770843506,0.0
1471704152842614289,-0.00935676880181,0.0144741963595,0.26173338294,1.56091761589,-0.0672900155187,3.12569522858,0.0
1471704152926941693,-0.00938996952027,0.0140249803662,0.261555790901,1.5606315136,-0.0671337991953,3.12873983383,0.0
1471704153004305958,-0.00937956385314,0.0135022178292,0.261414080858,1.56138527393,-0.0822868794203,3.12289977074,0.0
1471704153076766880,-0.00945108383894,0.0129643352702,0.261009603739,1.56194925308,-0.0821851417422,3.11074066162,0.0
1471704153151054689,-0.00956369470805,0.0126353250816,0.2608730793,1.56051850319,-0.0636388510466,3.11279773712,0.0
1471704153230269156,-0.0095370830968,0.012562728487,0.260904163122,1.56104743481,-0.0653638094664,3.11750340462,0.0
1471704153307693334,-0.00945711974055,0.012343166396,0.260823458433,1.56247103214,-0.0773085653782,3.11392688751,0.0
1471704153380203182,-0.00950436294079,0.0121105033904,0.260805517435,1.56151688099,-0.0699559748173,3.11271643639,0.0
1471704153453799955,-0.00943193025887,0.0119151277468,0.260831356049,1.56255328655,-0.0773803368211,3.11123371124,0.0
1471704153526446967,-0.00945830903947,0.0118394643068,0.260818719864,1.56219184399,-0.0721984058619,3.11387562752,0.0
1471704153599101753,-0.00948691368103,0.0117543339729,0.260836839676,1.56143546104,-0.0654453784227,3.11628198624,0.0
1471704153675164965,-0.00939025357366,0.0115594537929,0.2608063519,1.56278908253,-0.0825012773275,3.11175179482,0.0
1471704153749128699,-0.00941170379519,0.0111261755228,0.260727107525,1.56315326691,-0.0778145194054,3.11160778999,0.0
1471704153823437126,-0.0094950189814,0.0108190281317,0.260602533817,1.56158149242,-0.0611368604004,3.1140165329,0.0
1471704153895790657,-0.00947227422148,0.0104129370302,0.260610729456,1.56198215485,-0.0681506991386,3.11391830444,0.0
1471704153974646245,-0.00939617771655,0.00973399076611,0.260481595993,1.56306695938,-0.0786164328456,3.11302161217,0.0
1471704154048458205,-0.00952429417521,0.00933275464922,0.260209321976,1.56076335907,-0.0543365478516,3.11780834198,0.0
1471704154123559023,-0.00934347975999,0.00913465302438,0.259784758091,1.56134474277,-0.0854504182935,3.11530828476,0.0
1471704154194391368,-0.00937474705279,0.0088805090636,0.259467542171,1.56107532978,-0.0776828080416,3.11461830139,0.0
1471704154268185623,-0.00940069276839,0.00877115223557,0.259077310562,1.55984771252,-0.0735012069345,3.11122202873,0.0
1471704154339907684,-0.00942921172827,0.0087365610525,0.258554399014,1.56111931801,-0.0705988630652,3.10445785522,0.0
1471704154418408505,-0.00944991968572,0.00861991196871,0.258078455925,1.56084537506,-0.06293207407,3.10414791107,0.0
1471704154495734573,-0.00938211847097,0.00852903630584,0.25776052475,1.56101071835,-0.0695743188262,3.1108353138,0.0
1471704154569638319,-0.00941395945847,0.00838938355446,0.257523417473,1.56030070782,-0.0617690309882,3.11420106888,0.0
1471704154644500262,-0.00929293595254,0.00819938629866,0.257358372211,1.56216943264,-0.0823372378945,3.11572813988,0.0
1471704154720785935,-0.00932194385678,0.00802595168352,0.257317066193,1.56104421616,-0.0779342055321,3.11590313911,0.0
1471704154793978858,-0.00931694544852,0.00804560631514,0.257360905409,1.56078600883,-0.0790986865759,3.11586952209,0.0
1471704154869133397,-0.00929487496614,0.00849341973662,0.257362961769,1.56067800522,-0.0827478542924,3.11733341217,0.0
1471704154941323211,-0.00937871262431,0.00885796081275,0.257353574038,1.56059026718,-0.0707611441612,3.11909508705,0.0
1471704155016420519,-0.00945179257542,0.00875737518072,0.257285237312,1.56040990353,-0.0559122152627,3.11962175369,0.0
1471704155092975633,-0.00938618928194,0.00880655925721,0.257343649864,1.56048738956,-0.066904053092,3.12124347687,0.0
1471704155171478475,-0.00935100298375,0.00912937615067,0.257252126932,1.56093835831,-0.0721764490008,3.1199016571,0.0
1471704155249271688,-0.00927644781768,0.00912553071976,0.25721091032,1.56172406673,-0.0793966948986,3.11540818214,0.0
1471704155323682136,-0.00922870915383,0.00899693649262,0.257094025612,1.5616787672,-0.0862141102552,3.11407113075,0.0
1471704155399540064,-0.00936862546951,0.00915593281388,0.256980568171,1.55998313427,-0.0616251826286,3.11871218681,0.0
1471704155476772531,-0.00933641847223,0.0092214262113,0.257029354572,1.56085109711,-0.0692789405584,3.11960339546,0.0
1471704155550292943,-0.00923621002585,0.00943709816784,0.25701713562,1.56123268604,-0.0881423577666,3.11722588539,0.0
1471704155623645813,-0.00928458198905,0.00931058265269,0.256927996874,1.56157791615,-0.0810021832585,3.1176533699,0.0
1471704155698432503,-0.00935622304678,0.00921396911144,0.256900012493,1.56132924557,-0.0703964307904,3.11907315254,0.0
1471704155768664949,-0.00940672215074,0.00916683487594,0.256900846958,1.56051838398,-0.0635745823383,3.11949968338,0.0
1471704155840689810,-0.00938392896205,0.0091691846028,0.256836414337,1.56074512005,-0.0682573392987,3.12001395226,0.0
1471704155912599929,-0.00941423326731,0.00913916248828,0.256861746311,1.56032395363,-0.0638320967555,3.12161207199,0.0
1471704155995382738,-0.00939127244055,0.00915827415884,0.256886005402,1.56050729752,-0.0661590248346,3.12119269371,0.0
1471704156067592783,-0.00940660387278,0.00916385184973,0.256866425276,1.56058347225,-0.0659625306726,3.12046647072,0.0
1471704156143686199,-0.00939430389553,0.00918876752257,0.256806075573,1.56062304974,-0.0674785524607,3.11789083481,0.0
1471704156221002346,-0.00938811711967,0.00921329297125,0.256802141666,1.56123900414,-0.067884080112,3.11693406105,0.0
1471704156295418951,-0.00933710951358,0.00923010706902,0.256695955992,1.56132113934,-0.0756968259811,3.1161544323,0.0
1471704156368642036,-0.00936000142246,0.00923656765372,0.256739556789,1.56138253212,-0.0732831060886,3.11612534523,0.0
1471704156445746058,-0.00934326276183,0.00924294162542,0.256729900837,1.56144320965,-0.0751523673534,3.11641716957,0.0
1471704156521046299,-0.00936471112072,0.00924248900265,0.256688147783,1.56151938438,-0.0726588219404,3.11589288712,0.0
1471704156594694683,-0.00934542063624,0.00926567893475,0.256690531969,1.56188178062,-0.0743492990732,3.11382913589,0.0
1471704156670138165,-0.00932254362851,0.00930285081267,0.256679236889,1.56186509132,-0.0805663540959,3.11353516579,0.0
1471704156752128653,-0.0093218786642,0.00930655281991,0.256670832634,1.56184792519,-0.0801366567612,3.1133313179,0.0
1471704156828777177,-0.00930292066187,0.00933743920177,0.256679415703,1.56185185909,-0.0821574181318,3.1144297123,0.0
1471704156906729971,-0.00931247416884,0.00932340789586,0.256682276726,1.56178605556,-0.0821635127068,3.11417460442,0.0
1471704156981918808,-0.00927945412695,0.0093795703724,0.256716996431,1.5619443655,-0.0841377228498,3.11103820801,0.0
1471704157061960495,-0.00935870781541,0.00949948653579,0.256648540497,1.56072056293,-0.0741222053766,3.11660885811,0.0
1471704157135145546,-0.00940448883921,0.00969196669757,0.256485283375,1.56171417236,-0.0719251707196,3.10856747627,0.0
1471704157214382915,-0.00938618369401,0.00976681336761,0.256474435329,1.56251740456,-0.0765222385526,3.10716462135,0.0
1471704157288651731,-0.00934707093984,0.00986333750188,0.256338953972,1.56266033649,-0.0833351314068,3.10398650169,0.0
1471704157363618007,-0.00951305218041,0.0100233508274,0.256431758404,1.56109821796,-0.058897215873,3.10785102844,0.0
1471704157434623988,-0.00949196703732,0.0100853787735,0.256335526705,1.56178724766,-0.0635265409946,3.10551643372,0.0
1471704157520000093,-0.0094535946846,0.010127610527,0.256385415792,1.56228733063,-0.0693984106183,3.10809278488,0.0
1471704157594175668,-0.00940248370171,0.0102341240272,0.256281733513,1.56319010258,-0.0778663232923,3.1040802002,0.0
1471704157677695690,-0.00937406904995,0.0103260902688,0.256353735924,1.56287300587,-0.0824983492494,3.10405898094,0.0
1471704157747584761,-0.00952282361686,0.0105267586187,0.256420046091,1.56162464619,-0.0613969489932,3.10745167732,0.0
1471704157819632332,-0.00947169307619,0.0108573101461,0.256379663944,1.56170678139,-0.0683598816395,3.1079750061,0.0
1471704157896488695,-0.00946103688329,0.0113139608875,0.256455600262,1.56052100658,-0.0638602077961,3.11066508293,0.0
1471704157976188674,-0.00927079282701,0.0112136313692,0.256674915552,1.5615183115,-0.0834145098925,3.11264204979,0.0
1471704158050235961,-0.0092508001253,0.0111585734412,0.256561398506,1.56130337715,-0.0855915918946,3.11113715172,0.0
1471704158124348331,-0.0093093207106,0.0115887252614,0.255827873945,1.56276154518,-0.0798551663756,3.09711003304,0.0
1471704158198543746,-0.00929533690214,0.0118117360398,0.255598306656,1.56158936024,-0.0801736265421,3.10281062126,0.0
1471704158275170476,-0.00925451051444,0.0118646658957,0.255319833755,1.56136858463,-0.0839864611626,3.10559511185,0.0
1471704158351982191,-0.0093203028664,0.0119408043101,0.254981338978,1.56015861034,-0.0708507671952,3.11427807808,0.0
1471704158430589493,-0.00920655485243,0.0119763407856,0.254473745823,1.56149995327,-0.0831237062812,3.11616325378,0.0
1471704158505467017,-0.00922048650682,0.0120294317603,0.254133015871,1.56160163879,-0.0794539898634,3.11339330673,0.0
1471704158585796296,-0.0093524698168,0.012129929848,0.253518402576,1.5615875721,-0.0647699609399,3.10683131218,0.0
1471704158665495383,-0.00926040112972,0.0121450079605,0.253141462803,1.56170868874,-0.0762361958623,3.10604739189,0.0
1471704158743927481,-0.00918613187969,0.0121731171384,0.252761214972,1.5613014698,-0.0842324122787,3.10587501526,0.0
1471704158817092935,-0.0092191407457,0.0121690342203,0.25238391757,1.56018161774,-0.0761947706342,3.11121988297,0.0
1471704158891329134,-0.00922849588096,0.0122222658247,0.252048641443,1.56013965607,-0.073734074831,3.11361026764,0.0
1471704158970880870,-0.00915321987122,0.0122072324157,0.251484006643,1.56062734127,-0.084054492414,3.11671948433,0.0
1471704159050145058,-0.00919543299824,0.0122698917985,0.250855535269,1.56264424324,-0.0775730311871,3.10699892044,0.0
1471704159124359020,-0.00924742594361,0.0122846066952,0.250506609678,1.56122350693,-0.0662915706635,3.11112809181,0.0
1471704159201232016,-0.0091503765434,0.0122953699902,0.249969214201,1.56096947193,-0.0781797915697,3.11119508743,0.0
1471704159275803609,-0.00913993082941,0.0123057346791,0.249667882919,1.56130719185,-0.0802930518985,3.11095738411,0.0
1471704159352238031,-0.00914054177701,0.012335778214,0.249299660325,1.56144893169,-0.0793937891722,3.10830712318,0.0
1471704159426269351,-0.00927388016135,0.0124110439792,0.248465895653,1.56139910221,-0.0614506602287,3.10268139839,0.0
1471704159499037251,-0.00917383655906,0.0123912589625,0.248215690255,1.56169509888,-0.073236592114,3.10801172256,0.0
1471704159571340628,-0.00911467522383,0.01234928146,0.247935965657,1.56128692627,-0.0795936435461,3.11181402206,0.0
1471704159644576634,-0.00908496882766,0.0123433517292,0.247600883245,1.56143307686,-0.080982863903,3.11355090141,0.0
1471704159723645872,-0.00911551900208,0.012361753732,0.246907800436,1.56064808369,-0.0772856026888,3.1155295372,0.0
1471704159805046946,-0.00918216630816,0.0124249197543,0.246390551329,1.56133818626,-0.0717059224844,3.10649943352,0.0
1471704159880331491,-0.00913113448769,0.0124043235555,0.246065363288,1.56133019924,-0.078186430037,3.10598874092,0.0
1471704159956487754,-0.00909705180675,0.0123803559691,0.245782643557,1.56128227711,-0.079857327044,3.10809540749,0.0
1471704160030195400,-0.00913366489112,0.0123659167439,0.245196834207,1.5610216856,-0.0695862695575,3.11558628082,0.0
1471704160103354586,-0.00913711730391,0.0123804993927,0.244768485427,1.56112420559,-0.065805748105,3.11617445946,0.0
1471704160178848589,-0.0091589782387,0.0124072572216,0.244166448712,1.56253576279,-0.0683069899678,3.10629272461,0.0
1471704160252130224,-0.00907466746867,0.0123966587707,0.243740677834,1.56182861328,-0.077794007957,3.10628938675,0.0
1471704160328330781,-0.00902312342077,0.0124005181715,0.243424281478,1.56138598919,-0.0839846134186,3.10838532448,0.0
1471704160401590972,-0.00908709317446,0.0124038578942,0.243027344346,1.56061720848,-0.0734937861562,3.11458897591,0.0
1471704160488751251,-0.00907005183399,0.0124200526625,0.242713525891,1.56054055691,-0.0746668279171,3.11248326302,0.0
1471704160567160352,-0.00909033231437,0.0124347005039,0.242105945945,1.56186127663,-0.0752454921603,3.10384821892,0.0
1471704160643060366,-0.00904902257025,0.0123939849436,0.241657912731,1.56212484837,-0.0774812102318,3.10863947868,0.0
1471704160726126552,-0.00903340987861,0.0124035282061,0.241282090545,1.56164944172,-0.0767789185047,3.11322617531,0.0
1471704160799861008,-0.00907333102077,0.012400127016,0.240897998214,1.56086444855,-0.0692841485143,3.11601448059,0.0
1471704160878706215,-0.00903547089547,0.0124147599563,0.240370362997,1.56109285355,-0.0756749287248,3.11052799225,0.0
1471704160951260228,-0.00904503744096,0.0124713927507,0.239853769541,1.56223905087,-0.0775553658605,3.1020526886,0.0
1471704161031892413,-0.00900632981211,0.0124612720683,0.239463090897,1.56156170368,-0.0813353136182,3.10550427437,0.0
1471704161110136209,-0.00903265364468,0.0124486815184,0.238981366158,1.56086969376,-0.071778357029,3.11352586746,0.0
1471704161183875536,-0.00898163206875,0.0124132297933,0.238665267825,1.56098568439,-0.0761275067925,3.11516141891,0.0
1471704161262811860,-0.00897624436766,0.0124096153304,0.238221481442,1.56114518642,-0.078397154808,3.11442446709,0.0
1471704161340501112,-0.00900553911924,0.0125040234998,0.237497106194,1.56182491779,-0.0772275999188,3.1058011055,0.0
1471704161416673912,-0.00902305915952,0.0125068482012,0.237220868468,1.56107735634,-0.0711493641138,3.10920715332,0.0
1471704161492381535,-0.00901223905385,0.0124849770218,0.236907929182,1.5610575676,-0.0739887356758,3.11027812958,0.0
1471704161564009651,-0.0089405477047,0.0124926576391,0.236326918006,1.56187677383,-0.0811583250761,3.11023378372,0.0
1471704161638893680,-0.00898562557995,0.0125457346439,0.235707014799,1.56283426285,-0.0752644985914,3.10487699509,0.0
1471704161722285082,-0.00900218915194,0.0125436550006,0.235399678349,1.56196784973,-0.0693174898624,3.10916447639,0.0
1471704161806043368,-0.00894815754145,0.0125176347792,0.235023111105,1.56117594242,-0.0756348073483,3.11215758324,0.0
1471704161888676333,-0.00890706945211,0.0125337010249,0.234638780355,1.56112670898,-0.0808492153883,3.11177182198,0.0
1471704161965781947,-0.0089456429705,0.0125650139526,0.234209567308,1.56048989296,-0.0734425187111,3.11234807968,0.0
1471704162046351462,-0.00901706237346,0.0126192336902,0.233705177903,1.56164610386,-0.070101827383,3.10246753693,0.0
1471704162121048856,-0.00889936741441,0.0125928996131,0.233196526766,1.56155025959,-0.0789690092206,3.10670399666,0.0
1471704162203028846,-0.00885317008942,0.0125788087025,0.232848778367,1.56196522713,-0.0837562009692,3.11078667641,0.0
1471704162283414554,-0.00893043354154,0.0125875510275,0.232262849808,1.56091272831,-0.071011133492,3.11275982857,0.0
1471704162372340385,-0.00895845331252,0.0126493126154,0.231755644083,1.56224536896,-0.0715824887156,3.102612257,0.0
1471704162455687795,-0.00885777454823,0.0126555161551,0.231270611286,1.56201255322,-0.0824102163315,3.10464644432,0.0
1471704162539719012,-0.00887815840542,0.012660513632,0.230896666646,1.56077897549,-0.0751425549388,3.10860681534,0.0
1471704162624930235,-0.00887808948755,0.0126458993182,0.230592593551,1.56036329269,-0.074257619679,3.10993981361,0.0
1471704162703326461,-0.00883242860436,0.0126733090729,0.229822382331,1.56196379662,-0.0812539830804,3.10615253448,0.0
1471704162781845614,-0.00883726030588,0.0126958945766,0.229421645403,1.56199061871,-0.0807897672057,3.10569381714,0.0
1471704162859631948,-0.00889648031443,0.012700018473,0.229034408927,1.56090116501,-0.0706521421671,3.10968232155,0.0
1471704162935852775,-0.00883162580431,0.0126915564761,0.228681832552,1.56110310555,-0.0777112096548,3.11002874374,0.0
1471704163021549371,-0.00882235169411,0.0126222837716,0.225499927998,1.56230330467,-0.0599792525172,3.11380958557,0.0
1471704163098156582,-0.00878969393671,0.0126220239326,0.224441111088,1.560582757,-0.0601371712983,3.11895251274,0.0
1471704163180262475,-0.00873869284987,0.0126517349854,0.223720043898,1.56140291691,-0.0686649084091,3.1135904789,0.0
1471704163263073883,-0.00880573038012,0.0126637890935,0.224508479238,1.56055486202,-0.063424937427,3.11968541145,0.0
1471704163346042710,-0.00878318399191,0.0126710319892,0.22413225472,1.56106746197,-0.0685152187943,3.11739563942,0.0
1471704163439836172,-0.00873255357146,0.0127323158085,0.223466873169,1.56204712391,-0.0753706395626,3.10757660866,0.0
1471704163518756847,-0.00871036294848,0.012735360302,0.223130658269,1.56150257587,-0.0743746459484,3.11217474937,0.0
1471704163614662019,-0.00874580442905,0.012709450908,0.222827345133,1.56088471413,-0.0668413862586,3.11832642555,0.0
1471704163695318621,-0.00870869215578,0.0127098662779,0.222244367003,1.56125426292,-0.0740970745683,3.11871337891,0.0
1471704163787317632,-0.00877448916435,0.0127721400931,0.221513450146,1.56168043613,-0.0652080029249,3.1127641201,0.0
1471704163868937278,-0.00876602437347,0.0127461981028,0.221249908209,1.5611975193,-0.0644906014204,3.11488223076,0.0
1471704163960265330,-0.00871140696108,0.0127589926124,0.221003204584,1.56107640266,-0.070643439889,3.11485171318,0.0
1471704164046126238,-0.00866219680756,0.0127560636029,0.220619142056,1.56087613106,-0.0775149315596,3.11658453941,0.0
1471704164124188985,-0.008724831976,0.0128108439967,0.220133826137,1.56233751774,-0.073146276176,3.10723876953,0.0
1471704164216411846,-0.0087682409212,0.0127877192572,0.219940558076,1.56196296215,-0.0639615729451,3.11321115494,0.0
1471704164304583338,-0.00874926988035,0.0127844903618,0.219760999084,1.56140685081,-0.0644934996963,3.11495709419,0.0
1471704164387133285,-0.00874331407249,0.0127606093884,0.219673618674,1.5611461401,-0.0656105950475,3.11581420898,0.0
1471704164477622311,-0.00872296560556,0.0125796059147,0.219186559319,1.56092369556,-0.064597658813,3.11690354347,0.0
1471704164563826550,-0.0087250880897,0.0124914357439,0.218788608909,1.56016588211,-0.0657406076789,3.11779808998,0.0
1471704164659150218,-0.00871185958385,0.0124064506963,0.218282729387,1.56261599064,-0.0711401104927,3.10497617722,0.0
1471704164742534751,-0.00865514017642,0.0123020522296,0.218043029308,1.56187009811,-0.0756460428238,3.10681724548,0.0
1471704164829568605,-0.00864821765572,0.0121393948793,0.217547059059,1.5616465807,-0.0715561509132,3.11580705643,0.0
1471704164911148837,-0.00863290391862,0.0120774190873,0.217359125614,1.5617095232,-0.0765986964107,3.11643743515,0.0
1471704165002641727,-0.00865226238966,0.0121133960783,0.217703163624,1.56125164032,-0.0774860084057,3.10778999329,0.0
1471704165087089840,-0.00874893926084,0.0121199833229,0.218109890819,1.56080651283,-0.0692673772573,3.10645914078,0.0
1471704165168996710,-0.00868016853929,0.0120921712369,0.217763155699,1.56117391586,-0.0767498239875,3.10738444328,0.0
1471704165250928557,-0.00869382172823,0.0121511146426,0.217217460275,1.56251859665,-0.0767061784863,3.10019350052,0.0
1471704165339919454,-0.0086964154616,0.0121315950528,0.216778725386,1.56204855442,-0.0756745710969,3.1025929451,0.0
1471704165427051013,-0.00868245679885,0.0120890485123,0.216627672315,1.56167721748,-0.077115945518,3.10886001587,0.0
1471704165511987841,-0.00869690254331,0.0120313316584,0.216470018029,1.56131947041,-0.0751480832696,3.10954093933,0.0
1471704165594289530,-0.00871062651277,0.0120549816638,0.216295108199,1.56090545654,-0.0719370096922,3.11054444313,0.0
1471704165691894840,-0.00867715850472,0.0120176998898,0.215812593699,1.56120407581,-0.0747362673283,3.10601329803,0.0
1471704165773178497,-0.00870212353766,0.0120697570965,0.215338170528,1.5622484684,-0.0745826289058,3.09620022774,0.0
1471704165865452957,-0.00866795796901,0.0120488638058,0.215012714267,1.56202030182,-0.075547285378,3.10152959824,0.0
1471704165950089619,-0.00868984311819,0.0120215285569,0.214542433619,1.56072402,-0.0696785524487,3.10891675949,0.0
1471704166034237097,-0.00863063987345,0.012008709833,0.214193657041,1.56148099899,-0.076812043786,3.10998940468,0.0
1471704166119150536,-0.00862916372716,0.0121343899518,0.213417693973,1.5619481802,-0.076907120645,3.09954500198,0.0
1471704166194968445,-0.00856946129352,0.0122394962236,0.213097661734,1.56196880341,-0.0770369768143,3.10073637962,0.0
1471704166282907333,-0.0085334116593,0.0123206311837,0.212622657418,1.56181311607,-0.0682160258293,3.10576725006,0.0
1471704166371950260,-0.00833773147315,0.0124071259052,0.212058454752,1.56169307232,-0.079401858151,3.10060954094,0.0
1471704166460448860,-0.0083708036691,0.0124860070646,0.211816132069,1.56064736843,-0.0702747404575,3.10418534279,0.0
1471704166551074053,-0.00827101897448,0.0125981615856,0.21173979342,1.56124389172,-0.0798607245088,3.10549688339,0.0
1471704166634930593,-0.00826317165047,0.0128220980987,0.211442694068,1.56097233295,-0.0737273171544,3.105686903,0.0
1471704166719339491,-0.00829976517707,0.0132356593385,0.210874930024,1.56002879143,-0.0666371509433,3.1090798378,0.0
1471704166811133086,-0.00829110573977,0.0134467994794,0.209936842322,1.56156229973,-0.0627052783966,3.10220265388,0.0
1471704166903114328,-0.00826307758689,0.013376975432,0.208724990487,1.56182086468,-0.0752733051777,3.10209679604,0.0
1471704166989033875,-0.00823902711272,0.0133564369753,0.208592325449,1.56149709225,-0.0785362124443,3.10410428047,0.0
1471704167079864253,-0.00829628575593,0.0133465919644,0.208159297705,1.56071031094,-0.0659003555775,3.1066403389,0.0
1471704167171412885,-0.00825214851648,0.0133363232017,0.207514628768,1.56162762642,-0.076550245285,3.10529136658,0.0
1471704167260406627,-0.00824205577374,0.0133398659527,0.207142457366,1.56200158596,-0.0754951164126,3.10299062729,0.0
1471704167354873864,-0.00820607598871,0.013323022984,0.206720978022,1.56121706963,-0.0765617638826,3.10692000389,0.0
1471704167440905419,-0.00818842928857,0.0132979582995,0.206297442317,1.5607354641,-0.0778955891728,3.10899376869,0.0
1471704167526622507,-0.00820175558329,0.0133247617632,0.205658689141,1.56173956394,-0.0776064842939,3.10039567947,0.0
1471704167603178915,-0.0082096690312,0.0132892308757,0.205232322216,1.56137049198,-0.074008628726,3.106965065,0.0
1471704167685918385,-0.00819625239819,0.0132512506098,0.204879209399,1.56095099449,-0.0737928748131,3.11186504364,0.0
1471704167761253183,-0.00819850061089,0.013332773,0.204194441438,1.56178188324,-0.0740486308932,3.10331940651,0.0
1471704167841290409,-0.00822080299258,0.0133674675599,0.203827679157,1.56100189686,-0.0701372027397,3.10535645485,0.0
1471704167917917705,-0.00814149156213,0.0133878029883,0.203463956714,1.56131088734,-0.0779523104429,3.10930562019,0.0
1471704167993854170,-0.00818600412458,0.0134528856725,0.202947556973,1.56102097034,-0.0733966305852,3.10675001144,0.0
1471704168089420097,-0.00816504843533,0.0135047044605,0.202480018139,1.56191945076,-0.0744309350848,3.10401797295,0.0
1471704168168227256,-0.00813458766788,0.0135118803009,0.202242389321,1.56160664558,-0.0782985016704,3.10761785507,0.0
1471704168243158385,-0.00815674569458,0.0135484496132,0.201990589499,1.56087732315,-0.0712121352553,3.10926318169,0.0
1471704168320989482,-0.00814124662429,0.0135779660195,0.201978504658,1.5611038208,-0.07135219872,3.10894560814,0.0
1471704168394901131,-0.0080832419917,0.0135663924739,0.201807007194,1.56121361256,-0.0746077895164,3.11027383804,0.0
1471704168476313522,-0.0080329887569,0.0136051550508,0.201732233167,1.56123697758,-0.0759242251515,3.10746574402,0.0
1471704168551465475,-0.00798735022545,0.0136116687208,0.20156916976,1.56159567833,-0.074266217649,3.10715436935,0.0
