%time,field.position.x,field.position.y,field.position.z,field.orientation.x,field.orientation.y,field.orientation.z,field.orientation.w
1471706369142496995,-0.0277012493461,0.354317843914,1.33567750454,1.56772577763,-0.169508859515,3.04981398582,0.0
1471706369231398485,-0.027756024152,0.354545801878,1.33669662476,1.56637239456,-0.170052573085,3.05904626846,0.0
1471706369319059334,-0.0279353782535,0.355509847403,1.34032762051,1.5672107935,-0.169926419854,3.06199622154,0.0
1471706369400100679,-0.0279327314347,0.355484992266,1.34023308754,1.56711781025,-0.170279532671,3.06178307533,0.0
1471706369475760148,-0.0278140045702,0.354867786169,1.3378739357,1.56772243977,-0.170072227716,3.05204057693,0.0
1471706369553806531,-0.0278733987361,0.355182170868,1.33906459808,1.56771552563,-0.170079901814,3.05452227592,0.0
1471706369628829706,-0.0278756357729,0.355236917734,1.33913719654,1.56805181503,-0.169803440571,3.05229926109,0.0
1471706369709032425,-0.027385732159,0.353310465813,1.33225107193,1.57092428207,-0.156326875091,3.0416765213,0.0
1471706369790060576,-0.0270663015544,0.365533709526,1.3737231493,1.56609284878,-0.027520313859,3.13858437538,0.0
1471706369868018780,-0.0270880945027,0.364944249392,1.37148094177,1.56618523598,-0.0271606948227,3.13261246681,0.0
1471706369949670498,-0.0268024764955,0.364527672529,1.37019193172,1.56634151936,-0.0693316981196,3.14077615738,0.0
1471706370023556933,-0.0260300654918,0.346188396215,1.31815779209,1.55495798588,-0.136452928185,3.03418970108,0.0
1471706370101331296,-0.0273192189634,0.343015402555,1.33443140984,1.5742071867,-0.0672654956579,3.10184955597,0.0
1471706370177887266,-0.0276902411133,0.320741683245,1.29822158813,1.57085323334,-0.063375480473,3.1103219986,0.0
1471706370251918265,-0.0255274605006,0.316404044628,1.29704606533,1.56704044342,-0.0472589209676,3.13459014893,0.0
1471706370328676957,-0.0256206002086,0.308741420507,1.29438340664,1.59976398945,0.0462013557553,-2.63763165474,0.0
1471706370401121871,-0.0261903051287,0.28970181942,1.26814258099,1.56400775909,-0.0791053548455,3.05406427383,0.0
1471706370478106394,-0.0258062966168,0.278239548206,1.252581954,1.5635778904,-0.127261400223,3.06389737129,0.0
1471706370551023516,-0.0260210633278,0.272551834583,1.25744235516,1.58879101276,0.0357708260417,-2.6847653389,0.0
1471706370621274054,-0.0261415168643,0.260526448488,1.23998725414,1.58841907978,0.0507693700492,-2.65639519691,0.0
1471706370691644987,-0.0261028464884,0.247137978673,1.22680330276,1.57124578953,-0.0620412454009,3.08433008194,0.0
1471706370764141856,-0.0253070499748,0.237363636494,1.21110081673,1.55972397327,-0.073926448822,3.0669529438,0.0
1471706370836280933,-0.0245922524482,0.228873774409,1.19925320148,1.57207477093,-0.0274738389999,3.041629076,0.0
1471706370910594689,-0.0245814882219,0.220801442862,1.19918096066,1.57197463512,-0.0349028520286,3.04398846626,0.0
1471706370988087642,-0.0248399116099,0.20210711658,1.17862200737,1.58959519863,0.0479256957769,-2.64520025253,0.0
1471706371063809062,-0.0249816328287,0.192245185375,1.16934752464,1.57161092758,-0.025694090873,3.03759288788,0.0
1471706371136743298,-0.0248754750937,0.184700906277,1.16652154922,1.56740319729,-0.0202855467796,3.1259431839,0.0
1471706371210122099,-0.0232187565416,0.179647937417,1.14559435844,1.56272423267,-0.111304625869,3.06491851807,0.0
1471706371281147745,-0.023395806551,0.173832759261,1.14038336277,1.57207012177,-0.0185385905206,3.12690353394,0.0
1471706371358445438,-0.0238590463996,0.170448973775,1.12221896648,1.57906472683,0.0468538962305,-2.76206970215,0.0
1471706371436720358,-0.0238094851375,0.172380715609,1.11287891865,1.57079589367,0.000241120476858,3.13986563683,0.0
1471706371512045463,-0.0219723954797,0.169413074851,1.09460437298,1.55786919594,-0.171912655234,3.03501343727,0.0
1471706371591346677,-0.0219965931028,0.167808234692,1.11129522324,1.58137786388,0.0348206199706,-2.86243057251,0.0
1471706371663272534,-0.0222231633961,0.157103151083,1.08688414097,1.57590866089,-0.0684094801545,3.01445627213,0.0
1471706371735899726,-0.0227253772318,0.139643251896,1.06112027168,1.57214474678,-0.10884411633,2.99399662018,0.0
1471706371808056321,-0.0227322615683,0.133578538895,1.06219065189,1.56672298908,-0.037535239011,3.13122391701,0.0
1471706371877935654,-0.0220135748386,0.126692220569,1.04794251919,1.56280434132,-0.112448088825,3.04761981964,0.0
1471706371954412270,-0.0214063245803,0.116732150316,1.03652977943,1.57155096531,0.00919994339347,-2.90433168411,0.0
1471706372027500540,-0.0216252580285,0.109695099294,1.02134287357,1.57722043991,0.0386094935238,-2.82467746735,0.0
1471706372106540319,-0.0217319782823,0.10283202678,1.01688063145,1.57051432133,-0.0275273956358,3.02663826942,0.0
1471706372180380308,-0.021381162107,0.0977135673165,1.00941479206,1.56334137917,-0.0726761892438,3.0816514492,0.0
1471706372258226232,-0.0204254984856,0.0936170071363,0.994408249855,1.57079541683,0.000213256731513,3.14056396484,0.0
1471706372333924406,-0.0206735637039,0.0832855850458,0.977818369865,1.57828354836,0.0542830303311,-2.85736989975,0.0
1471706372407682147,-0.0209083463997,0.0769559442997,0.970743060112,1.57190918922,0.0185809414834,-2.95247745514,0.0
1471706372478778045,-0.0209337882698,0.0706013068557,0.953705847263,1.57867944241,0.0762338414788,-2.85807490349,0.0
1471706372555921867,-0.0201612636447,0.0661688894033,0.940036952496,1.56130456924,-0.125803843141,3.02265977859,0.0
1471706372629475180,-0.0199096649885,0.0618225596845,0.933246672153,1.56351590157,-0.0063003138639,3.07141661644,0.0
1471706372709277100,-0.0194501858205,0.05820761621,0.919842123985,1.55773961544,-0.170832291245,-3.10439944267,0.0
1471706372784512810,-0.0200418066233,0.0562878958881,0.911399185658,1.56647706032,-0.0633525028825,3.06894159317,0.0
1471706372863353595,-0.0194630660117,0.0543137192726,0.902271807194,1.56548345089,-0.0850672796369,3.00947618484,0.0
1471706372935659409,-0.019625518471,0.0538627617061,0.879102110863,1.57846665382,0.138990059495,-2.96886968613,0.0
1471706373009526843,-0.0196394827217,0.0544300526381,0.881548285484,1.5678576231,0.00600552046672,3.11890721321,0.0
1471706373087603551,-0.0188598725945,0.0540449619293,0.863756000996,1.55916905403,-0.167091846466,3.0978679657,0.0
1471706373166976696,-0.0189040806144,0.0523718744516,0.848124146461,1.56357085705,-0.126593664289,3.08235788345,0.0
1471706373254833802,-0.019123096019,0.0517563559115,0.845354318619,1.57298910618,0.0534245036542,-2.96248197556,0.0
1471706373334792321,-0.0191718209535,0.0521209686995,0.833362698555,1.56871163845,-0.0235865041614,3.11280703545,0.0
1471706373410270861,-0.0185646079481,0.0517500340939,0.824471414089,1.56653344631,-0.0982846468687,3.02783942223,0.0
1471706373486528823,-0.0185362864286,0.050799485296,0.809337079525,1.57241821289,0.0314033068717,-2.90461111069,0.0
1471706373559831227,-0.0185746476054,0.0495786070824,0.802544116974,1.56311786175,-0.122177146375,3.05948281288,0.0
1471706373632836649,-0.0187755245715,0.0460516884923,0.789715051651,1.56679046154,-0.0500834174454,3.09588575363,0.0
1471706373705140175,-0.0182608384639,0.0444508455694,0.771944224834,1.55989813805,-0.14995495975,3.0502974987,0.0
1471706373779259237,-0.0183125119656,0.0420276932418,0.765104413033,1.56516981125,-0.100440725684,3.08350515366,0.0
1471706373860317594,-0.0185222495347,0.0380711592734,0.751978695393,1.56804609299,-0.0360049754381,3.09434485435,0.0
1471706373939709875,-0.017912350595,0.0365594401956,0.744169592857,1.56574308872,-0.09080478549,3.01900148392,0.0
1471706374014953755,-0.0179452113807,0.0334289036691,0.732208013535,1.57265067101,0.0619091652334,-2.93649792671,0.0
1471706374095790754,-0.0174293313175,0.0318199247122,0.722099840641,1.56706655025,-0.084290355444,3.02436375618,0.0
1471706374174998167,-0.0170723292977,0.0305947735906,0.717033326626,1.56267392635,-0.0675531551242,-3.13241386414,0.0
1471706374253862576,-0.0167282372713,0.0278538241982,0.69865000248,1.56197679043,-0.0719710886478,3.07697796822,0.0
1471706374328323183,-0.0165837015957,0.0254910327494,0.690036475658,1.55445516109,-0.0999063849449,-3.08405852318,0.0
1471706374402706251,-0.0162713360041,0.0233277957886,0.676864624023,1.56606435776,-0.122715033591,3.0744946003,0.0
1471706374473635213,-0.0163610354066,0.0202612858266,0.666961252689,1.56483256817,-0.0716072693467,3.09401631355,0.0
1471706374546268235,-0.0163302477449,0.0191863868386,0.652799427509,1.56500184536,-0.0755434781313,3.03847527504,0.0
1471706374619172566,-0.0160582419485,0.0165951084346,0.640868246555,1.56104540825,-0.0856337025762,3.13427996635,0.0
1471706374696164842,-0.0156863480806,0.0155221614987,0.626856505871,1.5651204586,-0.171682760119,3.05050110817,0.0
1471706374769106551,-0.0158308632672,0.0138719454408,0.621856987476,1.56485402584,-0.0908543467522,3.09649372101,0.0
1471706374843419942,-0.0158347096294,0.0122930631042,0.610963702202,1.56737482548,-0.0686079785228,3.03575253487,0.0
1471706374920129093,-0.0158819649369,0.00999851338565,0.6026917696,1.56683909893,0.0576382577419,-3.02170801163,0.0
1471706375001470270,-0.0151966344565,0.00930483080447,0.591073274612,1.56626725197,-0.110938496888,3.067527771,0.0
1471706375080533953,-0.0149368401617,0.00804701820016,0.577245950699,1.56498432159,-0.100360967219,3.08360743523,0.0
1471706375155847471,-0.014940851368,0.00751506304368,0.568770349026,1.5674226284,-0.0639388114214,3.06078219414,0.0
1471706375230791220,-0.0148315532133,0.00692943949252,0.558562099934,1.56583952904,-0.0727893710136,3.03473329544,0.0
1471706375312304358,-0.0144162429497,0.00623380346224,0.543817341328,1.56644451618,-0.0742753520608,3.07279992104,0.0
1471706375385761714,-0.0143160838634,0.0056186132133,0.534672796726,1.56567299366,-0.0649918615818,3.06819367409,0.0
1471706375466371687,-0.014362309128,0.00528307165951,0.524593889713,1.55928897858,-0.00954222865403,3.05028176308,0.0
1471706375541540092,-0.0139889717102,0.00467452872545,0.511705696583,1.56186401844,-0.00355004845187,3.07859683037,0.0
1471706375614891692,-0.0135946515948,0.0044790818356,0.501595795155,1.56564223766,-0.0745800212026,3.06960892677,0.0
1471706375693507783,-0.013345438987,0.0042100250721,0.490646481514,1.56202602386,-0.113904967904,3.0987508297,0.0
1471706375776009283,-0.013196086511,0.00377341685817,0.475459784269,1.56423425674,-0.0860362574458,3.06686234474,0.0
1471706375851699683,-0.0130396392196,0.00312220235355,0.467218190432,1.56557416916,-0.0667739659548,3.06211686134,0.0
1471706375927605356,-0.0129159586504,0.00268319621682,0.457728296518,1.56042206287,-0.0337793044746,3.07606101036,0.0
1471706376005525865,-0.0125682419166,0.00202334928326,0.448292344809,1.5623087883,-0.0901491865516,3.08759307861,0.0
1471706376079752636,-0.0123152500018,0.00160129717551,0.4348346591,1.56434130669,-0.0618841052055,3.07841968536,0.0
1471706376151188394,-0.0123288379982,0.00147961522453,0.425488650799,1.55677449703,-0.0162879619747,3.12459731102,0.0
1471706376224456612,-0.0119779175147,0.00176176859532,0.414673894644,1.5645878315,-0.0710628032684,3.08488488197,0.0
1471706376295235672,-0.0116513678804,0.00188016227912,0.401011139154,1.56365323067,-0.0675177276134,3.07128429413,0.0
1471706376373589364,-0.0113486032933,0.0019837282598,0.391390502453,1.56086027622,-0.0788493454456,3.10995459557,0.0
1471706376451233261,-0.0111626069993,0.00233237352222,0.381490796804,1.56211423874,-0.082027733326,3.0861184597,0.0
1471706376528869614,-0.0110506005585,0.00247264304198,0.371547281742,1.56267476082,-0.0821726620197,3.08887267113,0.0
1471706376605397469,-0.0108422422782,0.00261478847824,0.357526898384,1.56121492386,-0.0644322261214,3.09747171402,0.0
1471706376681498905,-0.0106860008091,0.002795108594,0.347857236862,1.56306421757,-0.064095646143,3.08645105362,0.0
1471706376755033079,-0.0105230677873,0.00295112584718,0.338778436184,1.56280851364,-0.0615912526846,3.08528590202,0.0
1471706376828004020,-0.0104135964066,0.00317247002386,0.328936398029,1.56117749214,-0.0600095316768,3.1067199707,0.0
1471706376908555642,-0.0103374505416,0.00336470012553,0.314899146557,1.56014716625,-0.0315050035715,3.08889007568,0.0
1471706376987115057,-0.00994662661105,0.00331549276598,0.305647224188,1.56006860733,-0.0679628625512,3.10955286026,0.0
1471706377061014281,-0.0096993567422,0.00356131861918,0.294012695551,1.56160676479,-0.0444536134601,3.11799240112,0.0
1471706377132982375,-0.00948862172663,0.00386066036299,0.278627514839,1.56102144718,-0.052134513855,3.1013944149,0.0
1471706377209993310,-0.009457282722,0.0041477442719,0.269331097603,1.56088113785,-0.0536141917109,3.10953140259,0.0
1471706377285850380,-0.00961350649595,0.00460578687489,0.263322204351,1.5624986887,-0.0483896508813,3.09753417969,0.0
1471706377363595104,-0.00957572180778,0.00465189246461,0.260861068964,1.56046831608,-0.0623942650855,3.10057544708,0.0
1471706377437313336,-0.0093538267538,0.00479428470135,0.261696755886,1.55983531475,-0.0673223957419,3.10526847839,0.0
1471706377517207750,-0.00928394310176,0.00491453474388,0.262002766132,1.56134653091,-0.0742313116789,3.10034704208,0.0
1471706377592323235,-0.00930831115693,0.00491685979068,0.262060135603,1.56070721149,-0.0770524591208,3.10265254974,0.0
1471706377671930063,-0.00939243752509,0.00533623760566,0.262215912342,1.55968952179,-0.0667249336839,3.10312771797,0.0
1471706377746078829,-0.00937655102462,0.0057365372777,0.262235760689,1.56049144268,-0.0713958144188,3.10177350044,0.0
1471706377820441568,-0.00943784974515,0.00579391699284,0.26236474514,1.56001460552,-0.0643672794104,3.1026198864,0.0
1471706377892989526,-0.00944022834301,0.00581016205251,0.262418359518,1.55997943878,-0.0644264444709,3.10222101212,0.0
1471706377970972423,-0.00943136401474,0.00585067179054,0.262508392334,1.5604364872,-0.0666527971625,3.10183691978,0.0
1471706378048736320,-0.00933058839291,0.0060104932636,0.262385129929,1.56229126453,-0.0826954692602,3.09703207016,0.0
1471706378123187184,-0.00930159445852,0.00606818124652,0.262397676706,1.56229281425,-0.0893758311868,3.09809613228,0.0
1471706378200792719,-0.0094510903582,0.00622454797849,0.262404382229,1.55992484093,-0.065100826323,3.10414385796,0.0
1471706378274673707,-0.00941023509949,0.00634501455352,0.262473732233,1.5609331131,-0.072762966156,3.10183548927,0.0
1471706378347252841,-0.00938082206994,0.00638738740236,0.262440621853,1.56168067455,-0.0771638229489,3.1010863781,0.0
1471706378418759085,-0.00931426696479,0.00649251136929,0.262431174517,1.56230247021,-0.0888938233256,3.09871912003,0.0
1471706378497309308,-0.00938616786152,0.00662819296122,0.262388378382,1.56118309498,-0.0766704976559,3.1017434597,0.0
1471706378570965614,-0.00947182998061,0.00671875383705,0.262489646673,1.55979335308,-0.0633668601513,3.10382151604,0.0
1471706378646736373,-0.00942636094987,0.00680483784527,0.262524217367,1.56128621101,-0.0720746666193,3.10354804993,0.0
1471706378720597687,-0.00935673061758,0.00688262563199,0.262406677008,1.56230723858,-0.0830438360572,3.10092139244,0.0
1471706378791032571,-0.00937700271606,0.00702888472006,0.262393862009,1.56120955944,-0.08336982131,3.10471916199,0.0
1471706378880186185,-0.00949950516224,0.00715845590457,0.262548804283,1.55975961685,-0.0615730211139,3.10499238968,0.0
1471706378958078836,-0.0094736488536,0.00720851542428,0.262536108494,1.56036484241,-0.0651863515377,3.104793787,0.0
1471706379035577805,-0.00938617996871,0.00731260562316,0.262499630451,1.56172716618,-0.0804666653275,3.10221028328,0.0
1471706379113390284,-0.00931158103049,0.00739914271981,0.262414485216,1.56176590919,-0.0924461260438,3.1007065773,0.0
1471706379188144561,-0.00936436839402,0.00751251913607,0.262462288141,1.56140637398,-0.0851337611675,3.10277843475,0.0
1471706379266153787,-0.00950620695949,0.00762074068189,0.262533456087,1.55993533134,-0.0621248632669,3.10606861115,0.0
1471706379343157680,-0.00939717516303,0.0077246800065,0.262414872646,1.56136858463,-0.0798714905977,3.10447788239,0.0
1471706379415999908,-0.00935609731823,0.00781571585685,0.262414455414,1.56202876568,-0.0877424404025,3.10519886017,0.0
1471706379486035955,-0.00939942523837,0.00795072317123,0.262348204851,1.56040453911,-0.0799138620496,3.10574793816,0.0
1471706379566536905,-0.00949442759156,0.00804268568754,0.262440502644,1.55977022648,-0.0655056536198,3.10709285736,0.0
1471706379647587092,-0.00950265675783,0.00807666871697,0.262517184019,1.56002378464,-0.0638650655746,3.10712313652,0.0
1471706379731067078,-0.00941496528685,0.00817191228271,0.26245111227,1.56139755249,-0.077166698873,3.10472154617,0.0
1471706379807770829,-0.00934886559844,0.00825610477477,0.262362867594,1.5617300272,-0.0874421596527,3.10066723824,0.0
1471706379884303406,-0.00933172088116,0.0083218831569,0.262368500233,1.56160950661,-0.0917400047183,3.10426640511,0.0
1471706379953710887,-0.00943204108626,0.00841246917844,0.262371063232,1.56024467945,-0.0748257935047,3.10645008087,0.0
1471706380029517427,-0.00951240491122,0.00847956817597,0.262428879738,1.55954682827,-0.0622160248458,3.10784769058,0.0
1471706380119877679,-0.00944752153009,0.00856057275087,0.262400209904,1.56064939499,-0.0745039060712,3.10624241829,0.0
1471706380198684342,-0.00943986140192,0.00859936606139,0.262425333261,1.56095588207,-0.0744964107871,3.10401630402,0.0
1471706380286438031,-0.00936882942915,0.0086811631918,0.26237487793,1.56177794933,-0.085839420557,3.10488033295,0.0
1471706380370066894,-0.00936089735478,0.0087802130729,0.262398123741,1.56171607971,-0.0868563205004,3.10457968712,0.0
1471706380448724226,-0.00950699392706,0.00896426383406,0.262522101402,1.5596820116,-0.0639707818627,3.10852169991,0.0
1471706380520982882,-0.00949680060148,0.0094055403024,0.2625041008,1.55957734585,-0.060788217932,3.10599660873,0.0
1471706380592884542,-0.00932089425623,0.00966068822891,0.26241505146,1.56173586845,-0.0890865549445,3.10289049149,0.0
1471706380663844915,-0.00938561093062,0.0100199291483,0.262472271919,1.56101930141,-0.0800228267908,3.10260820389,0.0
1471706380744766970,-0.00938826333731,0.010603222996,0.262241631746,1.56069755554,-0.0816329345107,3.10736680031,0.0
1471706380819200878,-0.00948269478977,0.0111079774797,0.262091189623,1.55895018578,-0.0664108321071,3.11105680466,0.0
1471706380896962864,-0.00942702777684,0.0114180995151,0.261702746153,1.56089901924,-0.0748898610473,3.10636138916,0.0
1471706380975193841,-0.00950693525374,0.0115062557161,0.261606574059,1.56024491787,-0.062021125108,3.10598468781,0.0
1471706381061001082,-0.00937722437084,0.011720860377,0.261164963245,1.5625692606,-0.0844747796655,3.09656262398,0.0
1471706381141286079,-0.00943249464035,0.011921598576,0.260739803314,1.5624037981,-0.0720757767558,3.10289025307,0.0
1471706381215991785,-0.00951558444649,0.0121107725427,0.260415941477,1.56063389778,-0.0534286163747,3.11122345924,0.0
1471706381289715045,-0.00933309830725,0.0122056789696,0.260009497404,1.56128227711,-0.0811486169696,3.1100320816,0.0
1471706381369070517,-0.0092856772244,0.0122431274503,0.259812831879,1.56115579605,-0.0865069851279,3.10932087898,0.0
1471706381447345433,-0.00934310350567,0.0123707279563,0.259045958519,1.55997371674,-0.0745264813304,3.1083920002,0.0
1471706381528186767,-0.00933444313705,0.0123926755041,0.258798807859,1.56092298031,-0.077440738678,3.10397291183,0.0
1471706381602270203,-0.00930742919445,0.0124654490501,0.258120238781,1.56263589859,-0.0817498639226,3.09464764595,0.0
1471706381673399321,-0.00939312390983,0.0124992784113,0.257853329182,1.56090342999,-0.0655787289143,3.10719180107,0.0
1471706381747307964,-0.00931100919843,0.0124963680282,0.257564723492,1.56119346619,-0.0729783549905,3.11338329315,0.0
1471706381822700537,-0.00924232415855,0.0125118875876,0.257201820612,1.56116688251,-0.0809053331614,3.11307311058,0.0
1471706381898013819,-0.0092139551416,0.0125251822174,0.256832897663,1.56107902527,-0.0855903625488,3.11193561554,0.0
1471706381970809792,-0.00923660676926,0.0125468652695,0.256474107504,1.56099534035,-0.0799241214991,3.11081528664,0.0
1471706382052580268,-0.00934120360762,0.0126008493826,0.256135135889,1.5606212616,-0.0653613582253,3.10763549805,0.0
1471706382125968795,-0.00932336971164,0.0126432972029,0.255539655685,1.56194090843,-0.0696346983314,3.0993142128,0.0
1471706382200340203,-0.00923373457044,0.0126620549709,0.255299001932,1.56197345257,-0.0789910405874,3.10082554817,0.0
1471706382277867616,-0.00920318625867,0.0126229310408,0.254994869232,1.56204998493,-0.0813142210245,3.10686445236,0.0
1471706382361038063,-0.00920011661947,0.0126031106338,0.254844874144,1.56185460091,-0.0791179612279,3.11028671265,0.0
1471706382437021423,-0.00928429141641,0.012597233057,0.254466533661,1.56097853184,-0.0634598135948,3.1173813343,0.0
1471706382514807676,-0.00926832482219,0.0126147605479,0.254098981619,1.56088507175,-0.0645569339395,3.11578536034,0.0
1471706382598578222,-0.00923141464591,0.0126397572458,0.253416031599,1.56176567078,-0.0734601989388,3.1040802002,0.0
1471706382674674652,-0.00918124709278,0.0126562267542,0.25290197134,1.56209158897,-0.0785467475653,3.09567093849,0.0
1471706382750302089,-0.00914892926812,0.0126136392355,0.252583622932,1.56179594994,-0.080952771008,3.10173630714,0.0
1471706382829812934,-0.00913556944579,0.0126405255869,0.252259492874,1.56094229221,-0.0796623528004,3.10568881035,0.0
1471706382914363404,-0.00920981448144,0.0126370135695,0.252049803734,1.5601336956,-0.067908398807,3.11172175407,0.0
1471706382991048598,-0.00917285773903,0.0126204388216,0.251738548279,1.56058812141,-0.072250276804,3.11161637306,0.0
1471706383066652499,-0.00910949055105,0.0126038920134,0.251516461372,1.56088161469,-0.0788059532642,3.11366319656,0.0
1471706383136292197,-0.00913308560848,0.0126163158566,0.251044988632,1.56199884415,-0.0779076442122,3.1085870266,0.0
1471706383209634405,-0.00916065368801,0.0126364687458,0.250673145056,1.5630210638,-0.0762881934643,3.10275578499,0.0
1471706383279625582,-0.00916879530996,0.0126831643283,0.250486850739,1.56222999096,-0.0740868747234,3.10483264923,0.0
1471706383355618757,-0.00913717970252,0.0126641541719,0.250395983458,1.56240785122,-0.0760656222701,3.10279226303,0.0
1471706383432356808,-0.00913527607918,0.0126162897795,0.250338405371,1.56225728989,-0.0764420181513,3.10267186165,0.0
1471706383506564206,-0.00909806787968,0.0125356093049,0.25017362833,1.56183552742,-0.0812900289893,3.10468959808,0.0
1471706383580453481,-0.00907646398991,0.0123943034559,0.249801918864,1.56102561951,-0.0838468745351,3.10636425018,0.0
1471706383660316721,-0.00908763799816,0.0122968424112,0.249475330114,1.56127285957,-0.0796940624714,3.10713863373,0.0
1471706383739116497,-0.00909091252834,0.0122156627476,0.248792991042,1.56186616421,-0.0809298306704,3.10185909271,0.0
1471706383818605024,-0.0091268569231,0.012182331644,0.248474240303,1.56280446053,-0.0778508707881,3.10014200211,0.0
1471706383897601356,-0.00907490495592,0.0121056744829,0.248101338744,1.56235897541,-0.0801190510392,3.10089826584,0.0
1471706383981320828,-0.00910865329206,0.0120908459648,0.247842505574,1.56170725822,-0.0717142820358,3.11083912849,0.0
1471706384068632570,-0.00907863862813,0.012097004801,0.247614070773,1.56152176857,-0.0740210562944,3.11008954048,0.0
1471706384153497630,-0.00910643767565,0.0121089071035,0.24727229774,1.56071925163,-0.0699628219008,3.11231231689,0.0
1471706384231678099,-0.00909273419529,0.0121019463986,0.247052431107,1.56108117104,-0.0712256878614,3.11090302467,0.0
1471706384314171579,-0.00906938314438,0.0121088847518,0.246673315763,1.56142950058,-0.0766086131334,3.10688972473,0.0
1471706384393550444,-0.00907146651298,0.0121047282591,0.246379509568,1.5617711544,-0.0778218209743,3.10225987434,0.0
1471706384471994850,-0.00907649565488,0.0120987575501,0.245985776186,1.56226539612,-0.0779643803835,3.09843277931,0.0
1471706384550448235,-0.00903607811779,0.012080126442,0.245836481452,1.56194210052,-0.0805673375726,3.09965109825,0.0
1471706384623230261,-0.00902430061251,0.0120167220011,0.245535373688,1.56175911427,-0.0783660560846,3.10486412048,0.0
1471706384698621017,-0.00899046286941,0.0119653334841,0.245204105973,1.56181359291,-0.081677056849,3.10812425613,0.0
1471706384778627979,-0.00898751243949,0.0119389165193,0.244872450829,1.56160759926,-0.0788049250841,3.10981869698,0.0
1471706384857270639,-0.00897652842104,0.0119135454297,0.244626373053,1.56154513359,-0.0797272995114,3.11106920242,0.0
1471706384933133265,-0.00906204152852,0.0119089670479,0.243959799409,1.56203091145,-0.0734098032117,3.10145282745,0.0
1471706385008217074,-0.0090568093583,0.0118371751159,0.243559956551,1.56183302402,-0.0725475177169,3.10462784767,0.0
1471706385087780051,-0.00901644956321,0.0117965498939,0.243243813515,1.5614386797,-0.0757937207818,3.10520672798,0.0
1471706385163006700,-0.00898138526827,0.0117682060227,0.242884889245,1.56130683422,-0.0784270688891,3.1071395874,0.0
1471706385235769520,-0.00896667223424,0.011743391864,0.242497444153,1.56136596203,-0.0781349018216,3.10773658752,0.0
1471706385311010687,-0.00891561526805,0.0117452209815,0.242306053638,1.56170868874,-0.0828233733773,3.10977888107,0.0
1471706385389401739,-0.00905251316726,0.0118022030219,0.241687804461,1.56196022034,-0.0682536736131,3.1030600071,0.0
1471706385468611674,-0.00903971679509,0.0117650832981,0.241335719824,1.56149971485,-0.0666585415602,3.10476279259,0.0
1471706385544849424,-0.00897246226668,0.0117262629792,0.240936681628,1.56131243706,-0.0731722414494,3.10617947578,0.0
1471706385622341957,-0.00895009282976,0.0116743231192,0.240576341748,1.56124150753,-0.0760600194335,3.10760450363,0.0
1471706385699718774,-0.0089301103726,0.0116628790274,0.240055724978,1.56160211563,-0.0778861567378,3.10665082932,0.0
1471706385775704707,-0.00895899999887,0.0116874258965,0.239530652761,1.5621560812,-0.0769304409623,3.09891366959,0.0
1471706385849731659,-0.00895568169653,0.0117102777585,0.239110097289,1.5617364645,-0.0722923800349,3.1038351059,0.0
1471706385923029367,-0.00891054980457,0.011659312062,0.238785907626,1.56130349636,-0.074681289494,3.10893368721,0.0
1471706385999170580,-0.00892246514559,0.0116401733831,0.238386839628,1.56126821041,-0.0764050111175,3.10961675644,0.0
1471706386077176564,-0.00888832192868,0.0116922324523,0.237845405936,1.56205129623,-0.0804737508297,3.10325098038,0.0
1471706386151211603,-0.00899164937437,0.0117538459599,0.237178429961,1.56174039841,-0.0650517866015,3.09853792191,0.0
1471706386227598056,-0.00895026046783,0.0117300460115,0.237049773335,1.56152415276,-0.0710133463144,3.1023671627,0.0
1471706386301338571,-0.00888774823397,0.0116807352751,0.236631840467,1.56115615368,-0.0768683552742,3.10700368881,0.0
1471706386378018337,-0.00881371460855,0.0116845751181,0.23616707325,1.56163680553,-0.0824101790786,3.10723853111,0.0
1471706386451610094,-0.00893867015839,0.0117656774819,0.235486522317,1.56209599972,-0.0686967819929,3.10117459297,0.0
1471706386527285393,-0.00889190658927,0.0117612332106,0.235103532672,1.56174230576,-0.0744681283832,3.10132265091,0.0
1471706386600510917,-0.00882644299418,0.0117490254343,0.234738618135,1.56133663654,-0.0803595110774,3.1031601429,0.0
1471706386675928754,-0.0087770735845,0.0117375254631,0.234482914209,1.56140506268,-0.0853815823793,3.10462594032,0.0
1471706386746953816,-0.00882416032255,0.0117300525308,0.234135001898,1.5606020689,-0.0771005228162,3.10866451263,0.0
1471706386824290570,-0.00886359252036,0.0117773264647,0.233536660671,1.56126284599,-0.0708002373576,3.10308170319,0.0
1471706386900156798,-0.00886611361057,0.0117568792775,0.233072564006,1.56263208389,-0.0713252648711,3.10410499573,0.0
1471706386975104751,-0.00878159981221,0.0117545342073,0.232599273324,1.56196308136,-0.0802662670612,3.10768032074,0.0
1471706387048936226,-0.00880000833422,0.0117618096992,0.232409104705,1.56152284145,-0.0785319954157,3.1092748642,0.0
1471706387121617716,-0.00882593449205,0.0117871472612,0.231918141246,1.56093752384,-0.0725054964423,3.10787653923,0.0
1471706387198461225,-0.00880423374474,0.0118714477867,0.231262773275,1.56281030178,-0.0771089494228,3.09488368034,0.0
1471706387272867875,-0.00877041276544,0.0118304733187,0.230823650956,1.56198239326,-0.0777721405029,3.10567164421,0.0
1471706387348104465,-0.00878767948598,0.011846951209,0.230610847473,1.56133818626,-0.0733449459076,3.10589909554,0.0
1471706387421893247,-0.0087449317798,0.0118353329599,0.230231866241,1.56091749668,-0.0749746412039,3.1086397171,0.0
1471706387503262377,-0.00873212423176,0.0118603454903,0.229732051492,1.56183362007,-0.0801332220435,3.10473608971,0.0
1471706387579220881,-0.00876342505217,0.0119239334017,0.2290841043,1.56231737137,-0.077131703496,3.09886884689,0.0
1471706387658379136,-0.00876476243138,0.0119140045717,0.228689789772,1.56110501289,-0.0722463428974,3.10174942017,0.0
1471706387738089976,-0.00874746125191,0.0118797402829,0.228565275669,1.56112599373,-0.071876168251,3.10544490814,0.0
1471706387819758986,-0.00866996496916,0.0118659269065,0.228094533086,1.56139993668,-0.0799791067839,3.10856103897,0.0
1471706387897263906,-0.00872689578682,0.011896439828,0.227485254407,1.56179440022,-0.0740631595254,3.10539340973,0.0
1471706387973984720,-0.00868573226035,0.0118276271969,0.22490042448,1.5620598793,-0.0694008916616,3.1070599556,0.0
1471706388050928133,-0.00860142242163,0.0117965079844,0.223610118032,1.56127440929,-0.0677894353867,3.11543083191,0.0
1471706388123916144,-0.00869242381305,0.0118788303807,0.222824692726,1.56225562096,-0.0569590702653,3.10632681847,0.0
1471706388199964452,-0.00863117724657,0.0118709271774,0.222778439522,1.56205940247,-0.0691540390253,3.11033010483,0.0
1471706388274385781,-0.00864222273231,0.0118974000216,0.223010838032,1.56268239021,-0.0699380636215,3.10823440552,0.0
1471706388360868116,-0.00863946788013,0.0119009548798,0.222727224231,1.56194245815,-0.0671918615699,3.11001944542,0.0
1471706388441538849,-0.00866904202849,0.0118800103664,0.222463518381,1.56113898754,-0.0633338540792,3.11428570747,0.0
1471706388517918801,-0.00859890691936,0.0118841864169,0.222034320235,1.56119322777,-0.0714379101992,3.11426281929,0.0
1471706388595820336,-0.00862019415945,0.0119842877612,0.221258983016,1.56236553192,-0.0712861269712,3.10209035873,0.0
1471706388672426822,-0.00863076839596,0.0119660627097,0.2209084481,1.56123435497,-0.0649293661118,3.10917305946,0.0
1471706388750285189,-0.00859069172293,0.0119104413316,0.220590725541,1.56150400639,-0.0699226856232,3.11615490913,0.0
1471706388825096901,-0.00856896210462,0.0119491145015,0.220062449574,1.56159448624,-0.0738266259432,3.11245298386,0.0
1471706388898274180,-0.00863222591579,0.0120196677744,0.219627544284,1.56262302399,-0.0689179748297,3.10379123688,0.0
1471706388977415353,-0.00861410144717,0.0120218703523,0.219252228737,1.56156933308,-0.0655383020639,3.10579872131,0.0
1471706389058247466,-0.00857809837908,0.011987356469,0.218909651041,1.56151044369,-0.0695783793926,3.10957765579,0.0
1471706389133927353,-0.00855259317905,0.0119914691895,0.218441739678,1.5613796711,-0.0699925348163,3.11389303207,0.0
1471706389208923219,-0.00863404665142,0.0120405470952,0.217806503177,1.56247186661,-0.0625330135226,3.10687184334,0.0
1471706389284600008,-0.00852789357305,0.0120438514277,0.217428922653,1.56209397316,-0.0737961903214,3.10843086243,0.0
1471706389360048310,-0.00854476261884,0.0120439361781,0.217089027166,1.56133568287,-0.0710107311606,3.11289715767,0.0
1471706389435236634,-0.00856451969594,0.0120554082096,0.216783985496,1.56024551392,-0.0654340237379,3.11286330223,0.0
1471706389508746377,-0.00857753865421,0.0121149355546,0.216156765819,1.56184911728,-0.0686664953828,3.102445364,0.0
1471706389580736202,-0.00852442439646,0.0120751261711,0.21581093967,1.56220602989,-0.0724001973867,3.10952496529,0.0
1471706389651318647,-0.00852530170232,0.0121494149789,0.215960770845,1.5615940094,-0.0782696008682,3.10455870628,0.0
1471706389724398289,-0.00858243647963,0.0122113935649,0.216265022755,1.56183040142,-0.0748400762677,3.09972977638,0.0
1471706389798901103,-0.00864834804088,0.0122256474569,0.216468006372,1.56199967861,-0.0690685212612,3.09811592102,0.0
1471706389878837782,-0.00856225006282,0.012199706398,0.216164961457,1.5618005991,-0.0765713080764,3.10070610046,0.0
1471706389952515933,-0.0085280649364,0.0122064743191,0.215798094869,1.56111979485,-0.0801895707846,3.10445857048,0.0
1471706390028095590,-0.00862844940275,0.0122178541496,0.215356335044,1.5610666275,-0.0671257525682,3.10554718971,0.0
1471706390108720759,-0.00862509571016,0.0122462054715,0.214995861053,1.56194841862,-0.0718454569578,3.10111737251,0.0
1471706390182100604,-0.00855473615229,0.0122296763584,0.214618757367,1.56242346764,-0.0767728686333,3.10459208488,0.0
1471706390258979279,-0.0085237827152,0.0122507875785,0.214191406965,1.56132936478,-0.0762481912971,3.10344910622,0.0
1471706390334166970,-0.00854872819036,0.0122732482851,0.213592261076,1.56179201603,-0.0748612880707,3.10294795036,0.0
1471706390407235446,-0.00847498048097,0.0122599257156,0.213157474995,1.56219339371,-0.0773384943604,3.10287570953,0.0
1471706390480974562,-0.00840811897069,0.012252160348,0.212691798806,1.56242370605,-0.0782396122813,3.09781694412,0.0
1471706390553547703,-0.00840719789267,0.0122583480552,0.212494015694,1.56215822697,-0.0755053237081,3.09704136848,0.0
1471706390630091304,-0.00837463606149,0.0122625594959,0.212055787444,1.56160676479,-0.0704729035497,3.10037493706,0.0
1471706390706383987,-0.00825934670866,0.0122914798558,0.211685240269,1.56139624119,-0.0768580511212,3.10559916496,0.0
1471706390778971008,-0.00821346230805,0.0125441141427,0.211389243603,1.56136739254,-0.0774428024888,3.1043817997,0.0
1471706390849554606,-0.00820192229003,0.012871760875,0.211130663753,1.56108880043,-0.0773353949189,3.1077504158,0.0
1471706390924742233,-0.00823102518916,0.0129588861018,0.21074141562,1.56072306633,-0.0722784250975,3.10732793808,0.0
1471706391006152309,-0.00821925885975,0.0128882220015,0.209653660655,1.56098985672,-0.0755790397525,3.10832071304,0.0
1471706391081072495,-0.00824609771371,0.0129112973809,0.209181964397,1.56087815762,-0.0712164416909,3.10716366768,0.0
1471706391151954198,-0.00826242566109,0.0129039427266,0.208980321884,1.56112527847,-0.0710919424891,3.10463476181,0.0
1471706391222747923,-0.00824228487909,0.0129389213398,0.208648443222,1.56197035313,-0.0741207972169,3.1004281044,0.0
1471706391297442451,-0.00820899941027,0.0129118012264,0.208226114511,1.56123483181,-0.0758482217789,3.10471987724,0.0
1471706391369682428,-0.00822709221393,0.012904709205,0.207964152098,1.56042158604,-0.0718508139253,3.10673451424,0.0
1471706391440081571,-0.00820546131581,0.012906123884,0.207482337952,1.56086814404,-0.0727996230125,3.10584115982,0.0
1471706391515309249,-0.00818314123899,0.0128863127902,0.206851959229,1.56158614159,-0.0760616138577,3.10403084755,0.0
1471706391587085007,-0.00818448979408,0.0128911472857,0.206767231226,1.56139194965,-0.075887337327,3.10548973083,0.0
1471706391659241876,-0.00819287821651,0.0128661766648,0.206357330084,1.56078577042,-0.0720225647092,3.1082804203,0.0
1471706391735695170,-0.00819852482527,0.012879550457,0.205745950341,1.56182348728,-0.0727065205574,3.10341405869,0.0
1471706391811575612,-0.00817648414522,0.0128734689206,0.205336987972,1.56196820736,-0.0756351649761,3.10293698311,0.0
1471706391885869075,-0.00818824674934,0.0128532936797,0.205124795437,1.56136894226,-0.0732105895877,3.10634970665,0.0
1471706391956917595,-0.00817404687405,0.0128703927621,0.204632028937,1.56101024151,-0.0719937756658,3.10856699944,0.0
1471706392030043609,-0.00819164328277,0.0129418009892,0.204053238034,1.56226480007,-0.0735635012388,3.10031747818,0.0
1471706392102406043,-0.00819082185626,0.0129675790668,0.203677490354,1.56103384495,-0.0702924281359,3.10630702972,0.0
1471706392181546387,-0.00813947152346,0.0129629466683,0.203315004706,1.5615209341,-0.0739591345191,3.10949158669,0.0
1471706392256351759,-0.0081134242937,0.0129808066413,0.203161120415,1.56137061119,-0.0766289979219,3.1088809967,0.0
1471706392330003103,-0.00818228442222,0.0130776287988,0.202498570085,1.56196057796,-0.0700158774853,3.10344171524,0.0
1471706392408670669,-0.00813168659806,0.013090015389,0.202184960246,1.56200361252,-0.0739824920893,3.10565757751,0.0
1471706392482904805,-0.00813409686089,0.0131447101012,0.201843425632,1.56110680103,-0.0713569000363,3.10711240768,0.0
1471706392551285393,-0.00813451781869,0.0131693435833,0.201812386513,1.56077027321,-0.0697261467576,3.10720252991,0.0
1471706392623614621,-0.00808886066079,0.0131772840396,0.201682761312,1.56091284752,-0.0717133507133,3.10663676262,0.0
1471706392697851819,-0.008041087538,0.0132033051923,0.201643317938,1.5615093708,-0.0735887736082,3.10802268982,0.0
