%time,field.position.x,field.position.y,field.position.z,field.orientation.x,field.orientation.y,field.orientation.z,field.orientation.w
1470068791552722133,-0.0365422070026,0.344806224108,1.37471711636,-0.111908821849,0.00646806232392,0.766474581068,-0.632417027237
1470068791663202646,-0.0365081913769,0.343540608883,1.37314593792,-0.0223313033288,0.00852973920253,0.435400331598,0.899919500669
1470068791744763006,-0.0365464836359,0.344209522009,1.37232351303,-0.146392433364,0.00867741178704,0.76742707133,-0.624139125652
1470068791824280442,-0.0364924930036,0.344590306282,1.37385118008,-0.0877233310765,0.00506411044001,0.766819445261,-0.635819872559
1470068791902129914,-0.0364924930036,0.344590306282,1.37385118008,-0.0877233310765,0.00506411044001,0.766819445261,-0.635819872559
1470068791976221431,-0.0365450009704,0.344509840012,1.3735281229,-0.126508060252,0.00739893562922,0.766972950399,-0.629041699571
1470068792057896593,-0.0365085527301,0.34313711524,1.371545434,-0.0175754560703,0.00674272523724,0.434141780911,0.900647851864
1470068792142242927,-0.0365447103977,0.34451341629,1.37354290485,-0.13105820426,0.00767131947042,0.766930695924,-0.628157787187
1470068792222554595,-0.0363051742315,0.344332993031,1.37281167507,-0.0857731028131,0.00502459875744,0.767881353006,-0.634803872032
1470068792300704694,-0.0350148491561,0.338800996542,1.34671807289,-0.363615285005,0.0450103570027,0.781613732808,-0.504814782826
1470068792374448521,-0.0345574170351,0.338750511408,1.34159052372,-0.167536323397,0.0157973049978,0.780100385245,-0.602598883536
1470068792445266250,-0.0342542305589,0.337050586939,1.33269834518,-0.250937417099,0.0271372547793,0.775858930528,-0.578218731989
1470068792515989915,-0.0358034186065,0.332682400942,1.32278013229,-0.264458772373,0.0243788768921,0.774601563081,-0.573985754657
1470068792589310066,-0.034400742501,0.325053304434,1.29714858532,-0.21930816176,0.0202629021022,0.770438036009,-0.598262966976
1470068792669192001,-0.0330537594855,0.319443106651,1.27456009388,-0.258213656785,0.0258094188109,0.781318144633,-0.567627992807
1470068792743684602,-0.0323240160942,0.315426081419,1.26309776306,-0.246766265596,0.0278164668713,0.775083567951,-0.581014730473
1470068792822946555,-0.0324886068702,0.310808986425,1.25845968723,-0.0309754470968,0.003363138166,-0.424946689605,-0.904682000469
1470068792903036142,-0.0317412354052,0.309038609266,1.2517029047,-0.356784948984,0.0299798379578,0.761885147397,-0.539756177983
1470068792983354740,-0.0304404087365,0.303362935781,1.23028671741,-0.218496515214,0.0239759216638,0.774304977793,-0.593410675153
1470068793056776325,-0.0303709711879,0.30158123374,1.22892522812,-0.261216104106,0.0248111503517,0.766461112834,-0.58624902242
1470068793133771670,-0.0300028081983,0.296485871077,1.22163772583,-0.36951553765,0.0296106790502,0.757521080575,-0.537348385692
1470068793214573076,-0.0286539699882,0.287752658129,1.19910550117,-0.227258305793,0.0195191896977,0.761206502446,-0.607072750431
1470068793300912374,-0.0284412391484,0.284440398216,1.19489037991,-0.198411411056,0.0144325307976,0.762568828791,-0.615559416607
1470068793376925181,-0.027647247538,0.268193483353,1.14657592773,-0.208665243397,0.0173251408356,0.77375517564,-0.597880911104
1470068793451809454,-0.027175148949,0.263651043177,1.13917529583,-0.262796580992,0.0310801947322,0.775910831057,-0.572655534125
1470068793524630149,-0.0272096823901,0.261019736528,1.13998663425,-0.255499726874,0.0264590436354,0.769806234504,-0.584309994691
1470068793597965230,-0.0264884848148,0.253261864185,1.12565100193,-0.399845083638,0.0377636050199,0.763185899926,-0.506206579749
1470068793668677629,-0.0256133563817,0.248264998198,1.11298775673,-0.249513281118,0.0251636263851,0.768725701057,-0.588362737593
1470068793758064742,-0.0256401188672,0.245310217142,1.11341655254,-0.270722208996,0.0203272968538,0.754298216372,-0.597771266738
1470068793834063890,-0.0245818383992,0.235496252775,1.08714091778,-0.41635051415,0.0433709510844,0.764731304433,-0.489854306901
1470068793909128918,-0.0244996473193,0.227898642421,1.06334960461,-0.153908376633,0.0155224470827,0.77385023176,-0.614188150361
1470068793988733685,-0.0244804974645,0.225183129311,1.06295859814,-0.208082278923,0.0184830490144,0.762856136168,-0.611891050439
1470068794066698903,-0.0243798680604,0.222537860274,1.06108820438,-0.259078357424,0.0206832274078,0.758362275973,-0.597776937661
1470068794145918659,-0.0232388917357,0.214757174253,1.03913033009,-0.396670249679,0.0391375893128,0.762758271353,-0.509235487378
1470068794221477795,-0.0233316291124,0.208030730486,1.01547050476,-0.280384188928,0.0305704563436,0.770450008555,-0.571714035262
1470068794295862581,-0.0234460532665,0.206599384546,1.01715743542,-0.162528066091,0.0115907234869,0.756297202289,-0.633612519346
1470068794379739341,-0.0237679760903,0.199388459325,0.995396792889,-0.210058259527,0.0176525640754,0.761980565964,-0.612331227098
1470068794464701934,-0.0236366204917,0.197150155902,0.993043720722,-0.3097283027,0.0258962900022,0.757747703162,-0.573773630471
1470068794544480921,-0.0234855245799,0.193873032928,0.98825854063,-0.326260913859,0.0174315460503,0.744484867437,-0.582230400655
1470068794617151191,-0.0229308847338,0.184964716434,0.956431806087,-0.288262382514,0.0237522044158,0.762301677583,-0.5789963592
1470068794690357656,-0.0228163823485,0.183291256428,0.954920828342,-0.183918253452,0.0130690340149,0.754586438722,-0.629763910441
1470068794761980379,-0.0231571402401,0.177333429456,0.935888290405,-0.194370480215,0.0134632827822,0.754042270359,-0.627263191132
1470068794833829362,-0.0230330191553,0.175562232733,0.934187531471,-0.376590826013,0.0274266989778,0.748856503169,-0.544647650879
1470068794909161505,-0.0227062720805,0.169090598822,0.905407130718,-0.296492018257,0.0247894018148,0.765486053884,-0.570534021752
1470068794989974231,-0.022130575031,0.166345849633,0.898067116737,-0.376225361227,0.0322373131558,0.753779764791,-0.537802286535
1470068795066829043,-0.0218344870955,0.163841053843,0.891507148743,-0.472170866583,0.035747846492,0.746656186441,-0.467205847
1470068795143971871,-0.0216574147344,0.158688440919,0.868726968765,-0.371416498965,0.0323321643988,0.761028990535,-0.530885384058
1470068795218044211,-0.021379807964,0.1568877846,0.866201519966,-0.328904146856,0.0220729735072,0.747789649086,-0.57632064577
1470068795292897007,-0.021588049829,0.152786061168,0.848251760006,-0.26345169391,0.0181458536467,0.75485966479,-0.60037556533
1470068795373617426,-0.0211398731917,0.15075288713,0.841311633587,-0.378783726823,0.0220023266866,0.746760938374,-0.54624800854
1470068795452095110,-0.0211330149323,0.146801352501,0.822490990162,-0.26961941541,0.0181225384488,0.753980781393,-0.598740282363
1470068795527754325,-0.0209616608918,0.146212041378,0.820699870586,-0.298182313473,0.0198333311696,0.747112993138,-0.593730681699
1470068795608119720,-0.0206011049449,0.141643106937,0.796811759472,-0.36201495322,0.0296301843377,0.759586309307,-0.539533005974
1470068795684314102,-0.0202290788293,0.140267327428,0.792932391167,-0.352837702293,0.0220498804216,0.74438238139,-0.566492920423
1470068795759219507,-0.0194769669324,0.137739703059,0.781318366528,-0.500292496842,0.0398818749563,0.74702589322,-0.435969228859
1470068795838536998,-0.0194620434195,0.134686291218,0.765438735485,-0.400902963887,0.028343288474,0.745781357341,-0.531303715955
1470068795914723688,-0.0191178061068,0.132671028376,0.756837785244,-0.458364133771,0.0350806460982,0.747373265184,-0.479692476104
1470068795991375999,-0.0188823081553,0.129441127181,0.742069482803,-0.365020801953,0.0284205060161,0.750684741661,-0.549931366279
1470068796072451432,-0.0188717376441,0.126101687551,0.725405991077,-0.405788458744,0.0297279533799,0.749824889863,-0.52174189987
1470068796152527260,-0.0185087565333,0.12487308681,0.720821559429,-0.457258932472,0.0297991422883,0.74357880742,-0.486946441561
1470068796229409352,-0.0186744481325,0.122416548431,0.709064781666,-0.364792619542,0.0209059913154,0.74115491094,-0.563186187903
1470068796304770035,-0.0186848249286,0.119522430003,0.694205403328,-0.417776773641,0.0241865686406,0.742423809381,-0.523148606581
1470068796385258064,-0.0187638215721,0.116922877729,0.681154251099,-0.452804439273,0.0256982793507,0.740668466582,-0.495699466234
1470068796461672660,-0.018825346604,0.115059792995,0.669094562531,-0.405888248754,0.0303458600354,0.750929011279,-0.52003795854
1470068796536923812,-0.0189272761345,0.112860418856,0.657928884029,-0.456011075013,0.027586435831,0.738382748924,-0.496068346213
1470068796613111364,-0.0189435854554,0.110509775579,0.645480155945,-0.449889482393,0.0295150648551,0.744237893009,-0.49278623478
1470068796689847719,-0.0189564358443,0.108149506152,0.633710741997,-0.371904216979,0.0215956857356,0.745190032591,-0.553093748905
1470068796775839500,-0.0185245070606,0.104794383049,0.617594659328,-0.49405763062,0.0350868542277,0.743039300517,-0.450076180411
1470068796851937104,-0.0184711012989,0.102707050741,0.607005000114,-0.425865246807,0.0278896528228,0.742184972055,-0.516742127258
1470068796929686713,-0.0183529984206,0.100406952202,0.594588398933,-0.39207272298,0.0260033703364,0.747611276391,-0.535425236648
1470068797006596059,-0.0179890617728,0.0975579619408,0.581067979336,-0.445854279911,0.027036592449,0.742263212602,-0.499528084267
1470068797085136273,-0.0179114621133,0.0955739766359,0.57069003582,-0.328542272712,0.0162258989863,0.739362978712,-0.587485387864
1470068797160972973,-0.0172256007791,0.092324398458,0.554732322693,-0.453212223579,0.0275019322019,0.740286351623,-0.495800808516
1470068797240939138,-0.017080007121,0.0902877300978,0.544319093227,-0.428245874945,0.0213013334942,0.736495872118,-0.52318787652
1470068797317556703,-0.0166516769677,0.0886131823063,0.535636305809,-0.557093448271,0.0289108918581,0.73209389227,-0.390959822905
1470068797391595870,-0.0164175368845,0.086697191,0.525171458721,-0.550172723365,0.0314282489002,0.734670878319,-0.395703096003
1470068797463094805,-0.0159957222641,0.084128677845,0.509301781654,-0.456831247165,0.0295682023565,0.742720559653,-0.488668705046
1470068797536558305,-0.0157536100596,0.0823767408729,0.499352127314,-0.486715507625,0.0300991588143,0.739094369795,-0.46469513427
1470068797608994567,-0.015545415692,0.0810110345483,0.490094453096,-0.458573678827,0.0252433682677,0.738383775039,-0.49382421387
1470068797687796302,-0.0152793303132,0.0781949087977,0.473416477442,-0.506989004768,0.0251079854735,0.732904038249,-0.452971752792
1470068797761365985,-0.0150203760713,0.0768349766731,0.464419454336,-0.543422747808,0.0278339023291,0.730965307146,-0.411833353183
1470068797838767669,-0.0149856451899,0.0750722661614,0.451534718275,-0.450046004068,0.0267544820219,0.740077257496,-0.499027499094
1470068797914669283,-0.0147125897929,0.0740685686469,0.443082809448,-0.448161695604,0.0230488005612,0.7372284613,-0.505088153926
1470068797989224586,-0.0142304683104,0.0715450271964,0.427360057831,-0.539093256684,0.026066427438,0.730517578415,-0.418381488101
1470068798063004950,-0.0139654483646,0.0700485408306,0.417139083147,-0.578009585184,0.0275314260984,0.728214978048,-0.367219124991
1470068798142190640,-0.0137740327045,0.0686887279153,0.407282710075,-0.518444991506,0.0225287345965,0.729744720532,-0.445173999415
1470068798214666827,-0.0135772647336,0.0670900791883,0.395902365446,-0.487316004617,0.0253085162561,0.735865314416,-0.469451626569
1470068798288353785,-0.0131368758157,0.0651236176491,0.381400287151,-0.557569889133,0.0282811116341,0.731190457749,-0.3920159588
1470068798363510491,-0.0129208080471,0.0636762455106,0.371956169605,-0.567120675935,0.0221908311581,0.725212583137,-0.389805612067
1470068798436330389,-0.0126563813537,0.0623531267047,0.361555546522,-0.546078404105,0.024780788411,0.729632345867,-0.410878241042
1470068798516102305,-0.0125067075714,0.0610754489899,0.351043790579,-0.566031641253,0.0237741618973,0.726972696822,-0.38801245908
1470068798590550292,-0.0121770836413,0.0594792589545,0.335531771183,-0.478953374885,0.0232053332912,0.734671241409,-0.479920143607
1470068798664386306,-0.0118321543559,0.0583982393146,0.325883090496,-0.496704134291,0.022318779324,0.73227713224,-0.465356934692
1470068798739450690,-0.0116837816313,0.056792832911,0.314901977777,-0.512448026141,0.021295326391,0.729649706989,-0.452277386864
1470068798817291472,-0.0114763490856,0.0556433610618,0.304386138916,-0.466292488159,0.0195488907983,0.732059995758,-0.496263356461
1470068798889700933,-0.0109510812908,0.0539414435625,0.289716780186,-0.503815519331,0.0209131058469,0.730004918012,-0.461330016542
1470068798970722927,-0.0110818324611,0.052945908159,0.279903173447,-0.48526503302,0.0201361270106,0.730789705849,-0.479644441168
1470068799045687885,-0.0108116539195,0.0518517121673,0.27316519618,-0.549030557154,0.0226552437736,0.727505090953,-0.410838812527
1470068799124981802,-0.0105154681951,0.0515794195235,0.268904626369,-0.540537591197,0.0214309336663,0.727354436888,-0.422274023265
1470068799202654914,-0.0105563728139,0.0507744848728,0.261046975851,-0.515569613476,0.0232780600622,0.730556125727,-0.447139634502
1470068799275990797,-0.0103395748883,0.0511960051954,0.261678099632,-0.514467898628,0.023610289493,0.73145335537,-0.446924293846
1470068799354361195,-0.0102134039626,0.0508858785033,0.263284265995,-0.562549568202,0.0259820256316,0.728237082857,-0.390555589913
1470068799430998401,-0.0104228174314,0.0485239066184,0.262412250042,-0.527329049899,0.0266423318329,0.732396643494,-0.429894656731
1470068799512256007,-0.010421092622,0.0472360104322,0.262224256992,-0.537962089382,0.0257369271195,0.730518941922,-0.419852922419
1470068799589734032,-0.0103893680498,0.0471880845726,0.262113273144,-0.516567240684,0.0252292578584,0.732472011755,-0.442726238657
1470068799663599741,-0.0103345029056,0.0463289692998,0.261861503124,-0.541275539812,0.0272504408222,0.731341449019,-0.41402643445
1470068799747353447,-0.0103265997022,0.0442569479346,0.261845469475,-0.543883713571,0.0270745423927,0.731294622436,-0.410689238309
1470068799821502645,-0.0103227291256,0.0433989353478,0.261812895536,-0.544432568563,0.0265197883141,0.730942875453,-0.410624392773
1470068799894473035,-0.0102811641991,0.0419302508235,0.261599689722,-0.543482288362,0.0273379392913,0.731266856117,-0.411252263772
1470068799967227479,-0.0102682169527,0.0408192500472,0.261655300856,-0.532003823674,0.0268689003438,0.732456336654,-0.423978429506
1470068800044626089,-0.010253562592,0.0396837852895,0.261473059654,-0.538608925728,0.0273016695112,0.731588370752,-0.4170533536
1470068800121543445,-0.0102297589183,0.0382801406085,0.261679530144,-0.517015802274,0.0257525539594,0.732817553534,-0.441599252032
1470068800195856695,-0.0101777520031,0.0371824167669,0.261710703373,-0.528737724325,0.0252050146885,0.731290176266,-0.430134634977
1470068800270776132,-0.010098666884,0.0361955761909,0.261886864901,-0.541187593853,0.0265600756854,0.730686689453,-0.415340237029
1470068800351665960,-0.0100830122828,0.0352601967752,0.261977493763,-0.543647925537,0.0268860896422,0.730522778622,-0.412383972963
1470068800429861657,-0.010034554638,0.0338031388819,0.262135058641,-0.545169683981,0.0273456875969,0.731067189917,-0.409369017959
1470068800504917588,-0.0100112464279,0.0328570120037,0.262115508318,-0.539892206343,0.0267656373459,0.73114387393,-0.41620745044
1470068800579160781,-0.00999291799963,0.0320243798196,0.262143433094,-0.544953352998,0.0272728047328,0.73095738346,-0.409857707922
1470068800652079740,-0.00999287236482,0.0311512947083,0.262036800385,-0.534225607134,0.0268290235643,0.731721127778,-0.422454015651
1470068800734416578,-0.00994546245784,0.0297589749098,0.262070059776,-0.550932479967,0.0281662020825,0.731050349067,-0.401553800514
1470068800807003105,-0.00997726432979,0.0289987549186,0.262027055025,-0.540846018475,0.0264774113057,0.730627152,-0.415894813326
1470068800880344059,-0.00995203945786,0.0282795522362,0.262031167746,-0.544479327712,0.0269940651464,0.730894307473,-0.410617940967
1470068800957108118,-0.00995563156903,0.0271285902709,0.261986523867,-0.540611976102,0.0264311424759,0.730850091619,-0.415810328855
1470068801032181722,-0.00994534697384,0.0264678299427,0.261947602034,-0.533727220877,0.0264020593172,0.731569325416,-0.423372775541
1470068801113833679,-0.00990626681596,0.0257412511855,0.261910229921,-0.548876182812,0.0283982088171,0.731450090419,-0.403620171576
1470068801191794263,-0.00994666386396,0.0250635705888,0.261926501989,-0.529460312038,0.026151804887,0.731705435082,-0.428479891417
1470068801269602423,-0.00992706883699,0.0241526253521,0.2618509233,-0.526949523019,0.0267218680698,0.732465118938,-0.430238296176
1470068801351533163,-0.00993715971708,0.0235450677574,0.261839747429,-0.531130259734,0.0256226155692,0.731297016102,-0.427140261515
1470068801428254251,-0.00991832371801,0.0229771826416,0.261858791113,-0.525124432801,0.0266403643652,0.732682190261,-0.432101179281
1470068801506495891,-0.00993259903044,0.0222050026059,0.26182281971,-0.52160593373,0.0253632034331,0.732128215134,-0.437346812511
1470068801584329524,-0.00992636755109,0.0216573867947,0.261820822954,-0.520350672139,0.025820992719,0.732661748937,-0.437921472395
1470068801659868643,-0.00992503017187,0.0211512893438,0.261822968721,-0.516620290879,0.0255995257887,0.73293372158,-0.44187814961
1470068801736975366,-0.0098862843588,0.0204451270401,0.261667311192,-0.51805714192,0.0266530290393,0.733587520394,-0.439039592373
1470068801813630126,-0.00991936121136,0.019979769364,0.261788964272,-0.514245484052,0.0252716790807,0.732824329954,-0.444838651418
1470068801886082643,-0.00989268347621,0.0195273756981,0.261703014374,-0.525602542555,0.0266251741229,0.732657517273,-0.431562312704
1470068801958919233,-0.00987026467919,0.0188330970705,0.261627078056,-0.516881704913,0.0269686257438,0.734000970338,-0.439714193419
1470068802031361407,-0.00991044379771,0.0184701010585,0.261688053608,-0.51489454662,0.0250086811391,0.732660461562,-0.444372388649
1470068802104793284,-0.00993706099689,0.0181047674268,0.26173684001,-0.496716537759,0.023494356138,0.733309200127,-0.463657538875
1470068802174795661,-0.00993292964995,0.017608506605,0.261726051569,-0.502816263858,0.0235308833076,0.732624392266,-0.458130551467
1470068802253849177,-0.00990411546081,0.0173309016973,0.261732041836,-0.510908627073,0.0256851799598,0.733432423748,-0.447648887085
1470068802332870745,-0.00987875740975,0.0170146413147,0.261688023806,-0.529248420931,0.0272178645624,0.732801973722,-0.426798036663
1470068802405673223,-0.00986154004931,0.0168612319976,0.261619359255,-0.520434430608,0.0275257955043,0.734061674519,-0.435366273409
1470068802482892285,-0.00994985550642,0.0166772939265,0.26171836257,-0.488300143435,0.0221653028208,0.732953862975,-0.473128210976
1470068802560035057,-0.00987862795591,0.0164583530277,0.261612147093,-0.512666979362,0.0263610008928,0.733826808715,-0.444944806369
1470068802637011990,-0.00991813931614,0.0162192266434,0.261616051197,-0.49842718047,0.0233006968789,0.733086869979,-0.462180770216
1470068802714468449,-0.00984526984394,0.0160690527409,0.261554419994,-0.524796994322,0.0277690951588,0.733585086935,-0.430894316893
1470068802792018303,-0.00983560085297,0.0159528460354,0.261542767286,-0.522192865396,0.0277229812343,0.734020120219,-0.433313409386
1470068802863635269,-0.00991479400545,0.0157435517758,0.261584341526,-0.500731623156,0.0233278200009,0.732726699785,-0.460255622245
1470068802942042448,-0.00990076456219,0.0156234763563,0.261548429728,-0.506974128075,0.0245422407906,0.732912710158,-0.453005376535
1470068803015812667,-0.00985445454717,0.0155691280961,0.261490345001,-0.514037813033,0.0263659287327,0.733774576896,-0.44344654117
1470068803090508930,-0.00986162293702,0.0154321910813,0.261567384005,-0.517307808055,0.026178952737,0.733464662967,-0.440155520625
1470068803166641069,-0.00990234967321,0.0153577439487,0.261604547501,-0.502513383323,0.024054598211,0.733233732568,-0.457460347254
1470068803244169931,-0.00990873854607,0.015345309861,0.261632293463,-0.502270801019,0.023825838919,0.73305658435,-0.458022287651
1470068803315689551,-0.00991615001112,0.0153410015628,0.261617660522,-0.496671893105,0.0233074526558,0.733173009359,-0.463930093439
1470068803394883473,-0.00990457739681,0.0153251066804,0.261578649282,-0.499974549325,0.0235669457633,0.733128648243,-0.460426361344
1470068803473589826,-0.00992096681148,0.0153066851199,0.261577934027,-0.494778827801,0.0229036758776,0.732906183451,-0.466388099603
1470068803546141373,-0.00988658796996,0.0151813132688,0.261509090662,-0.510380795929,0.0247749283004,0.732842915695,-0.449264851719
1470068803624054131,-0.00987469311804,0.0151674598455,0.261439442635,-0.501103070266,0.0248724003173,0.733853797396,-0.457969082712
1470068803702377384,-0.00992515869439,0.0151933217421,0.261544674635,-0.496033316113,0.0226740159332,0.732444000351,-0.465792469516
1470068803776591992,-0.00984335877001,0.0151345049962,0.261451244354,-0.514947460015,0.0267318202394,0.73395565406,-0.44206743952
1470068803853678030,-0.00983185786754,0.0150226419792,0.2615224123,-0.534608605404,0.0282068302962,0.733029407984,-0.419602074331
1470068803928519951,-0.0098391091451,0.0150123005733,0.261535704136,-0.530556891769,0.0277530953596,0.733179082463,-0.424485080224
1470068804001987378,-0.00983199104667,0.0150168072432,0.261474996805,-0.529851303805,0.0279905487275,0.733466803261,-0.424853590725
1470068804077331494,-0.00983607862145,0.0149681149051,0.261513650417,-0.538757521527,0.0277563792448,0.732237819191,-0.415689418382
1470068804153609992,-0.00985156465322,0.0149931609631,0.26154050231,-0.533625466773,0.0270940031082,0.732372672597,-0.422066398379
1470068804235733704,-0.00982831697911,0.0150366397575,0.261492908001,-0.539450485164,0.0285716947198,0.732748574303,-0.413831317294
1470068804311044167,-0.00983570422977,0.0150790717453,0.261447578669,-0.529913039566,0.0276828638988,0.733127380481,-0.425382267536
1470068804386569157,-0.0098988218233,0.0151329925284,0.26148173213,-0.511779671013,0.0240962126186,0.732135582641,-0.448863486493
1470068804457881786,-0.00991587899625,0.0151691660285,0.261456727982,-0.507559888243,0.0229277570395,0.731561428742,-0.454615391051
1470068804530845314,-0.00993620511144,0.0151700079441,0.261509478092,-0.501918814847,0.0221280173848,0.731247905463,-0.461372251989
1470068804602498151,-0.0098814740777,0.0151299610734,0.261500239372,-0.522841194056,0.0252804254347,0.731957785714,-0.436160275381
1470068804682314258,-0.00989916268736,0.0151226138696,0.261559665203,-0.517775709287,0.0246339491569,0.731901361592,-0.442291623615
1470068804757074903,-0.0098447650671,0.0150670735165,0.26154011488,-0.537559737484,0.0278762864637,0.732326875256,-0.417072882201
1470068804829939794,-0.00984072778374,0.0149921216071,0.261546730995,-0.53412075312,0.027737930273,0.732788785959,-0.420673535515
1470068804908274230,-0.00989120360464,0.0148801878095,0.261591821909,-0.517670722249,0.0249073176023,0.732252024153,-0.441818539653
1470068804986305168,-0.00993866939098,0.0147742861882,0.261542707682,-0.493875373337,0.0220520480966,0.732094099778,-0.468656646017
1470068805059755083,-0.00983389746398,0.0145841315389,0.261521577835,-0.540061714954,0.0281866944153,0.732329128556,-0.413802974575
1470068805135063777,-0.00983959063888,0.0144976489246,0.261506676674,-0.54213184355,0.0277110631551,0.731862974614,-0.411948719596
1470068805209886352,-0.00985737331212,0.0144318845123,0.261514127254,-0.529916259087,0.0267495001287,0.73255488752,-0.426422981754
1470068805287507104,-0.00994746480137,0.0142621686682,0.26152035594,-0.500340431589,0.022012199493,0.731302617794,-0.463002588328
1470068805361746604,-0.00994692742825,0.0142179280519,0.261513471603,-0.500868413379,0.0219138843086,0.73134030233,-0.462376444407
1470068805438471943,-0.00993977021426,0.0142345307395,0.26151239872,-0.506661417276,0.0224496271167,0.731226207982,-0.456178095975
1470068805514490938,-0.0098988134414,0.0141875287518,0.261516273022,-0.526861595889,0.0250285899548,0.731327816477,-0.43237721183
1470068805593206278,-0.00985505990684,0.014111741446,0.261490166187,-0.536596630761,0.0271482263264,0.732044754251,-0.418852608249
1470068805666751402,-0.00984100159258,0.014070848003,0.261507242918,-0.540673342863,0.0279725114861,0.732214107676,-0.413221944527
1470068805746089077,-0.0099110910669,0.0139696197584,0.261608630419,-0.516886794781,0.0240738569213,0.731643427376,-0.443786419318
1470068805829419435,-0.00990209449083,0.013966711238,0.261591106653,-0.519136683017,0.0246433772721,0.731865416266,-0.440752561849
1470068805906340009,-0.00996354874223,0.0138134602457,0.261581242085,-0.501689034042,0.0214768730423,0.730668619339,-0.462569157813
1470068805983524449,-0.00985661707819,0.0137156331912,0.261489778757,-0.529378751735,0.026782279652,0.732504318415,-0.427174753715
1470068806060823715,-0.00984362885356,0.0136604346335,0.261534661055,-0.543591150841,0.0275348500472,0.731490016039,-0.410698002424
1470068806133269415,-0.00985048618168,0.0135932238773,0.261507302523,-0.536315686716,0.0272889910956,0.732218145842,-0.418900205356
1470068806206806165,-0.00987612176687,0.013527396135,0.261551886797,-0.527722225652,0.0259461001007,0.73208531257,-0.429985055044
1470068806283728150,-0.00992621574551,0.0134575972334,0.261610835791,-0.515325188461,0.0234936952046,0.731214091729,-0.446333897973
1470068806354900719,-0.00993740465492,0.0133594088256,0.26150727272,-0.506600733018,0.0223128810952,0.731087213687,-0.456474882799
1470068806431741417,-0.00992847234011,0.0133077027276,0.261506944895,-0.519840313188,0.0228731463516,0.730337230761,-0.442549881171
1470068806509745792,-0.0098526161164,0.0132555421442,0.261467427015,-0.545507999479,0.0273607730089,0.731163319229,-0.408745166599
1470068806584872755,-0.00984180252999,0.0131948646158,0.26145324111,-0.546697545086,0.027651374889,0.731290977072,-0.406903800076
1470068806661441046,-0.00984947942197,0.013100755401,0.261489987373,-0.544535009313,0.0275903798973,0.731464316426,-0.409487909912
1470068806737455531,-0.00990646611899,0.0130423968658,0.261594742537,-0.524829263891,0.0246833468814,0.731247135144,-0.434997245387
1470068806810823340,-0.00990830734372,0.0130013208836,0.261558145285,-0.519167206746,0.0239467059926,0.731217397712,-0.441829247555
1470068806884144085,-0.0099359145388,0.0129352239892,0.261550992727,-0.513234121437,0.0229129468564,0.73087388482,-0.449320707232
1470068806960047485,-0.00992136448622,0.0128857512027,0.261444628239,-0.509515685521,0.022758524358,0.731300597519,-0.452852351043
1470068807033870012,-0.00989564880729,0.0127951549366,0.261537730694,-0.537786103177,0.025052866266,0.730288078047,-0.42052084869
1470068807107051296,-0.00987893715501,0.0127296857536,0.26154306531,-0.537082963717,0.0257101571841,0.73085804659,-0.420389573653
1470068807184372305,-0.00988125428557,0.012638406828,0.261561483145,-0.537507574962,0.0258719152243,0.730837082133,-0.419873088255
1470068807257704776,-0.00989896059036,0.012575590983,0.26150316,-0.517151973321,0.0242000663062,0.7315659308,-0.443598334277
1470068807331756176,-0.00992695428431,0.0124938581139,0.261531233788,-0.52044579199,0.0234383240519,0.730561989798,-0.441436293963
1470068807409928320,-0.00992856174707,0.012456339784,0.261505126953,-0.514669212077,0.0228691726811,0.730756453181,-0.447870080733
1470068807484303305,-0.00992417987436,0.0124352909625,0.26146247983,-0.512577063274,0.0228955728704,0.731094708102,-0.449712213236
1470068807558361123,-0.00990374665707,0.0124739333987,0.261451929808,-0.525963898521,0.0241671405102,0.730757886622,-0.434477661004
1470068807632928600,-0.00991629995406,0.0124276094139,0.261437773705,-0.523357379003,0.0233459667033,0.730389901395,-0.438272303052
1470068807704934352,-0.00993147678673,0.0123872384429,0.261462628841,-0.522749779973,0.0224546153287,0.729705430447,-0.440180011547
1470068807779075957,-0.0099138719961,0.0123742241412,0.261462599039,-0.528318514759,0.0235074540078,0.730057975379,-0.432830566336
1470068807852248449,-0.00990913528949,0.0123846223578,0.26146543026,-0.525336471036,0.0240305059892,0.730802164984,-0.435169303416
1470068807924118165,-0.00986102968454,0.0123410234228,0.26146158576,-0.542689039672,0.0267539876767,0.731039511378,-0.41273970389
1470068807998213221,-0.00986469630152,0.012316535227,0.261476576328,-0.549724756765,0.0267745673325,0.730249687958,-0.404748326224
1470068808070028188,-0.00985950417817,0.0123193152249,0.26143553853,-0.546282229262,0.0265997614375,0.730582350049,-0.408800206068
1470068808147313910,-0.00987779535353,0.0123195564374,0.261497527361,-0.543846565604,0.026204728067,0.730460274246,-0.412276622009
1470068808220287603,-0.00984906125814,0.0122663695365,0.261460781097,-0.542198617394,0.027035457086,0.731298237271,-0.412907533863
1470068808306118169,-0.0098545961082,0.0122613795102,0.261465966702,-0.550354414476,0.0271097289792,0.730466957895,-0.403476274996
1470068808378178121,-0.00987943354994,0.0123102562502,0.261478364468,-0.541466235642,0.0259356900508,0.730540410468,-0.415273842559
1470068808449846697,-0.00986643135548,0.0123111214489,0.26146286726,-0.544701431053,0.026897582989,0.730956819911,-0.410218232729
1470068808524627956,-0.00988419167697,0.0121427988634,0.261560499668,-0.533965538672,0.0257166141094,0.731089074953,-0.423943656344
1470068808596451352,-0.00993068423122,0.0120467338711,0.261554718018,-0.514675106945,0.0232951719264,0.731081318298,-0.447310826264
1470068808669026056,-0.00993837509304,0.011992671527,0.261562794447,-0.516487443886,0.0226977305219,0.730464970478,-0.44625828871
1470068808743120212,-0.00995047856122,0.0119227198884,0.261560857296,-0.521466611303,0.0221446250674,0.729645430683,-0.441814140064
1470068808819632054,-0.00987389776856,0.0118228942156,0.261553108692,-0.544865845863,0.0267046115556,0.730771503253,-0.410342641907
1470068808894502621,-0.00988264009356,0.0117467679083,0.261610627174,-0.538590584807,0.0263373347092,0.731089397862,-0.418012941297
1470068808967716139,-0.00992059428245,0.0116710579023,0.261663109064,-0.527910053116,0.0242701025069,0.730586492995,-0.432394859124
1470068809044712115,-0.00992631819099,0.0116212628782,0.261608242989,-0.524492779401,0.0239696166443,0.73063569524,-0.436467940032
1470068809122434362,-0.00994744151831,0.0115479202941,0.261576980352,-0.509582637782,0.0222794626102,0.730706674851,-0.453758654071
1470068809196191838,-0.00989834219217,0.011445524171,0.261535912752,-0.539182711215,0.025416520713,0.73044603574,-0.418431109351
1470068809269603035,-0.00985939614475,0.0114219272509,0.261501342058,-0.543854954986,0.0273942268046,0.731376113306,-0.410560988357
1470068809342225480,-0.00985333137214,0.0113437343389,0.261517345905,-0.543955137373,0.0278017152109,0.731643340894,-0.409924255056
1470068809415781300,-0.00986015237868,0.0113379061222,0.261558264494,-0.551761609701,0.0279635800747,0.730859737093,-0.40077575893
1470068809491737866,-0.00985264219344,0.0113581623882,0.261532753706,-0.549071855981,0.0280436397284,0.731224568356,-0.403787421638
1470068809564741593,-0.00985202100128,0.0113260988146,0.26151061058,-0.554491722004,0.0279775702494,0.730567313323,-0.397526837453
1470068809637532824,-0.00986782368273,0.0113248089328,0.261573046446,-0.543591372981,0.0273918035042,0.731369017996,-0.410922702996
1470068809713392814,-0.00984373874962,0.0113009279594,0.261471092701,-0.54703445898,0.0281662085198,0.731546388305,-0.405955474337
1470068809789958051,-0.00990833062679,0.011220747605,0.261588275433,-0.530967956749,0.0250810417166,0.730852443605,-0.428133946247
1470068809865581488,-0.00991130713373,0.0111928554252,0.261536091566,-0.520716535312,0.024107621821,0.73115274532,-0.440100869613
1470068809940703328,-0.0099255759269,0.0111432243139,0.2615660429,-0.522763247425,0.0240630411261,0.730828569356,-0.438211318208
1470068810014654565,-0.00992575194687,0.0111243361607,0.261511206627,-0.512247625054,0.0231525390875,0.731118514429,-0.450035607946
1470068810092485589,-0.00994619820267,0.0110302483663,0.261521458626,-0.516141572951,0.0223020624497,0.730282526784,-0.446976426399
1470068810166733809,-0.00991816259921,0.010980210267,0.261532902718,-0.52881863431,0.0241037934524,0.730500875276,-0.431437516182
1470068810242919910,-0.00986825022846,0.0109209045768,0.261504709721,-0.541389736318,0.0269337156784,0.731358224802,-0.413868186001
1470068810320218159,-0.00987105537206,0.0108700497076,0.261523962021,-0.53317169836,0.0266812442423,0.731902439571,-0.423479480286
1470068810396957500,-0.00989338383079,0.0107891447842,0.261602461338,-0.534323232063,0.0257354305605,0.731135884512,-0.42341078124
1470068810477095260,-0.0099119618535,0.0107422545552,0.26159620285,-0.529418094834,0.0247553610248,0.730720950899,-0.430291232632
1470068810550417878,-0.00991042517126,0.0107355704531,0.261527836323,-0.517600620221,0.0245315538788,0.731859400399,-0.442571597438
1470068810627079705,-0.00993082858622,0.0107065336779,0.26159337163,-0.522611279178,0.0237151808562,0.730604706286,-0.438784462152
1470068810699664930,-0.00987710896879,0.0107998866588,0.261554419994,-0.543596499818,0.0267129876955,0.730845848324,-0.411890285953
1470068810772188150,-0.00987132824957,0.0108037013561,0.261522650719,-0.537234930552,0.0264226766058,0.731328099814,-0.419332424192
1470068810848621264,-0.00990580394864,0.0108676832169,0.26169398427,-0.542848891727,0.026274836668,0.730672312075,-0.413210220198
1470068810923513384,-0.00993384234607,0.0112271336839,0.261761307716,-0.539198914022,0.0249015300665,0.730083105876,-0.419074102554
1470068810995398967,-0.00992131326348,0.0120432646945,0.261667251587,-0.536601385397,0.0241794950731,0.729993848665,-0.422591157171
1470068811070444144,-0.00991426594555,0.0129297431558,0.261461675167,-0.534698083593,0.023498127579,0.729317583487,-0.426194392055
1470068811159832443,-0.00990086141974,0.0131723163649,0.26122495532,-0.544791279801,0.0229243893844,0.728092146076,-0.415401926629
1470068811235534565,-0.00979971606284,0.0133380396292,0.260899543762,-0.563257238249,0.0263200083311,0.728480219508,-0.389056693179
1470068811307130947,-0.00983388070017,0.0134140932932,0.260644108057,-0.554202182725,0.0233622408154,0.727427390444,-0.403935066563
1470068811379841379,-0.00981529522687,0.0134795997292,0.260314583778,-0.569379022362,0.0245727527419,0.726790539489,-0.383378690625
1470068811460688322,-0.00983902532607,0.0135132130235,0.259818971157,-0.568498705061,0.0255763421476,0.72739007422,-0.383482402454
1470068811536246450,-0.0098688416183,0.0136176487431,0.259397178888,-0.557272542191,0.0251479224659,0.728301986952,-0.39798380811
1470068811610579509,-0.00986216124147,0.0138912145048,0.25917494297,-0.553598957318,0.0253686081509,0.728832936383,-0.402103443184
1470068811684870518,-0.00989083293825,0.0141014270484,0.258990466595,-0.533528724858,0.0220832795052,0.728334220096,-0.429405044631
1470068811761920494,-0.00985962152481,0.0145901069045,0.258947938681,-0.538427266589,0.0230842728346,0.728805736367,-0.422380626426
1470068811833917835,-0.0098868990317,0.0149357067421,0.258931785822,-0.526477820463,0.0215034186216,0.728541538739,-0.437705304835
1470068811905818126,-0.00988393463194,0.01503145881,0.259027034044,-0.530751158017,0.0222918393899,0.728743528839,-0.432133256456
1470068811977542174,-0.00981466751546,0.0148592730984,0.258884966373,-0.55660591791,0.0255876102388,0.728659102043,-0.398234904749
1470068812053132057,-0.00981390569359,0.0148065304384,0.258912324905,-0.559823771423,0.0259165299647,0.728656506213,-0.393681818704
1470068812126651297,-0.00981144420803,0.0148363532498,0.258936822414,-0.565437218063,0.0265667472394,0.728395742711,-0.386024095583
1470068812201472503,-0.00981819443405,0.0147512629628,0.258896887302,-0.56087645739,0.0255715473753,0.728277946542,-0.392905749629
1470068812277500258,-0.0098388902843,0.0146344816312,0.258931130171,-0.551714401446,0.0246874027191,0.728573154524,-0.405194903585
1470068812351116127,-0.00986713077873,0.014469939284,0.258794426918,-0.540189128413,0.0223704888115,0.727952296642,-0.421640511085
1470068812426281179,-0.00977347698063,0.0143683757633,0.258738726377,-0.567454428052,0.0277718809309,0.728966526876,-0.381879558773
1470068812502022921,-0.00979763176292,0.0142330415547,0.258842378855,-0.560705615445,0.0265266558408,0.728835126456,-0.392052174821
1470068812579239667,-0.00989150814712,0.01406371966,0.258848577738,-0.519735978888,0.0209622109718,0.728534442995,-0.445727117562
1470068812654509559,-0.00977994780988,0.0138708427548,0.258837342262,-0.570033105133,0.027461871471,0.728556934652,-0.378830961825
1470068812725721768,-0.0098271984607,0.0137248635292,0.258856743574,-0.545178709222,0.0243261653098,0.728907895766,-0.413378388625
1470068812798026539,-0.00986339244992,0.0135716479272,0.258777052164,-0.533475497858,0.0221175244664,0.728325397675,-0.429484369213
1470068812869942878,-0.00975228194147,0.0134279262275,0.258722156286,-0.56754100432,0.0282189917244,0.729316669849,-0.381048674059
1470068812953598594,-0.00986246950924,0.0132160140201,0.258812218904,-0.53047620341,0.0224637498854,0.728719804148,-0.432501820343
1470068813029668488,-0.00984056666493,0.0130823776126,0.258758604527,-0.54175923098,0.0232379525763,0.728467611307,-0.418678722274
1470068813111478393,-0.00978033337742,0.0129334200174,0.258759319782,-0.558619046742,0.0267992083572,0.729264183789,-0.394208464257
1470068813189198189,-0.00983942765743,0.012785342522,0.258802384138,-0.537310864258,0.0233256287233,0.728853005842,-0.423705376493
1470068813273936581,-0.00984631851315,0.0126677826047,0.258736014366,-0.539722905995,0.02251125365,0.728163106484,-0.421865995974
1470068813357998215,-0.00979673769325,0.0124399317428,0.258792996407,-0.554903038379,0.0260124425659,0.72906763853,-0.399832901694
1470068813433965205,-0.00984189473093,0.0123138334602,0.258777499199,-0.530585076097,0.0228099971551,0.729062370969,-0.431772208798
1470068813506740162,-0.00980436708778,0.0121548296884,0.258702009916,-0.549444943267,0.0249357937653,0.728990690213,-0.407505870006
1470068813576017417,-0.00977024808526,0.0120407855138,0.25870847702,-0.560532328364,0.0270345432321,0.729236272897,-0.391518965853
1470068813648594021,-0.00980826374143,0.0119065949693,0.25870770216,-0.546325537853,0.0245650186276,0.728942124092,-0.411786772825
1470068813721181580,-0.00985000748187,0.0117552438751,0.258713304996,-0.538268817041,0.0220170094069,0.727868043908,-0.42425233359
1470068813795503359,-0.00973864551634,0.011650278233,0.2586761415,-0.567630590891,0.0283662013327,0.729320616003,-0.380896718259
1470068813871477778,-0.00978093966842,0.0115304114297,0.258727103472,-0.559942175745,0.0263007666873,0.728742915451,-0.393327843757
1470068813945545317,-0.00982626248151,0.0114162834361,0.258704394102,-0.533326373257,0.0229556040482,0.728879789272,-0.428684350801
1470068814023655790,-0.00982833467424,0.011291728355,0.258642584085,-0.544678679043,0.0228524572584,0.727989727406,-0.415732917369
1470068814095733428,-0.0097719989717,0.0112161291763,0.258617132902,-0.55310584571,0.0263050769717,0.729537120365,-0.401444337831
1470068814173109701,-0.00978086981922,0.0111074103042,0.258684515953,-0.558371985354,0.0261335291231,0.728784590224,-0.395488034813
1470068814247833388,-0.0097939055413,0.0110444566235,0.258651226759,-0.542022293187,0.0250667197687,0.729728531323,-0.416028561306
1470068814325866612,-0.00981879327446,0.0109316976741,0.258651584387,-0.540871850835,0.0235129064741,0.728686562879,-0.41942898956
1470068814402534975,-0.00984385795891,0.0108686387539,0.258675634861,-0.533547452063,0.022467481276,0.728680168154,-0.428774464283
1470068814475793169,-0.00980110373348,0.0108100622892,0.258627861738,-0.549729196962,0.0245210350459,0.72859833907,-0.407849223554
1470068814550052098,-0.00974109396338,0.0107300132513,0.258616119623,-0.560716210238,0.0277648322956,0.729637466611,-0.390455647906
1470068814633865355,-0.00978125445545,0.0105991484597,0.258621245623,-0.543662979005,0.025038312366,0.729413351442,-0.414439152242
1470068814711878731,-0.00981512013823,0.010540228337,0.258661687374,-0.536042103857,0.023541408988,0.729103305859,-0.424868255275
1470068814786463263,-0.00982366129756,0.0105039207265,0.25868049264,-0.533228917433,0.0232462032422,0.729250566419,-0.428159020721
1470068814863253982,-0.00980827119201,0.0104670841247,0.25860825181,-0.539063544031,0.0237333253359,0.729121995043,-0.420984965419
1470068814938969363,-0.00977940484881,0.0103037739173,0.258616387844,-0.549814745562,0.0255845988717,0.729246064333,-0.406508734862
1470068815023399017,-0.00982164870948,0.00997146870941,0.258578121662,-0.539961141516,0.0233586291932,0.728702130458,-0.420582388078
1470068815100067230,-0.00978262163699,0.0088351611048,0.258615523577,-0.539085887631,0.0254573201651,0.730031782762,-0.419275478373
1470068815174923695,-0.00978967174888,0.00819947570562,0.258565247059,-0.536487534281,0.0244692717511,0.72982782665,-0.42300558359
1470068815254049017,-0.00978303235024,0.00767731526867,0.258309453726,-0.525776322289,0.022704041947,0.72948217664,-0.436920518359
1470068815328171197,-0.00971377361566,0.00722702313215,0.257969617844,-0.534333586592,0.0244218867495,0.730044430644,-0.425354345191
1470068815400370611,-0.00966475624591,0.00698324711993,0.25750002265,-0.546186720475,0.024916838063,0.729240676051,-0.411421017875
1470068815477322574,-0.00967009644955,0.00688396114856,0.257164865732,-0.547062706504,0.0249012563212,0.728799230351,-0.411040149409
1470068815550497001,-0.0097246831283,0.00678155571222,0.256424307823,-0.548095269257,0.0255707873025,0.729363932216,-0.408614690187
1470068815624888474,-0.00974899716675,0.006778025534,0.255986124277,-0.527209207376,0.0223566000531,0.729082914025,-0.435876976415
1470068815712756467,-0.00970896333456,0.00673952372745,0.255709260702,-0.532569712239,0.022314289629,0.728671300214,-0.430011290932
1470068815785918569,-0.00966703984886,0.00672650849447,0.25543692708,-0.53202302007,0.0231895697045,0.72932862335,-0.429527076137
1470068815866014896,-0.00959998369217,0.00670125521719,0.255075037479,-0.545527888107,0.0247776612156,0.729183918365,-0.412402963132
1470068815939122334,-0.00961808487773,0.00671913474798,0.254394650459,-0.521799034797,0.0243514415651,0.731185782053,-0.43874836376
1470068816012173080,-0.00965882930905,0.00669618695974,0.253835767508,-0.525790606156,0.0248663826513,0.731302267608,-0.433731362577
1470068816083725687,-0.00964025128633,0.00654319720343,0.253588885069,-0.540415369477,0.0253256129779,0.730098877448,-0.417451159909
1470068816157751965,-0.00967250205576,0.00636693881825,0.253391683102,-0.527209484016,0.022042974668,0.728738481278,-0.436468204037
1470068816232864344,-0.00962376594543,0.00606551393867,0.253411889076,-0.540872659904,0.0245025705541,0.729298017778,-0.418307053574
1470068816310063261,-0.0096341194585,0.0059226937592,0.253285855055,-0.533496394546,0.0230597516983,0.729026706085,-0.428217125619
1470068816385605021,-0.00964853540063,0.00629663933069,0.253232508898,-0.531808689116,0.0219633001839,0.728408796446,-0.431413672576
1470068816461081399,-0.00961644947529,0.00641448749229,0.253228276968,-0.545489778083,0.0242758129485,0.728684610818,-0.413364639115
1470068816537214741,-0.00961474236101,0.00642562331632,0.25319865346,-0.543002964751,0.0240740829549,0.728810401422,-0.416417599989
1470068816610003504,-0.0095183532685,0.00637014675885,0.250477582216,-0.537668218665,0.0225037472621,0.728004844314,-0.424753357435
1470068816681778126,-0.00955010391772,0.00649123592302,0.250067025423,-0.501729851304,0.0183440550255,0.727910704902,-0.4669867853
1470068816752044601,-0.00951475929469,0.00653589190915,0.250104397535,-0.526037907619,0.0204344889202,0.727544042761,-0.439938878997
1470068816825823243,-0.00956451985985,0.00661060400307,0.25052472949,-0.532282020778,0.0206028304924,0.727285359149,-0.432790226438
1470068816902361122,-0.00955781154335,0.00665424391627,0.250561475754,-0.535299079576,0.0213957010166,0.727533434985,-0.428593304149
1470068816972387093,-0.00953885447234,0.00672981422395,0.250593096018,-0.539182043548,0.0224388201202,0.72787720523,-0.423053185042
1470068817043914468,-0.00953064020723,0.00677133072168,0.250575274229,-0.539915590065,0.0228832004828,0.728077731809,-0.421746761914
1470068817116015292,-0.00951930321753,0.00684034405276,0.250586599112,-0.546997876281,0.0235692051142,0.728006350317,-0.412607040431
1470068817187717796,-0.00951080117375,0.00695031834766,0.250558584929,-0.552090025448,0.0239850116625,0.727897176405,-0.405939679753
1470068817259984381,-0.00957811903208,0.00703567964956,0.25053781271,-0.530036855725,0.0201734238098,0.727090039687,-0.435883056259
1470068817338390290,-0.00956375151873,0.00708046648651,0.250586330891,-0.53938227406,0.0213258123061,0.727114789022,-0.424165127922
1470068817418287192,-0.0095315054059,0.0071335346438,0.250537186861,-0.545773994335,0.0227263448707,0.727523453362,-0.415119121657
1470068817490546953,-0.00952160265297,0.00720601063222,0.250545918941,-0.549900173434,0.0234537083869,0.727630115186,-0.409407056967
1470068817568278766,-0.00950769521296,0.00727695645764,0.250592201948,-0.556179992676,0.0244063057276,0.72786212568,-0.400355934124
1470068817645823425,-0.00952304899693,0.0073307743296,0.250629812479,-0.552690551997,0.0236268738267,0.727710634825,-0.405477689312
1470068817722945587,-0.00957106985152,0.00739541091025,0.250590413809,-0.534388462073,0.0207045971786,0.727277016736,-0.430195806797
1470068817799141957,-0.009570710361,0.00749723194167,0.250582426786,-0.535118026845,0.0207838207399,0.72713216582,-0.429529444358
1470068817879986955,-0.00954380445182,0.00759518379346,0.250607311726,-0.546393846484,0.0227175102592,0.72742286063,-0.414479988763
1470068817955151088,-0.00964188110083,0.00788557808846,0.250682651997,-0.513294003353,0.0179505969957,0.726656452052,-0.456264663194
1470068818034062609,-0.00955258496106,0.00826983619481,0.250707089901,-0.549324054115,0.0233512304773,0.727710829938,-0.410042377805
1470068818114235643,-0.00954588130116,0.00820862315595,0.250818252563,-0.543141854435,0.0237419605492,0.728528402744,-0.416748859225
1470068818191453883,-0.0096157733351,0.0083385175094,0.250706493855,-0.522666505024,0.0189244731078,0.726698357976,-0.445388690201
1470068818268305271,-0.00951833091676,0.00877212174237,0.250318109989,-0.537982796589,0.0216901761846,0.727610543005,-0.425072869681
1470068818340864084,-0.00945435930043,0.00894217099994,0.250060200691,-0.547387499015,0.0238699700263,0.728232725059,-0.411672501639
1470068818423471744,-0.00950825214386,0.00905982125551,0.249626860023,-0.511622084499,0.020515416347,0.728954464105,-0.454364775931
1470068818496841974,-0.00955095328391,0.00915225036442,0.248710498214,-0.526697976139,0.0237002062531,0.730209142354,-0.434536707974
1470068818573294419,-0.00955657102168,0.00919631216675,0.248423248529,-0.518617208931,0.0211609693161,0.728929404017,-0.446374649748
1470068818659149292,-0.00953172426671,0.00922621693462,0.248190030456,-0.518024886104,0.0202562777225,0.728226290686,-0.448248112259
1470068818735603179,-0.00945465266705,0.00922778248787,0.247975975275,-0.546564837796,0.0225934604262,0.727403373128,-0.414295481985
1470068818813314265,-0.00943581294268,0.00920774322003,0.247599884868,-0.531342843319,0.0225446839994,0.728577763542,-0.431672286057
1470068818888693018,-0.00945897307247,0.00920835323632,0.247177183628,-0.520271731265,0.022644714881,0.729817848549,-0.442911334777
1470068818963113836,-0.00951253995299,0.00919500458986,0.246558964252,-0.531611177839,0.0234197799368,0.729590281773,-0.429580132509
1470068819036933333,-0.00949002522975,0.00923143792897,0.246198937297,-0.529069830402,0.0223061488172,0.729058556634,-0.433660202558
1470068819110591576,-0.00949521828443,0.0092210303992,0.245998680592,-0.516779985411,0.020148035261,0.728506784429,-0.449233089159
1470068819184371729,-0.00944828987122,0.00919769238681,0.245798572898,-0.525677771186,0.0212023001592,0.728514947112,-0.438724646199
1470068819259027237,-0.00939926411957,0.00922984350473,0.245665863156,-0.54175711548,0.0230561779883,0.728424954938,-0.418765716729
1470068819337871475,-0.00937491282821,0.0092459442094,0.245442301035,-0.535199531994,0.0234887924651,0.729233661563,-0.425708825872
1470068819411065462,-0.00934784673154,0.00930352788419,0.245142802596,-0.535649656633,0.024744411922,0.730089180091,-0.423599986475
1470068819493290933,-0.00945568270981,0.00940287578851,0.244592025876,-0.517635351156,0.021000338448,0.728858152286,-0.447636485181
1470068819570726270,-0.00948298722506,0.0094467997551,0.244296312332,-0.53847197026,0.0222960838183,0.728003816885,-0.423746698501
1470068819660357330,-0.00946540664881,0.00960953067988,0.243995815516,-0.536317047565,0.0214683932553,0.727582705335,-0.427231248247
1470068819737269349,-0.00943100638688,0.00970929209143,0.243779435754,-0.530964288005,0.0215909254829,0.728133881826,-0.432933952165
1470068819824936452,-0.00943371094763,0.00982713047415,0.244051039219,-0.556670141331,0.0238804858904,0.727461634197,-0.400434322848
1470068819902874315,-0.00952681247145,0.00997678004205,0.244549259543,-0.528892739681,0.0232339838481,0.729735858773,-0.432687217662
1470068819974114468,-0.00944792665541,0.0101018864661,0.245135322213,-0.53789898823,0.0246535406757,0.729933851718,-0.421014790131
1470068820046518704,-0.00951124541461,0.0101915029809,0.24434222281,-0.537058359036,0.023004249366,0.72871803607,-0.424274848897
1470068820117165449,-0.0095112239942,0.0101636918262,0.244196549058,-0.536201306842,0.0211713399599,0.727291793929,-0.42788617574
1470068820189386440,-0.00940571166575,0.0102160461247,0.241805508733,-0.530192158329,0.0216070903028,0.728116576173,-0.433907432983
1470068820266758054,-0.00936189107597,0.010265850462,0.240852996707,-0.516323242918,0.0199768837521,0.728116496142,-0.450397159164
1470068820342892494,-0.009376344271,0.0103051885962,0.240452304482,-0.511662881522,0.0209341594397,0.729185881759,-0.453928195295
1470068820417102918,-0.00935313757509,0.0103536443785,0.239660128951,-0.542588159696,0.0239994578458,0.72895783688,-0.416704436061
1470068820491641062,-0.00938720814884,0.0103794373572,0.239408656955,-0.518099037034,0.0198645083734,0.727996982274,-0.448552319056
1470068820568105890,-0.00933903083205,0.0103701995686,0.239185079932,-0.531601574218,0.0206750102601,0.7272823562,-0.43362735684
1470068820643011548,-0.00929461419582,0.0104012563825,0.23904876411,-0.54304530266,0.0225137209159,0.72769377182,-0.418397784511
1470068820717388856,-0.00937346741557,0.0104813557118,0.239513799548,-0.535863997641,0.022214421282,0.72840317845,-0.426362645108
1470068820793774869,-0.0094159943983,0.010570554994,0.239813357592,-0.527928061858,0.0226843721372,0.729508207117,-0.434275438532
1470068820869384671,-0.00941677205265,0.0105738788843,0.239762842655,-0.521837033258,0.0217195774347,0.729311535782,-0.441949153695
1470068820941814636,-0.00936632044613,0.0105631584302,0.239565134048,-0.532213202552,0.0230611163198,0.72941884254,-0.429145015223
1470068821014876263,-0.00929851271212,0.0105684492737,0.239333465695,-0.544651318085,0.0250611366032,0.729635427568,-0.412745713457
1470068821088361771,-0.00924267154187,0.0105671035126,0.238889425993,-0.549615248434,0.0269164023306,0.73036690722,-0.404676125823
1470068821164523785,-0.00922739412636,0.0105442311615,0.238611191511,-0.562748101796,0.0280377539912,0.729721633654,-0.387343253011
1470068821242266499,-0.00932472012937,0.010562133044,0.238253712654,-0.547608535926,0.0246984295729,0.728983962737,-0.409996659778
1470068821315787034,-0.00933967530727,0.0106821237132,0.237856805325,-0.556265257255,0.0252544792435,0.728529789701,-0.398968069357
1470068821389962573,-0.00935753434896,0.0108785899356,0.237486407161,-0.528972483159,0.0215766553453,0.728436931448,-0.434858824112
1470068821461336026,-0.00925921369344,0.0109406402335,0.237210720778,-0.54946846849,0.0250792046784,0.72909855443,-0.407272308849
1470068821532938588,-0.00923070684075,0.0110585466027,0.236785843968,-0.542358730096,0.0256193764715,0.730199099397,-0.414728743491
1470068821606099073,-0.00931299757212,0.0111149474978,0.236393108964,-0.521746813112,0.0218103647548,0.729186504746,-0.442257405018
1470068821677905304,-0.0092788040638,0.011158191599,0.235656052828,-0.557572552843,0.0259118407694,0.728706070565,-0.396773093274
1470068821749212321,-0.00932110659778,0.0112000824884,0.235439658165,-0.539608511779,0.0217980270867,0.727496086024,-0.42319846981
1470068821823398452,-0.00925041362643,0.0112141165882,0.235098540783,-0.548888051668,0.0232971126583,0.727707951125,-0.410634008756
1470068821901044161,-0.00919674988836,0.0112641584128,0.234708204865,-0.550646444067,0.0257171624103,0.729257289095,-0.405352843206
1470068821973943029,-0.00924546644092,0.0112905856222,0.2341991961,-0.552095352187,0.0252540815564,0.728942220427,-0.403975485317
1470068822047293460,-0.00930775143206,0.0113296918571,0.233717724681,-0.527985833548,0.0229900206171,0.72968515609,-0.433891681767
1470068822123259729,-0.00920538511127,0.0113554894924,0.233321994543,-0.552685973906,0.0254578863975,0.729086860991,-0.40289261522
1470068822192194320,-0.00917331781238,0.0114032486454,0.233150392771,-0.560202506351,0.0259817817013,0.7285406174,-0.393353108157
1470068822264103071,-0.00922062620521,0.0115512730554,0.233065664768,-0.548238493075,0.023509706898,0.728080268974,-0.410829612277
1470068822336413327,-0.00919575337321,0.0115730203688,0.233049914241,-0.553938784476,0.0248702586888,0.728467579793,-0.402328570295
1470068822412409013,-0.00920272711664,0.0116111170501,0.233047902584,-0.548670149156,0.0243678705893,0.728625649395,-0.409233353177
1470068822490693322,-0.00917115341872,0.0114215258509,0.233053341508,-0.556126357485,0.0257386497739,0.728750906091,-0.398726865525
1470068822568689444,-0.0091697415337,0.011316685006,0.232995778322,-0.558604705216,0.0260176284,0.728785632916,-0.395164987794
1470068822645660981,-0.00917310547084,0.0113295391202,0.233026355505,-0.557290211038,0.0262630490987,0.729024682444,-0.396561326053
1470068822719787462,-0.00918646156788,0.0113566983491,0.232987359166,-0.551553510486,0.0262893140006,0.729642681227,-0.403384623867
1470068822795377718,-0.00916401576251,0.011302898638,0.232979014516,-0.564565321833,0.0270560439598,0.728883610858,-0.386345246755
1470068822872191818,-0.00919738132507,0.0112521769479,0.232992112637,-0.55423095814,0.0253010077611,0.728690812217,-0.40149421445
1470068822947267250,-0.00921804551035,0.0112179405987,0.232988446951,-0.549283693772,0.0245931343768,0.728746681709,-0.408179954672
1470068823025562964,-0.00925892777741,0.0111593035981,0.23292350769,-0.527086583072,0.0223797855726,0.729063313883,-0.436056835164
1470068823101324804,-0.00923675484955,0.0111058298498,0.232885539532,-0.530751760291,0.0234100103742,0.72953155341,-0.430741515229
1470068823176238261,-0.00922209210694,0.0110418759286,0.232899859548,-0.538312412956,0.0245025094395,0.729585351327,-0.421099261716
1470068823248452271,-0.00916907191277,0.0109673561528,0.232910990715,-0.556297310945,0.0272963069976,0.729782851453,-0.396491113626
1470068823326975713,-0.00919895991683,0.010876359418,0.232913777232,-0.548411350476,0.0257583450901,0.729587919809,-0.40777808376
1470068823400891843,-0.00922002177685,0.0108197117224,0.232868999243,-0.53746332286,0.0244415686583,0.729706717066,-0.421976176306
1470068823475031403,-0.00926517043263,0.0107459845021,0.23293928802,-0.524307913395,0.0219395322128,0.728967992341,-0.439574265648
1470068823553971381,-0.00924475863576,0.0106890434399,0.232916280627,-0.528415006319,0.0234569814783,0.729753240425,-0.433229222473
1470068823630366995,-0.00923029240221,0.01063657552,0.232923030853,-0.537472343534,0.0243734560242,0.729580793987,-0.422186309137
1470068823704580721,-0.00920823123306,0.0106008350849,0.232876941562,-0.539607609014,0.0258557293616,0.730537790954,-0.417695637447
1470068823778140516,-0.00918458588421,0.0105241769925,0.232894986868,-0.550772867641,0.0262203672727,0.729643075473,-0.404453610472
1470068823850796370,-0.00927029829472,0.010337295942,0.232886016369,-0.52273400802,0.0221782162647,0.729269527736,-0.44093450704
1470068823934819109,-0.00922179315239,0.00998841319233,0.232687413692,-0.531648104352,0.024725745638,0.730424546115,-0.428040784359
1470068824010087736,-0.00924312416464,0.00953376665711,0.232531368732,-0.537934948702,0.0243031188766,0.729408674533,-0.421898488851
1470068824085443400,-0.00919905118644,0.00933029968292,0.232451677322,-0.538307015939,0.0256761204901,0.730529097136,-0.419396628105
1470068824159740133,-0.00928217638284,0.00928443111479,0.23210093379,-0.543973389276,0.0244081196853,0.728949299366,-0.414885664257
1470068824231784700,-0.00923189241439,0.00908692087978,0.231727004051,-0.550347519153,0.0258914330445,0.729503589777,-0.405304520527
1470068824304674613,-0.0092092929408,0.00887782871723,0.231388702989,-0.546099328081,0.0245929182095,0.728970021663,-0.412035702047
1470068824376483414,-0.0091993091628,0.00876979809254,0.23106867075,-0.532922366871,0.0234594321958,0.729471137816,-0.428153319528
1470068824447675463,-0.0091953985393,0.00875128153712,0.230691328645,-0.510262672446,0.0231742435554,0.731453100411,-0.45174253889
1470068824524029866,-0.00918651558459,0.00875594094396,0.23014447093,-0.54226794915,0.0261650853303,0.730559726731,-0.414177915048
1470068824597264306,-0.00920174922794,0.00874137878418,0.229691132903,-0.544026205449,0.0251406264353,0.729652739489,-0.413533936266
1470068824673544959,-0.0091900350526,0.00874667987227,0.229486882687,-0.543949232728,0.0239393934949,0.728732513435,-0.415325247867
1470068824746343629,-0.00911741424352,0.00878784246743,0.228892073035,-0.534912779371,0.0247725398,0.730260395785,-0.424233890778
1470068824819895855,-0.00914065446705,0.0087829940021,0.228658631444,-0.53350288974,0.0247164811466,0.730335631452,-0.425879827688
1470068824904880827,-0.00916456803679,0.00878561940044,0.22812910378,-0.537447630033,0.0254199066482,0.730571363394,-0.420439479958
1470068824982636520,-0.00915729720145,0.00878271367401,0.227775126696,-0.549402304303,0.0255920613565,0.72955459003,-0.406512305581
1470068825056207596,-0.00916907470673,0.00877297669649,0.227554306388,-0.534563876525,0.0230343392063,0.72913988569,-0.426691818796
1470068825130246312,-0.00910825747997,0.00880985800177,0.227036580443,-0.528786969289,0.0243655676894,0.730453295708,-0.431542168288
1470068825209024594,-0.00910140015185,0.00879337452352,0.226626694202,-0.537386179033,0.0249387616273,0.729876881809,-0.421750981213
1470068825290706586,-0.00914288684726,0.00879628863186,0.226122900844,-0.541757614663,0.0249613067313,0.729690990795,-0.416445288211
1470068825365954357,-0.00913035217673,0.00880363490433,0.225686475635,-0.541352550841,0.0237468935369,0.728953778585,-0.418329881113
1470068825440191571,-0.00907384138554,0.00883653387427,0.225328490138,-0.541266079415,0.0251493815558,0.729959263401,-0.416602944849
1470068825513491646,-0.00905662309378,0.00885872263461,0.224968567491,-0.533188215771,0.0256711672196,0.731090887239,-0.424920501192
1470068825587188736,-0.00911686290056,0.0088502895087,0.224185541272,-0.539198407176,0.0244591307292,0.729846992569,-0.419511854495
1470068825659763418,-0.00910423789173,0.00883014313877,0.223853871226,-0.541767378653,0.0231598486913,0.728524491671,-0.418573522659
1470068825742197907,-0.00905037578195,0.00886983890086,0.223515510559,-0.532214381457,0.0242607731864,0.730123043054,-0.427878030583
1470068825816005020,-0.00903503224254,0.00891272630543,0.223133951426,-0.517638589555,0.0247722800824,0.731779730078,-0.442645514368
1470068825890396952,-0.00909910537302,0.00891009625047,0.222444668412,-0.525614252042,0.0239548342724,0.730759340766,-0.434909887044
1470068825969427276,-0.00904482416809,0.00892762187868,0.222033157945,-0.539086606557,0.0248494511657,0.730183777654,-0.419046281762
1470068826041733160,-0.00897809676826,0.00891248881817,0.221775457263,-0.557106595178,0.026190539247,0.729147018819,-0.396599195928
1470068826115870645,-0.00899579096586,0.00894689746201,0.221456885338,-0.538160324795,0.0252202633398,0.730228635996,-0.420135147667
1470068826195986384,-0.00904182624072,0.00901460275054,0.220732226968,-0.514049879077,0.023301306006,0.731150091225,-0.447916638518
