%time,field.position.x,field.position.y,field.position.z,field.orientation.x,field.orientation.y,field.orientation.z,field.orientation.w
1470064445216708425,-0.0319079644978,0.284221321344,1.34499573708,-0.0522278936644,0.0108221608749,-0.455652948555,-0.888558112016
1470064445335781895,-0.0318458080292,0.284843683243,1.34790849686,-0.0662268229428,0.0156684927514,-0.457386333481,-0.886660165003
1470064445414744658,-0.0319301486015,0.283721745014,1.34312796593,-0.0476906954145,0.00947738971419,-0.451821651475,-0.89078222474
1470064445498337775,-0.031824786216,0.284760445356,1.34311926365,-0.293537368852,0.0301020850412,0.774144544259,-0.560026697719
1470064445578213836,-0.0319188795984,0.284042865038,1.3439964056,-0.0504061616949,0.0102571902762,-0.455844660908,-0.888571693243
1470064445652306284,-0.0319138132036,0.283482968807,1.33688950539,-0.218549174343,0.0241874616398,0.777688015734,-0.588941911633
1470064445731887938,-0.0319362059236,0.283347189426,1.33594417572,-0.194386192242,0.0214898687372,0.777171622989,-0.598127463196
1470064445813307238,-0.0319588929415,0.283527433872,1.33633780479,-0.164939229378,0.0171169799989,0.775148319412,-0.609628692337
1470064445888726849,-0.0317677035928,0.289760231972,1.36805546284,-0.00424623930467,0.000400313136449,-0.492730792595,-0.870171348201
1470064445968854213,-0.0307810697705,0.282448709011,1.3549734354,-0.349765642443,0.035846389297,0.772959341557,-0.528122038964
1470064446048042536,-0.0295705981553,0.270440816879,1.33372342587,-0.24962254257,0.0323793233512,0.78177391707,-0.570499525197
1470064446124664618,-0.0296247713268,0.26950353384,1.34440565109,-0.172310873065,0.0139637546046,0.763938116937,-0.621701319021
1470064446199161954,-0.0313691869378,0.264557808638,1.36102664471,-0.399619963949,0.0432732817556,0.764742731057,-0.503586996253
1470064446272667397,-0.0298714730889,0.253303080797,1.30974888802,-0.0678897969549,0.0135429178079,-0.477589520184,-0.875851480022
1470064446347246154,-0.028341460973,0.254537075758,1.30786442757,-0.422946036364,0.0361705359897,0.758735844047,-0.494093373371
1470064446424077249,-0.0280069429427,0.243703454733,1.26293671131,-0.213808744652,0.0268764442795,0.782985964628,-0.583520742261
1470064446502870951,-0.0284254904836,0.241415143013,1.26986694336,-0.174941887498,0.0122153408707,0.766867282716,-0.617382128139
1470064446574851774,-0.0280697960407,0.240347102284,1.26407706738,-0.16496884902,0.0151470789848,0.766964131815,-0.619936984991
1470064446649024269,-0.0277996957302,0.238662242889,1.25790667534,-0.36884053373,0.034045726398,0.758957187505,-0.535519875193
1470064446726926036,-0.0267544277012,0.230213671923,1.23332154751,-0.484309032099,0.0571096319513,0.764698549002,-0.421211800072
1470064446800731566,-0.0271606799215,0.222677022219,1.20665383339,-0.332263827532,0.0355212229946,0.776920297286,-0.533604575783
1470064446872931571,-0.0266030635685,0.219521209598,1.19904029369,-0.189367601956,0.0200536027496,0.774376767927,-0.603389083131
1470064446951116631,-0.0266400333494,0.21779845655,1.19946575165,-0.137586677852,0.0122229422647,0.766530994574,-0.627176801323
1470064447029633410,-0.0264094546437,0.212525174022,1.19434273243,-0.381125394353,0.0368575952817,0.759326815157,-0.526125212505
1470064447106673235,-0.0262908898294,0.20974817872,1.19146573544,-0.485453970295,0.042492119981,0.748813047314,-0.44923032248
1470064447182759200,-0.0257398094982,0.206943839788,1.1787058115,-0.354078436279,0.0278255496721,0.758909865547,-0.545811337115
1470064447256735554,-0.0253752730787,0.199097126722,1.14191758633,-0.291359611099,0.0323339508546,0.77512418186,-0.559684371175
1470064447332757565,-0.0252384357154,0.195843994617,1.13935625553,-0.342270987784,0.0288831374895,0.755701648374,-0.557612189551
1470064447415480689,-0.0252004731447,0.194537937641,1.13818073273,-0.381136534234,0.0326575372496,0.753165770973,-0.535172634733
1470064447493267029,-0.0254963859916,0.188336580992,1.11002290249,-0.365472582992,0.0394348076727,0.764906504513,-0.528954370791
1470064447567204724,-0.0257116574794,0.186930194497,1.11374855042,-0.0990334167522,0.00470962411385,0.743726578362,-0.661090749024
1470064447641441770,-0.0256844721735,0.185109481215,1.11371898651,-0.23054230936,0.011512802154,0.740672657699,-0.630968868581
1470064447715357756,-0.0258553232998,0.178639382124,1.08531558514,-0.274518658134,0.0247702338818,0.763728270945,-0.583733732115
1470064447795648473,-0.0251682829112,0.173796668649,1.07250642776,-0.383147754148,0.0289150489269,0.756512347776,-0.52919824839
1470064447868372983,-0.0244983825833,0.170551374555,1.06264531612,-0.364136452343,0.0318369127329,0.758313731381,-0.539769710027
1470064447944929484,-0.024269497022,0.16766770184,1.05665385723,-0.493474210278,0.0454564308595,0.749435371307,-0.439048449397
1470064448023577049,-0.0244583077729,0.16605989635,1.0586848259,-0.554677119486,0.0192624140615,0.722089098409,-0.412976496282
1470064448099106035,-0.0238229483366,0.158217266202,1.02139103413,-0.374894638729,0.031321591839,0.759885430898,-0.530138755088
1470064448178247417,-0.0233830418438,0.15533053875,1.01616096497,-0.303783750979,0.022461019982,0.750443181011,-0.586554317431
1470064448254819200,-0.0231997705996,0.153252482414,1.01215994358,-0.513895330856,0.0438125963121,0.744301205319,-0.424273215144
1470064448326391636,-0.0235529318452,0.148292019963,0.991530239582,-0.378303496551,0.0326069117938,0.756480699213,-0.532503714089
1470064448403246300,-0.0229556839913,0.145545318723,0.981365680695,-0.29723858321,0.0207234631709,0.758582003771,-0.579459322369
1470064448480408377,-0.0223480202258,0.143048197031,0.973193287849,-0.379402949882,0.0306517398102,0.751977699831,-0.538185294693
1470064448562992298,-0.0228006821126,0.138126224279,0.954761505127,-0.269470141742,0.0160085420921,0.7453561598,-0.609568506682
1470064448638573953,-0.0226524379104,0.136378273368,0.95225083828,-0.394447326438,0.0221687355576,0.740634007336,-0.54348976164
1470064448710941937,-0.0221070460975,0.133936971426,0.942421555519,-0.526186933187,0.0299599218074,0.736315888792,-0.424344937924
1470064448783031492,-0.0217143557966,0.131618022919,0.936445593834,-0.401710043968,0.0199819310474,0.740186207193,-0.538845192693
1470064448855802343,-0.021937225014,0.126608654857,0.917452633381,-0.197489012352,0.00900938315327,0.738850072736,-0.644218511869
1470064448933401755,-0.0216805078089,0.124538496137,0.912929773331,-0.437841677113,0.026980348574,0.74249639688,-0.50622705103
1470064449011358342,-0.0214634686708,0.119537681341,0.886014044285,-0.470475657819,0.0444219676657,0.755579917784,-0.453627966544
1470064449089863699,-0.0212526675314,0.117399044335,0.883576154709,-0.426479970052,0.0217701498058,0.739867540184,-0.519843167411
1470064449167976779,-0.0214773137122,0.114385411143,0.86655575037,-0.117262075238,0.00489615929026,0.738885659558,-0.663531171411
1470064449244394394,-0.0212218444794,0.113102421165,0.863169372082,-0.585444217434,0.0327208437286,0.728068401087,-0.355106769856
1470064449320103894,-0.0210379380733,0.111289158463,0.85105830431,-0.536634796358,0.0467749242476,0.747630982274,-0.388436759517
1470064449391819123,-0.0207117795944,0.108614772558,0.835460245609,-0.463852229295,0.0368578809775,0.749748400939,-0.4704890448
1470064449468202665,-0.0208106283098,0.106221236289,0.822552859783,-0.493448174289,0.033823400261,0.741720939981,-0.453006538672
1470064449546221223,-0.0207739882171,0.104805357754,0.818023443222,-0.61052195635,0.0359712392668,0.727092440766,-0.311938444795
1470064449622692913,-0.0205077994615,0.103210955858,0.805473923683,-0.526613338753,0.0470111554731,0.750129968663,-0.397206964721
1470064449694820800,-0.0203524921089,0.10006467253,0.79354673624,-0.44539193094,0.022150741665,0.736231542642,-0.509017178607
1470064449767636421,-0.02049228549,0.0979012921453,0.78228443861,-0.484912911544,0.0182995288045,0.728627650363,-0.483349089778
1470064449847409794,-0.0202822666615,0.0961890891194,0.774265408516,-0.556523265438,0.0192070622018,0.724105048239,-0.40692115072
1470064449930100569,-0.0199211258441,0.0929902046919,0.75446754694,-0.451379470881,0.0321021640041,0.745991109657,-0.488593172943
1470064450007453675,-0.0195990968496,0.0915639102459,0.749983727932,-0.546591402487,0.0363932584816,0.736691640817,-0.396483033451
1470064450085618310,-0.0192068181932,0.0892786979675,0.73768723011,-0.460950216361,0.0274517984908,0.743091267992,-0.484341474819
1470064450163318206,-0.0191420540214,0.0875165462494,0.728598415852,-0.259738754141,0.0123037857805,0.742608593702,-0.617184634459
1470064450235203207,-0.0185251906514,0.0842355266213,0.716310083866,-0.512202482004,0.030695478332,0.739059612121,-0.436459957809
1470064450311963463,-0.0184005685151,0.0814285129309,0.704968869686,-0.597463508555,0.0320281546039,0.727270578049,-0.336287168298
1470064450385326283,-0.0185242537409,0.079203940928,0.692107617855,-0.48798898712,0.0348731065778,0.744173733632,-0.45481432372
1470064450463028285,-0.0187207274139,0.0764439553022,0.680070102215,-0.459491454812,0.020974808914,0.734630219289,-0.498744525035
1470064450536563944,-0.0188249330968,0.0745724216104,0.668808460236,-0.281552030015,0.0117176030498,0.736289101125,-0.615198757913
1470064450619304172,-0.0187198091298,0.0726848915219,0.657881915569,-0.489155247569,0.0344673612132,0.743828219481,-0.45415715858
1470064450698437707,-0.0184671320021,0.0697614997625,0.641695618629,-0.541695489511,0.0411777343462,0.741944040797,-0.392924205366
1470064450772049158,-0.0183604825288,0.0688681229949,0.638918936253,-0.641094481576,0.0287154466013,0.720275393647,-0.263394468671
1470064450843779489,-0.0182155910879,0.0669778436422,0.625461041927,-0.529140710728,0.0360649297328,0.739534485509,-0.414485432599
1470064450914810353,-0.0182462111115,0.065410733223,0.615024983883,-0.428979824008,0.0254995345109,0.741681536428,-0.51500930366
1470064450987165643,-0.0178573578596,0.0627579838037,0.600003182888,-0.487469368597,0.0321156546238,0.741600928283,-0.459750217593
1470064451064871102,-0.0177510119975,0.0613508559763,0.590681672096,-0.469623128528,0.0279806925229,0.740818506968,-0.479436270771
1470064451142463897,-0.0176147054881,0.0601575560868,0.583446741104,-0.52132159337,0.0270794263269,0.735027263641,-0.43269553113
1470064451216278297,-0.0172430779785,0.0588335134089,0.573459267616,-0.525151745793,0.0347809158378,0.73869156291,-0.421118399824
1470064451290821032,-0.0169732272625,0.0566350333393,0.55927324295,-0.585730575669,0.0234611654642,0.724839113176,-0.361908174061
1470064451369533890,-0.0166765023023,0.0553243905306,0.548927903175,-0.577164026706,0.0358445782094,0.732537722799,-0.359145286988
1470064451446183093,-0.0165724121034,0.0541354380548,0.538960576057,-0.502913051196,0.0261137429181,0.734280318293,-0.455224065198
1470064451518542907,-0.0163242556155,0.0528247021139,0.528387844563,-0.428167346326,0.0245861221449,0.741158862582,-0.516480189895
1470064451598075876,-0.0158965345472,0.0509392209351,0.515311479568,-0.440145241443,0.0168135582433,0.730871646214,-0.521359863678
1470064451671364158,-0.0155310062692,0.0498009100556,0.504778206348,-0.535952639302,0.0288741625094,0.732658722907,-0.41848804871
1470064451748705868,-0.0152365956455,0.0487218759954,0.494869351387,-0.550688499869,0.0323304826297,0.733147434958,-0.397733270697
1470064451829412003,-0.0150480279699,0.0477328412235,0.485318660736,-0.514284607614,0.0307887278495,0.737327048772,-0.436935029218
1470064451900901488,-0.0150143429637,0.0466157309711,0.470657855272,-0.296921490867,0.0121172018451,0.737742485316,-0.606157427605
1470064451970713134,-0.0145523548126,0.0457453690469,0.460415363312,-0.525991176032,0.0324063729788,0.737284821577,-0.42272236941
1470064452044706582,-0.0143502103165,0.0447339564562,0.451128453016,-0.511415627264,0.0269903246029,0.734699736825,-0.444906591632
1470064452118451223,-0.0139554953203,0.0427074767649,0.43677598238,-0.56687504599,0.0309209071083,0.731475409699,-0.377677514214
1470064452190069456,-0.0137646915391,0.0417818240821,0.427966713905,-0.617651323867,0.0358611608883,0.727872250482,-0.2956734791
1470064452263466550,-0.0138566093519,0.0413384027779,0.418202757835,-0.337858050169,0.0127328162342,0.736794681185,-0.585511239093
1470064452343987110,-0.0133198713884,0.0403181053698,0.409033030272,-0.521598025519,0.0278347362676,0.734202473073,-0.433713564194
1470064452419276190,-0.013413454406,0.039588175714,0.398873597383,-0.393795410744,0.0162049059282,0.734864138129,-0.551939556468
1470064452498481272,-0.0129355415702,0.0389581620693,0.385651439428,-0.437365299767,0.0184404064604,0.733481835686,-0.519976867454
1470064452574189801,-0.0127436043695,0.0382072292268,0.375478446484,-0.408235568554,0.0185452163111,0.736366006065,-0.539226205439
1470064452650777691,-0.0126403979957,0.0375488847494,0.365557849407,-0.33778783332,0.0133348814386,0.737441142679,-0.584723970504
1470064452729472501,-0.0124089438468,0.0366494506598,0.355831861496,-0.4460839848,0.0189783702547,0.733343399469,-0.512695190559
1470064452803415299,-0.0119570232928,0.0356839485466,0.341501623392,-0.490693373085,0.0240029481787,0.734302369077,-0.468448399355
1470064452872679407,-0.0117566455156,0.0351143330336,0.332322865725,-0.436909690841,0.0188597721498,0.733700621463,-0.520036180577
1470064452943571089,-0.0113838994876,0.034403771162,0.323223739862,-0.514290668339,0.0234569847446,0.731718660705,-0.446702003468
1470064453015616895,-0.0112307080999,0.0335326604545,0.308899909258,-0.48675111328,0.020085751813,0.731179162725,-0.477542614111
1470064453088766141,-0.0110505754128,0.0330379009247,0.299015074968,-0.454145498422,0.0210453479174,0.734747612944,-0.503443050272
1470064453165704345,-0.0108278980479,0.0327418707311,0.291035711765,-0.515218365036,0.0205601324806,0.728909479995,-0.450353513648
1470064453240754417,-0.010819317773,0.0326103158295,0.283648848534,-0.466569807612,0.0191906431507,0.732066907701,-0.49600642787
1470064453315252879,-0.010525858961,0.0327138192952,0.279490083456,-0.543682048423,0.0246925017983,0.729411233813,-0.414438611334
1470064453387801720,-0.0106018641964,0.0329831503332,0.277303755283,-0.527090474109,0.0244423900393,0.731044416656,-0.432610982927
1470064453465594292,-0.0104893241078,0.033472251147,0.279218018055,-0.546859619931,0.024505512492,0.728925167887,-0.41111085557
1470064453541974136,-0.0104018477723,0.033965356648,0.278694182634,-0.550249788863,0.0254429588424,0.729278848984,-0.405869666428
1470064453614745466,-0.0105474367738,0.0340965799987,0.277265518904,-0.524863763554,0.025921611722,0.732371457256,-0.432987469047
1470064453689880433,-0.0105804856867,0.0341047160327,0.277444094419,-0.535520403498,0.0257143604207,0.731070875358,-0.422009531065
1470064453762948272,-0.010571597144,0.0340439416468,0.27728843689,-0.533687186763,0.0254513532815,0.730739590079,-0.424911598797
1470064453838620904,-0.0105248484761,0.0336515307426,0.277201294899,-0.53915910114,0.0269730060025,0.731659235748,-0.416238733602
1470064453914085384,-0.010556910187,0.0333600603044,0.277186632156,-0.540157664519,0.0246838326434,0.72998715825,-0.418018127187
1470064453989562952,-0.0105508482084,0.0328288562596,0.277170032263,-0.53087700768,0.0242125800678,0.730481744509,-0.428928635815
1470064454062330366,-0.0105194058269,0.0322654619813,0.277108550072,-0.530774174775,0.0257445111779,0.731502007862,-0.42722454053
1470064454136112708,-0.0105200950056,0.0317126847804,0.277036398649,-0.526225546713,0.025496177706,0.731523368667,-0.432793461138
1470064454211289756,-0.0104932803661,0.0311744008213,0.276943922043,-0.528674253709,0.0258820038089,0.731575822206,-0.429686480712
1470064454286318644,-0.0104788830504,0.0301994457841,0.276914745569,-0.527774291594,0.0258644448349,0.73171195656,-0.430561192228
1470064454361875542,-0.0104644512758,0.0295854043216,0.277008771896,-0.537361426573,0.0260680935286,0.731191445289,-0.419430831089
1470064454433405665,-0.0104709658772,0.0289607159793,0.277017891407,-0.530949236023,0.0254116129194,0.731050662323,-0.427799120865
1470064454503415187,-0.010399049148,0.0282906107605,0.277105689049,-0.548921736531,0.0267903645511,0.730246015612,-0.405842284902
1470064454587619612,-0.0103551503271,0.0272984895855,0.277346581221,-0.561137294009,0.0263948311045,0.728729371103,-0.391639826698
1470064454669993002,-0.0103348176926,0.0266575179994,0.27742099762,-0.566315728716,0.0256565881822,0.727913346881,-0.385707653961
1470064454751975034,-0.0103100016713,0.0259752292186,0.277487277985,-0.563717399488,0.025783144016,0.727935688557,-0.389445190398
1470064454824729999,-0.0102285034955,0.0253483913839,0.277524262667,-0.594044526966,0.029008903613,0.72691376886,-0.343316116916
1470064454901256140,-0.0103110074997,0.0247352775186,0.277543216944,-0.542608668585,0.0236234181745,0.728558334316,-0.41739731718
1470064454975602724,-0.0102789672092,0.0237670280039,0.277702927589,-0.564502378677,0.0241435295735,0.726912140891,-0.390324088256
1470064455055315640,-0.0102264387533,0.023226717487,0.277551203966,-0.567126928856,0.0265795944838,0.72830762001,-0.383703769018
1470064455131304159,-0.0102129047737,0.022414913401,0.277600705624,-0.563537759873,0.0260119801874,0.72829628423,-0.389015542697
1470064455209114686,-0.0102861560881,0.0218229163438,0.277653425932,-0.531432578553,0.0220903640755,0.728344835528,-0.431978275874
1470064455283479604,-0.0102344453335,0.0212887637317,0.277605831623,-0.550867048106,0.0239676997172,0.727984604415,-0.407442585422
1470064455359476250,-0.0102454414591,0.0207966119051,0.277595818043,-0.542243541158,0.0228987979761,0.727877937353,-0.419095806993
1470064455444713348,-0.0101678967476,0.0201146788895,0.277576237917,-0.55027979415,0.0271688814291,0.730381887403,-0.403728000745
1470064455523529393,-0.0101700387895,0.0196769367903,0.277554750443,-0.557436821663,0.0271796250835,0.729496199706,-0.395424774704
1470064455595540165,-0.0102302590385,0.0189409330487,0.277526855469,-0.532248557016,0.0232226331955,0.729098520508,-0.429636509452
1470064455669806323,-0.0102011105046,0.0185493994504,0.277559459209,-0.539243619339,0.0246440691212,0.729758088723,-0.419597570062
1470064455750481973,-0.0101709738374,0.0181215405464,0.277455747128,-0.545029673185,0.0265013748494,0.730428792835,-0.410748233199
1470064455824049794,-0.0101458756253,0.0177709180862,0.277484089136,-0.561584897268,0.0282134392427,0.729794392088,-0.388878580386
1470064455895883824,-0.0101298633963,0.0173020493239,0.277447104454,-0.552277168422,0.0289287445337,0.731401571134,-0.399004760275
1470064455968305275,-0.0101803131402,0.0169233009219,0.277382075787,-0.537153401297,0.0255256644167,0.730435877465,-0.421044050952
1470064456047721772,-0.0102039668709,0.0166011173278,0.277506947517,-0.537914286428,0.0246581566796,0.729737897552,-0.421334542427
1470064456130351145,-0.0102126309648,0.0161719415337,0.27750146389,-0.532497153866,0.0252999970668,0.73062453624,-0.426608108592
1470064456208387588,-0.0101512139663,0.0158514454961,0.277347624302,-0.551680130728,0.0280177901897,0.730784141688,-0.401021913429
1470064456281205531,-0.0102391438559,0.015568761155,0.277398467064,-0.511463678297,0.022490700918,0.730335727867,-0.452226490552
1470064456353841077,-0.0101584009826,0.0153907798231,0.277386695147,-0.541603845903,0.0275638478966,0.73150925963,-0.41327921732
1470064456425946710,-0.0101727843285,0.0149155855179,0.277432888746,-0.54311085814,0.0265637045822,0.730648884273,-0.412888814669
1470064456498561528,-0.0102003337815,0.0146935842931,0.277440220118,-0.530601388331,0.0248050835622,0.73049673483,-0.429210199009
1470064456569451879,-0.0101653579623,0.01447704155,0.277394294739,-0.54416811724,0.0273852397216,0.731090848995,-0.410654695992
1470064456640944171,-0.0102209160104,0.0141503252089,0.277391970158,-0.52197337099,0.0237586871742,0.730380384327,-0.439913422109
1470064456712398043,-0.0101691978052,0.0139491232112,0.277328819036,-0.534626390866,0.0266510937954,0.731583058039,-0.422197312378
1470064456789836228,-0.0102057913318,0.0137385614216,0.27735722065,-0.52040928474,0.0248922651756,0.731461656544,-0.439907258972
1470064456868281214,-0.0102138090879,0.0136132780463,0.277299851179,-0.517633450378,0.0235055564294,0.730809035954,-0.444321114549
1470064456941734747,-0.0101741170511,0.0134049523622,0.277399092913,-0.53413466453,0.0264631954871,0.731499809877,-0.422975043686
1470064457026070795,-0.0102083077654,0.0132344951853,0.277304917574,-0.511211033003,0.0241648571465,0.731831551741,-0.45000213254
1470064457101969712,-0.0101874750108,0.0130417924374,0.277265757322,-0.519661221073,0.0250880375642,0.731944990087,-0.439976518886
1470064457180446095,-0.0101825008169,0.0128534780815,0.277198582888,-0.516813106494,0.0259599930461,0.732963180155,-0.441582685637
1470064457257171861,-0.0102381668985,0.0127342538908,0.27723929286,-0.493977720899,0.0232995986913,0.732690431232,-0.467555207368
1470064457333056004,-0.0102606462315,0.0126540008932,0.277208715677,-0.486129084113,0.0218279720326,0.73233342661,-0.476329513558
1470064457405828051,-0.010233852081,0.0124249085784,0.277222573757,-0.502762352345,0.0247769256398,0.733245419725,-0.457129385921
1470064457483069963,-0.0102471094579,0.0123097337782,0.277071386576,-0.482633567238,0.0239312344479,0.734433100893,-0.476550266085
1470064457559994382,-0.010304520838,0.0122334994376,0.277093023062,-0.501103754988,0.0235347035825,0.732290797794,-0.460533746788
1470064457635148335,-0.0103576742113,0.0121254632249,0.276782125235,-0.493776135254,0.0228395972461,0.732509869809,-0.468073468255
1470064457707136294,-0.0104274759069,0.0121302483603,0.276637136936,-0.493403679532,0.0223608687592,0.732508524464,-0.468491261562
1470064457785176544,-0.0104082338512,0.0121391201392,0.276468634605,-0.511926345006,0.0239500470461,0.732026983418,-0.448881173679
1470064457862575863,-0.010387474671,0.0121548306197,0.276423275471,-0.523424652915,0.0247817659113,0.731472569576,-0.436303079014
1470064457946891620,-0.0103998826817,0.0122371325269,0.276410728693,-0.515149248765,0.024414431269,0.731875121607,-0.445403180743
1470064458025279625,-0.0103892525658,0.0123861320317,0.276398032904,-0.525513845103,0.0257040317397,0.731680049423,-0.433380671735
1470064458103927590,-0.0104275587946,0.0125446906313,0.276465624571,-0.526278056784,0.0235110320071,0.730109238915,-0.43522308943
1470064458178681889,-0.0104165449739,0.0127902515233,0.276477396488,-0.516600082538,0.0250772563166,0.732180835921,-0.443177965888
1470064458249907958,-0.0104416534305,0.0129544883966,0.276523023844,-0.529083400686,0.0236462398485,0.729935654248,-0.432094377557
1470064458329214656,-0.0104291820899,0.0131604364142,0.276524543762,-0.523633841319,0.0248198821206,0.731395264266,-0.436179482653
1470064458404656417,-0.0104247489944,0.0132755301893,0.276517689228,-0.529311551008,0.025325678382,0.731056376263,-0.429819109288
1470064458476050715,-0.010455568321,0.0134683549404,0.276454925537,-0.514371477938,0.0226451454369,0.730728728151,-0.448268564509
1470064458550703144,-0.0104346806183,0.0136817339808,0.276534557343,-0.512544193644,0.0241973795814,0.731899381212,-0.448370641506
1470064458623177847,-0.0104389563203,0.0137503892183,0.276495993137,-0.517937425117,0.0244835484083,0.731480129597,-0.442807180977
1470064458693685792,-0.0104129612446,0.0138341896236,0.276441156864,-0.525148645368,0.0246522209496,0.731076417225,-0.434900494882
1470064458765348577,-0.010458660312,0.0139106214046,0.276501595974,-0.510091816224,0.0211419255559,0.729744280255,-0.454788570041
1470064458840199368,-0.0104758152738,0.0143756149337,0.276485681534,-0.512323876841,0.0211074925394,0.72955697397,-0.452576336885
1470064458917128570,-0.0104302754626,0.0145853767172,0.276532769203,-0.524781827083,0.0250250454282,0.73144630378,-0.434699995114
1470064458989448400,-0.010452227667,0.0145718893036,0.27663320303,-0.530036077671,0.0245005362087,0.730458692277,-0.429990207993
1470064459065234082,-0.0104537149891,0.0145211769268,0.276613116264,-0.536439398814,0.0252306717141,0.730567617551,-0.421742979539
1470064459138361998,-0.0104491580278,0.0145437736064,0.276581913233,-0.527753743662,0.0246296533469,0.730935981643,-0.431974486476
1470064459209119708,-0.0104586016387,0.0144685832784,0.276545852423,-0.532915761886,0.0242776392803,0.73019816822,-0.42687471475
1470064459285984647,-0.0104547301307,0.0144107723609,0.276521444321,-0.533577352817,0.0239957829714,0.729978814001,-0.426439142281
1470064459361605333,-0.0104428203776,0.0143626574427,0.276496380568,-0.54512885979,0.0249796633874,0.729369027495,-0.412591037678
1470064459436627448,-0.0104027045891,0.0142669584602,0.276504099369,-0.53466087263,0.0271890499686,0.732096096521,-0.421228930985
1470064459509048156,-0.0104053840041,0.0142225986347,0.276431262493,-0.543867751698,0.0265550712425,0.730330117033,-0.412456806233
1470064459588888662,-0.0104125821963,0.0143183832988,0.276458442211,-0.542724233383,0.0257575174287,0.730178672983,-0.41427775986
1470064459664325815,-0.0104263825342,0.0145266996697,0.276530057192,-0.540833758956,0.0248830556114,0.72967031157,-0.417685186631
1470064459736642246,-0.0104373274371,0.014592692256,0.276552170515,-0.525259914554,0.0245333096625,0.730953486534,-0.434979470094
1470064459809471224,-0.0104369018227,0.0146222608164,0.27653002739,-0.52842378612,0.0245980489884,0.730612629566,-0.431704092831
1470064459887380222,-0.0104213394225,0.0145424036309,0.276494055986,-0.533222329467,0.024656471529,0.730268343555,-0.426349800247
1470064459960894524,-0.0104299318045,0.0144633604214,0.276513785124,-0.541545323504,0.0242815928665,0.729241527323,-0.417547436426
1470064460042280722,-0.010432086885,0.0144168967381,0.276430875063,-0.532899103451,0.0234206138611,0.729450733256,-0.428219159006
1470064460117827888,-0.0103898700327,0.0142484456301,0.276431441307,-0.55314167251,0.0266870191113,0.729474359672,-0.401483812531
1470064460190400371,-0.0104172993451,0.0141134830192,0.276495933533,-0.528371295656,0.0244925495448,0.730476585874,-0.432004451868
1470064460262510487,-0.010418202728,0.014027280733,0.276507377625,-0.537394114393,0.0246845357464,0.729895526073,-0.421723559372
1470064460337010826,-0.0104394452646,0.0138839324936,0.276427537203,-0.534142128183,0.0226723655527,0.728561177263,-0.428225129723
1470064460408858655,-0.0104135638103,0.0137301757932,0.276444137096,-0.530953273682,0.0250143705614,0.730508628065,-0.428742401396
1470064460482027824,-0.0104082133621,0.0135417785496,0.276473492384,-0.53887154949,0.024730852435,0.729797504353,-0.42000171515
1470064460560311246,-0.0104392888024,0.0134411621839,0.276431500912,-0.524086864644,0.0222955858091,0.729351432324,-0.439183735272
1470064460636995715,-0.010405764915,0.0132725313306,0.276369422674,-0.52581878828,0.0247000764963,0.730775160827,-0.434594261848
1470064460710210704,-0.0104158585891,0.0131123196334,0.276493251324,-0.540068417732,0.0247753893648,0.729582986225,-0.418832843103
1470064460780917870,-0.0103924470022,0.0130325388163,0.276368409395,-0.538224315978,0.0249714282782,0.730160278748,-0.420186840344
1470064460853877157,-0.0104125896469,0.0128333112225,0.276436001062,-0.529059739849,0.024408728044,0.730305711722,-0.431455180863
1470064460925342675,-0.0103933438659,0.0126809682697,0.276395112276,-0.530442818955,0.0252760147025,0.730969131646,-0.428573993005
1470064460996703540,-0.0104292789474,0.0125253740698,0.276463985443,-0.535267497972,0.0236961639716,0.729289645778,-0.425515933884
1470064461077734679,-0.0104166939855,0.012385295704,0.27639362216,-0.5255559957,0.023856241625,0.730235028982,-0.435865320446
1470064461150167749,-0.0104108825326,0.0122516490519,0.276443958282,-0.523867216301,0.0244253083006,0.730876391562,-0.436790847267
1470064461227287149,-0.0104000456631,0.012121103704,0.276462674141,-0.539855386577,0.0250681397253,0.729893608832,-0.418548766263
1470064461305970017,-0.0104214493185,0.0120462179184,0.27642968297,-0.527237014689,0.0233097941219,0.729842146118,-0.434520684881
1470064461382561307,-0.0104462532327,0.0119552807882,0.276338845491,-0.512796408307,0.0214737970485,0.729646395731,-0.451879250314
1470064461457193769,-0.0104071684182,0.0117946499959,0.276409119368,-0.518281783363,0.0244008437834,0.731511513884,-0.442356752986
1470064461537645608,-0.0103818941861,0.0116680152714,0.276413351297,-0.536947564232,0.0258054824681,0.730828685574,-0.420607682624
1470064461609496450,-0.010401673615,0.0115880826488,0.276355922222,-0.528769826137,0.0241889805,0.730438489193,-0.431598166927
1470064461685356070,-0.0104419589043,0.0114812301472,0.276317000389,-0.517551307316,0.0219721350579,0.72959731247,-0.446481389548
1470064461762777542,-0.0104230651632,0.0113380001858,0.276419937611,-0.52090185105,0.023622442734,0.730435869739,-0.441097134394
1470064461836395123,-0.010386669077,0.0112660452724,0.276369154453,-0.527573525114,0.0251444762263,0.731216444837,-0.431690214986
1470064461908953672,-0.0103736743331,0.0111825922504,0.276387661695,-0.542573900837,0.0260404080089,0.730380108832,-0.414101866579
1470064461981790474,-0.0104063749313,0.0111008854583,0.276377886534,-0.531519941959,0.0241411247587,0.730030383314,-0.42890488087
1470064462053805261,-0.0104587804526,0.0110097667202,0.276327759027,-0.498357395538,0.0203544849863,0.729934605313,-0.467355403543
1470064462125382476,-0.010481457226,0.0109535930678,0.276399344206,-0.482850666081,0.0192581392155,0.730196193139,-0.483009190248
1470064462196609549,-0.0104255219921,0.0109526468441,0.276320636272,-0.507984249519,0.0225703635885,0.730773637489,-0.455425594009
1470064462270397450,-0.010412953794,0.0108615690842,0.276385754347,-0.523373795367,0.0236952708947,0.730298685519,-0.43838594228
1470064462348355773,-0.0103709232062,0.0106983473524,0.276371389627,-0.541967244458,0.026073371171,0.730460511734,-0.414751884924
1470064462423215144,-0.0103846685961,0.0106758736074,0.276398420334,-0.534661413275,0.0253556947853,0.730752860268,-0.423667934953
1470064462498962847,-0.0103740179911,0.0107635753229,0.276340574026,-0.538164938718,0.0255296726811,0.730419337157,-0.419778901869
1470064462575601555,-0.010443485342,0.0109435208142,0.276305198669,-0.502653471284,0.0207569265344,0.729931840726,-0.462718214145
1470064462650750114,-0.0104062147439,0.0108657293022,0.276338815689,-0.522210472012,0.0240982561791,0.730791807897,-0.43892918618
1470064462724746828,-0.0104384627193,0.0105683030561,0.276344299316,-0.519361456246,0.0226980145812,0.729956344368,-0.443747916296
1470064462801825780,-0.0104897031561,0.010453209281,0.276409357786,-0.502800628152,0.0199850364707,0.728928140373,-0.464172266319
1470064462876137720,-0.0104798423126,0.0105287143961,0.276451706886,-0.509110275653,0.0205073288969,0.729111427611,-0.456927459027
1470064462949932559,-0.0103788878769,0.0107313534245,0.276393175125,-0.544659526424,0.0263726617128,0.730448321442,-0.411212515243
1470064463023515262,-0.0104306964204,0.0113410642371,0.27631059289,-0.529492900808,0.0226497188174,0.728891660638,-0.433406512737
1470064463097311201,-0.0103740738705,0.011566516012,0.276255786419,-0.549732790225,0.0257147256107,0.729423574876,-0.406292826239
1470064463172518596,-0.0103823337704,0.0115900207311,0.276305139065,-0.547239356513,0.0257431139553,0.729729638508,-0.409097828704
1470064463249070681,-0.0103607056662,0.0115605415776,0.276176512241,-0.552405574963,0.0260746784323,0.729362244897,-0.40273925512
1470064463326893337,-0.0103730810806,0.0113694667816,0.275853097439,-0.532600490224,0.0229171408387,0.729016076587,-0.429356591363
1470064463406626552,-0.0103590292856,0.0113721378148,0.275804668665,-0.54179381902,0.0238310811157,0.728841082497,-0.41795001341
1470064463481209780,-0.010330052115,0.0114290062338,0.275755286217,-0.545884758629,0.0252602104455,0.729423219885,-0.411477239172
1470064463565082045,-0.010383317247,0.0116196041927,0.275661349297,-0.517644662746,0.0210162301773,0.729033969793,-0.447338565393
1470064463644189813,-0.0103734852746,0.0121097238734,0.275765687227,-0.531505778212,0.0220065281283,0.728668081707,-0.431346898852
1470064463722523747,-0.0103078763932,0.0123755848035,0.275593727827,-0.557066876286,0.0262242095739,0.729011617005,-0.396901560149
1470064463803296285,-0.0103488620371,0.0124399345368,0.275739312172,-0.566915338234,0.0255223562091,0.7274730245,-0.385666445564
1470064463875465173,-0.0103642828763,0.012470735237,0.275709301233,-0.565156546385,0.0249484774905,0.727314933495,-0.38857256602
1470064463954407770,-0.0103539470583,0.012511851266,0.275704085827,-0.566041385144,0.0253921602194,0.727553799434,-0.386804676074
1470064464029959509,-0.0103661194444,0.0124750798568,0.275731414557,-0.57508302583,0.0253522321252,0.726612928138,-0.375060568963
1470064464103126043,-0.0103590255603,0.0123164672405,0.275758296251,-0.589097182826,0.0263379982725,0.725760168342,-0.354320472286
1470064464178202710,-0.0103726675734,0.0123055055737,0.275775760412,-0.571599296279,0.0253887277175,0.726997976316,-0.379609798912
1470064464249991588,-0.0103571843356,0.0122788399458,0.275725245476,-0.570762129488,0.025186536673,0.727056067522,-0.380769884041
1470064464326693206,-0.0103684747592,0.0122005781159,0.275682330132,-0.591694649327,0.0252863744687,0.725106178049,-0.351395890386
1470064464401314680,-0.0103662116453,0.0121762268245,0.275666713715,-0.57552298464,0.0244500768286,0.726149318139,-0.375343383663
1470064464476121755,-0.0103367120028,0.0120656052604,0.275700539351,-0.5880099804,0.0270331667253,0.726390015562,-0.354783055035
1470064464555744728,-0.0103655569255,0.0119269751012,0.275707840919,-0.57844811779,0.0256160867171,0.726433498858,-0.370183688002
1470064464631311432,-0.0103563247249,0.0118505368009,0.27572876215,-0.585730202236,0.0264077074595,0.726147416306,-0.35907198856
1470064464704554775,-0.0103486832231,0.0117770917714,0.275672614574,-0.586672941624,0.0260593624733,0.726015433237,-0.357823084633
1470064464778993042,-0.0103973448277,0.0117272213101,0.275742083788,-0.560172594766,0.0229000459316,0.726532446053,-0.397281835479
1470064464855637411,-0.0104117812589,0.0116423275322,0.2757178545,-0.565747553324,0.0224731336109,0.725793677196,-0.390702191336
1470064464930929816,-0.01038202364,0.0115096019581,0.275724887848,-0.563833470104,0.024225106661,0.727013991619,-0.391095408037
1470064465004516699,-0.0103385467082,0.0114338938147,0.275683194399,-0.5780067013,0.026765727503,0.727113786097,-0.369455533388
1470064465076145658,-0.0103299636394,0.0113947270438,0.275651663542,-0.580131584568,0.0271248351542,0.727210300902,-0.365891741047
1470064465149796122,-0.0103748496622,0.0112549755722,0.275691241026,-0.575750818372,0.0243171627581,0.725992169785,-0.375306594866
1470064465226429511,-0.0103642120957,0.0111866621301,0.275529325008,-0.570666911833,0.0241645424617,0.726373444256,-0.38227865505
1470064465301579822,-0.0103668160737,0.0110790049657,0.275650084019,-0.576249616236,0.0253341345197,0.726467097238,-0.373550690063
1470064465375738582,-0.0103403981775,0.0110274087638,0.275671064854,-0.555509454763,0.0256965751846,0.728611565164,-0.399842617542
1470064465448028589,-0.0103467488661,0.0109518356621,0.275685608387,-0.57461951544,0.0262595417559,0.727148010865,-0.374671348301
1470064465523696433,-0.010340618901,0.010865134187,0.275673121214,-0.576034561751,0.0264458559742,0.727211821218,-0.372354357368
1470064465603055509,-0.0103679122403,0.0108128236607,0.275747001171,-0.567935713889,0.0246703557234,0.726936603932,-0.385231842273
1470064465679412336,-0.0104039115831,0.0107488697395,0.275712132454,-0.557640721906,0.0222765171835,0.726344255089,-0.401203944588
1470064465754341349,-0.0104130543768,0.0106733730063,0.275718003511,-0.551780064784,0.0217542077601,0.72644248349,-0.409080472196
1470064465830753849,-0.0103652970865,0.0105497175828,0.27571156621,-0.561750943075,0.0248335273829,0.727478988627,-0.393183792874
1470064465903987348,-0.0103462217376,0.0105091631413,0.275713145733,-0.564345582752,0.025712288863,0.727773386901,-0.388842948694
1470064465976026316,-0.0103846592829,0.0103100677952,0.27576109767,-0.555738791095,0.0234362818789,0.727284281439,-0.402073016671
1470064466049026870,-0.0103551251814,0.00960012804717,0.2758256495,-0.55499361053,0.0258927508992,0.728663024319,-0.400452062938
1470064466126230925,-0.0103602278978,0.00911145564169,0.275860905647,-0.552862267665,0.0260858560655,0.729072186194,-0.402637043036
1470064466205236114,-0.0103537198156,0.00880875252187,0.275799036026,-0.541190464212,0.0245509949362,0.729430454592,-0.4176617555
1470064466278887639,-0.0102859893814,0.0085323639214,0.275538921356,-0.564373778661,0.0275323432846,0.729142488483,-0.386102887223
1470064466357399642,-0.0103096095845,0.00822430104017,0.275196492672,-0.547063497023,0.0259846314628,0.729862766114,-0.409080275489
1470064466434546801,-0.0103700868785,0.00802543573081,0.274325102568,-0.521583785625,0.0260879691234,0.732639889751,-0.43647286787
1470064466513946449,-0.010403463617,0.00788845680654,0.273849606514,-0.516463787868,0.0253610791786,0.732536363125,-0.442732930991
1470064466589956595,-0.0103511232883,0.00782690197229,0.273612618446,-0.532626832582,0.0264157338575,0.731855177826,-0.424262730991
1470064466669511443,-0.0102754626423,0.00776590732858,0.273203194141,-0.546264950175,0.0273383105575,0.731024067188,-0.407984110203
1470064466744652794,-0.0102424174547,0.00774315232411,0.272936016321,-0.546506834143,0.0269268733868,0.730618771129,-0.408413313934
1470064466817477456,-0.0102483639494,0.00769266532734,0.272744745016,-0.55176122538,0.0248623085566,0.728414962521,-0.40540480776
1470064466890119608,-0.0102740097791,0.00770303141326,0.27215257287,-0.516984522132,0.0211362198482,0.728861402945,-0.448376314476
1470064466964474471,-0.0103290956467,0.00772288814187,0.271510899067,-0.510455437438,0.0210418354088,0.729499554713,-0.454777843817
1470064467042343500,-0.0103570092469,0.00769861228764,0.270923018456,-0.516451621831,0.0225400590488,0.730331097483,-0.446526769741
1470064467115474699,-0.010337902233,0.00753376120701,0.267929017544,-0.469860680439,0.017060115163,0.729588052588,-0.49662980878
1470064467192454204,-0.0101325325668,0.00745563348755,0.267074108124,-0.531602288287,0.0234419456266,0.729357060938,-0.429985767127
1470064467266948592,-0.0101553229615,0.00747536076233,0.267145574093,-0.526390155981,0.0227634975363,0.72922662737,-0.436604801624
1470064467345379103,-0.0101155871525,0.00750999897718,0.267149329185,-0.54116628266,0.0251976148066,0.729943498092,-0.416757272658
1470064467419775205,-0.0100930351764,0.00751690706238,0.267020195723,-0.53966986701,0.0254107659894,0.730198086319,-0.418236156196
1470064467496562492,-0.0100594460964,0.00753553537652,0.266680717468,-0.538239934398,0.0245997188906,0.729739699623,-0.420918754207
1470064467570358808,-0.0100531205535,0.00747035630047,0.266377270222,-0.527763442142,0.024551306116,0.730590789853,-0.432550667887
1470064467643834543,-0.0100367683917,0.00736243044958,0.26615357399,-0.528363001901,0.025141392601,0.731085480768,-0.430946015656
1470064467726229004,-0.00998206436634,0.00697994744405,0.266003638506,-0.530680910324,0.0260864569762,0.731588688287,-0.427171229544
1470064467804206292,-0.00997480098158,0.00687102088705,0.266047269106,-0.543752551765,0.0257053184798,0.729876615855,-0.413464054881
1470064467881730275,-0.00996355805546,0.00693734968081,0.265881419182,-0.541670154411,0.0258084505846,0.730133164282,-0.4157318007
1470064467954214148,-0.0100067034364,0.00732436357066,0.265514343977,-0.537707728833,0.0252290742843,0.730120607439,-0.42090116507
1470064468028666126,-0.0100995395333,0.00775848748162,0.26495501399,-0.530990060381,0.0243902073944,0.730279772631,-0.429122508435
1470064468101434996,-0.0101357996464,0.00822215899825,0.264606624842,-0.505436139717,0.0194793119585,0.728802378436,-0.4615213519
1470064468176649754,-0.00999774225056,0.00847319234163,0.264292001724,-0.548421192534,0.0254764444888,0.72944223768,-0.408043096063
1470064468254254185,-0.00998447835445,0.00873943418264,0.263940483332,-0.534783561009,0.0237106626439,0.729401219827,-0.425932163456
1470064468328175485,-0.00995356496423,0.00884418748319,0.263704389334,-0.53475081536,0.0234728341069,0.729184272809,-0.426357699379
1470064468405968854,-0.00999271590263,0.0088669937104,0.263425886631,-0.522622753635,0.0216958515634,0.728963558559,-0.44159583071
1470064468489091996,-0.0100015159696,0.00884965248406,0.263140678406,-0.52901092728,0.0210819003558,0.727858072876,-0.435804564049
1470064468565739082,-0.0100881801918,0.00886394549161,0.262643128633,-0.518501754138,0.0194784615551,0.727465420051,-0.448966126919
1470064468640019433,-0.0101065831259,0.0088553680107,0.262235611677,-0.509619692158,0.0199795644787,0.728336124246,-0.457618920595
1470064468714225854,-0.0100762387738,0.00886321906,0.262155145407,-0.517969181029,0.0209696390357,0.728463771382,-0.447893665424
1470064468786896931,-0.0100016733631,0.00896651949733,0.262020140886,-0.541997291247,0.0240475322462,0.728825117556,-0.417701568698
1470064468863506709,-0.0100447991863,0.00922010932118,0.261948615313,-0.53508582718,0.0215971484371,0.727660793089,-0.428633282576
1470064468936981473,-0.0101021109149,0.00936863385141,0.262789696455,-0.534673503679,0.0224844006529,0.728733656158,-0.427277374282
1470064469011640246,-0.0100192259997,0.00940729957074,0.263735204935,-0.532907957415,0.0210827810597,0.727851069402,-0.431042278711
1470064469084536102,-0.0100030694157,0.00943882018328,0.263158500195,-0.550706170544,0.0226987491436,0.727203082881,-0.409124866954
1470064469155065516,-0.0100538115948,0.00946487113833,0.262539535761,-0.533643253467,0.0236107138517,0.729426400561,-0.427322522675
1470064469236796286,-0.0100455135107,0.00943753588945,0.262378424406,-0.539555229344,0.0238251248957,0.729022391277,-0.420522140831
1470064469310042108,-0.0100903008133,0.00932208821177,0.262221366167,-0.510390229633,0.0206925948643,0.729106118007,-0.45549741898
1470064469386175121,-0.00999495945871,0.00909156445414,0.262135177851,-0.537683876793,0.0246016403354,0.729827763692,-0.421476266561
1470064469472510687,-0.0100653124973,0.00923071615398,0.261946856976,-0.498552148166,0.0193485959328,0.729208461019,-0.468322973784
1470064469549406744,-0.00997968111187,0.00971817132086,0.261807233095,-0.536286593548,0.0233039454598,0.729116443535,-0.424550147184
1470064469622772004,-0.00996722374111,0.0101507026702,0.261660695076,-0.540229700652,0.0233585353846,0.728709912953,-0.42022388333
1470064469696744634,-0.00996734760702,0.0108149182051,0.261257439852,-0.534741100201,0.0212756228301,0.727577657295,-0.429220288704
1470064469771588645,-0.00987248122692,0.0110177630559,0.260909080505,-0.589810883553,0.0275507495565,0.726522779104,-0.351466540774
1470064469853135356,-0.0100066233426,0.0112015400082,0.260185688734,-0.548564170903,0.0231999330832,0.72781196381,-0.410887890844
1470064469926524486,-0.0100306440145,0.011389143765,0.259482502937,-0.524007777459,0.020177233742,0.727690948016,-0.442125109642
1470064470005551324,-0.00996599160135,0.0114691592753,0.259297460318,-0.532980084601,0.0223809950292,0.728504523936,-0.429781897112
1470064470080263839,-0.00991898402572,0.0114312367514,0.259116441011,-0.553904243528,0.0233391030382,0.727203292102,-0.404747757532
1470064470153251638,-0.00988358817995,0.0114483293146,0.258915454149,-0.558002659028,0.0242913678202,0.72750060308,-0.398479402836
1470064470225869608,-0.00986005645245,0.0114703504369,0.258448034525,-0.589121857794,0.0257996767697,0.72541196089,-0.355031407548
1470064470299263728,-0.00993452034891,0.0115679949522,0.258005559444,-0.55037121471,0.0218725008761,0.726651882088,-0.410597323399
1470064470375311819,-0.00996642094105,0.0116870747879,0.257374435663,-0.539129520913,0.0239408756988,0.729152143556,-0.420836483327
1470064470449235630,-0.0099695334211,0.0118587687612,0.257079005241,-0.541424862467,0.0216678341178,0.727365318353,-0.421104876397
1470064470523250853,-0.00989998411387,0.0119618847966,0.256870448589,-0.545578998029,0.0237388037619,0.728469519035,-0.413657087384
1470064470598787793,-0.00990239996463,0.0122819859535,0.256802260876,-0.554128740541,0.0229893566883,0.72713632479,-0.404580762712
1470064470671204926,-0.00988928601146,0.0127177089453,0.256741881371,-0.550643550568,0.0226206107569,0.727198904723,-0.409220895309
1470064470750729978,-0.00987941864878,0.0129810664803,0.256742715836,-0.560527746527,0.0239319914689,0.727046095688,-0.395777563667
1470064470829876187,-0.00986346043646,0.0129221091047,0.256732940674,-0.572236634455,0.0247392347853,0.726263869174,-0.380097351717
1470064470906789448,-0.00985653325915,0.012877414003,0.256741315126,-0.565761405556,0.0253093332074,0.727405910881,-0.387497239282
1470064470984481904,-0.00986898876727,0.0128341997042,0.256804287434,-0.5660266245,0.0245408975738,0.726926545408,-0.388058503688
1470064471060940322,-0.00986472051591,0.0128523921594,0.256799310446,-0.563927191068,0.0248328352757,0.727337569388,-0.390319758177
1470064471132956790,-0.0099089955911,0.0127788521349,0.256847351789,-0.551286698502,0.0230150941507,0.727323424364,-0.408110178588
1470064471207683073,-0.00990625284612,0.0127298645675,0.256822645664,-0.558540824196,0.0227247864698,0.726456817091,-0.399720182988
1470064471280136845,-0.00992672611028,0.01267753914,0.256760805845,-0.550935927081,0.0219545385413,0.726509355111,-0.410087502157
1470064471353228528,-0.00986921135336,0.0125375241041,0.256698608398,-0.568666331144,0.0250338360059,0.726769225614,-0.384445579476
1470064471425052466,-0.00984118692577,0.0124552287161,0.256683498621,-0.566887811498,0.0264796701119,0.728117790601,-0.384423619533
1470064471501445867,-0.00986807048321,0.012341491878,0.256749629974,-0.565897904962,0.0249071179225,0.727211349793,-0.387689114328
1470064471576975662,-0.00990219693631,0.0122595587745,0.256702870131,-0.55291373065,0.0227069538185,0.726874608336,-0.406723621718
1470064471650109773,-0.00987253896892,0.0121074542403,0.256703555584,-0.56920353758,0.0247346598239,0.726563066367,-0.384059422487
1470064471722692873,-0.00983115751296,0.012019963935,0.256690204144,-0.577563083866,0.0272126176331,0.727421061886,-0.369511781033
1470064471797205776,-0.00986896827817,0.0119184143841,0.25672441721,-0.560878339519,0.0246222815231,0.727571054172,-0.394270963477
1470064471869913800,-0.00990013685077,0.0118174497038,0.256721764803,-0.547522692437,0.0225975019798,0.727413991838,-0.413009852969
1470064471941741554,-0.00992232654244,0.0117056695744,0.256611257792,-0.547457525025,0.021266684085,0.726419687395,-0.414912550072
1470064472014469318,-0.00983737967908,0.0115881767124,0.256628274918,-0.567062022097,0.0262729276389,0.727981610948,-0.384438773394
1470064472088265384,-0.00985937472433,0.0115125114098,0.256725609303,-0.56947606106,0.0254260759812,0.727137114585,-0.382520780001
1470064472163896398,-0.00986746978015,0.0114357070997,0.256687194109,-0.55904886418,0.0242414007424,0.727386650902,-0.397222081509
1470064472237755149,-0.00988927483559,0.011367504485,0.256702750921,-0.563281732422,0.0235762818211,0.726545590713,-0.392796834853
1470064472312239051,-0.00988331250846,0.011246047914,0.256615191698,-0.558545587372,0.0233674610407,0.726726047587,-0.399186723665
1470064472385588181,-0.00982211809605,0.01113294065,0.256635934114,-0.571207724823,0.0266954709727,0.727721100627,-0.37872296819
1470064472455453053,-0.00985729601234,0.0110879223794,0.25672224164,-0.55837484119,0.0254266081602,0.728336401687,-0.396354778326
1470064472531750768,-0.00987256038934,0.0110002234578,0.256692528725,-0.553001757446,0.0238649914668,0.727758497362,-0.404953192309
1470064472608038087,-0.00987110473216,0.0109382821247,0.256601721048,-0.551391172312,0.0234125076262,0.727521896297,-0.407592345354
1470064472681574299,-0.0099222343415,0.0108348745853,0.256582289934,-0.544343384447,0.0211826728533,0.726413114807,-0.419005442467
1470064472754732405,-0.00991853233427,0.010793922469,0.256592094898,-0.537430033198,0.0212416445274,0.727200985704,-0.426493233647
1470064472827846193,-0.00985868182033,0.010712669231,0.256613761187,-0.560162748185,0.0245164888871,0.727518021945,-0.395391154509
1470064472905433182,-0.00984777323902,0.010641856119,0.256680309772,-0.566527649814,0.0253956225399,0.727447366033,-0.386292394441
1470064472981306121,-0.00986407045275,0.0105931088328,0.256642878056,-0.555033164307,0.0242689675375,0.727892608142,-0.401897443071
1470064473054762511,-0.00986661203206,0.0105312159285,0.256620407104,-0.554757743801,0.0240801372408,0.727705008884,-0.402628132063
1470064473128886306,-0.00984467286617,0.0103873312473,0.256550639868,-0.560261550338,0.0253015830239,0.727854746805,-0.394581161059
1470064473208393743,-0.00988957099617,0.00996006652713,0.256500452757,-0.533957191653,0.0213611972034,0.727378591349,-0.430527352886
1470064473285208450,-0.00978106725961,0.00932276621461,0.25645595789,-0.574684663767,0.0278732718038,0.728058446072,-0.372681522285
1470064473359652254,-0.00982889998704,0.0084866983816,0.256665766239,-0.557672880157,0.0265311175535,0.729133744253,-0.395804297009
1470064473452342735,-0.00979739055037,0.00802671350539,0.256468504667,-0.556831570447,0.0264495650114,0.728972767519,-0.397287964681
1470064473524627274,-0.00977587793022,0.00764080416411,0.256251007318,-0.570983278212,0.0259845128033,0.72719756146,-0.380113940423
1470064473597379409,-0.00976077094674,0.00739098992199,0.255964100361,-0.566655682868,0.0260029202714,0.727577680799,-0.385818485318
1470064473669868272,-0.00981423724443,0.00724593549967,0.255454331636,-0.557186649641,0.024596437318,0.727728356852,-0.399186036037
1470064473751901989,-0.00987024884671,0.00716709019616,0.254695028067,-0.541772682645,0.0244079717676,0.729140725566,-0.417421146535
1470064473824835189,-0.00980147253722,0.00714422855526,0.254272162914,-0.538260924337,0.0255206074215,0.730413914337,-0.419665807127
1470064473902413809,-0.00974310096353,0.00710897520185,0.254013985395,-0.556087860152,0.0264899190263,0.729263724641,-0.397792654413
1470064473976929601,-0.0096768764779,0.00713095394894,0.253604799509,-0.561086168542,0.0273554016366,0.729330512296,-0.39052656415
1470064474050133500,-0.00974126346409,0.00714098103344,0.253281772137,-0.53625726326,0.0229448858554,0.728653014485,-0.425401533019
1470064474123616052,-0.00976254604757,0.007082386408,0.252581059933,-0.551200480495,0.0235958569437,0.727632093028,-0.40764298477
1470064474206004379,-0.00978664588183,0.00706671923399,0.252026468515,-0.545710549446,0.02383207086,0.728300517042,-0.413775767171
1470064474278898518,-0.00976438168436,0.00706732645631,0.251797825098,-0.542501082338,0.0238477954725,0.72862101818,-0.417414985571
1470064474353097504,-0.00969891995192,0.00706848176196,0.251503676176,-0.5509159095,0.0252388969496,0.728870621578,-0.405712060139
1470064474425792304,-0.00973805878311,0.00712235691026,0.251038789749,-0.515998375218,0.0201060853112,0.728378437152,-0.450340176309
1470064474502671666,-0.00969649571925,0.00711499713361,0.250642180443,-0.524264620022,0.0220729478689,0.729133141318,-0.439345257625
1470064474579069646,-0.0097226658836,0.00710639497265,0.250050276518,-0.526282571047,0.0231479469419,0.72985695754,-0.435660015948
1470064474651961149,-0.00971627794206,0.00706971203908,0.249521255493,-0.54181539975,0.0235589700703,0.728550196173,-0.418444332235
1470064474728665075,-0.00962155498564,0.00709208799526,0.249181106687,-0.56692748192,0.026808715909,0.728286689407,-0.384022162156
1470064474804872453,-0.00964394304901,0.0070913657546,0.248883023858,-0.549971881657,0.0235779140672,0.727716938494,-0.409149201128
1470064474883635627,-0.0096688400954,0.00711644580588,0.24864166975,-0.534957653318,0.0210154304807,0.727349418982,-0.429350071089
1470064474957927309,-0.00968556851149,0.00714711844921,0.247631803155,-0.523196630916,0.023626487898,0.730513152216,-0.438243777945
1470064475034422264,-0.00967266503721,0.007156542968,0.247339308262,-0.535555987677,0.0251047480803,0.73043449014,-0.423101632354
1470064475107772174,-0.00962991081178,0.00713700708002,0.247138395905,-0.542565242844,0.025573075377,0.730050121626,-0.414723757442
1470064475182516922,-0.00958963762969,0.00711952615529,0.246930599213,-0.554672070964,0.0267496272305,0.729625132721,-0.399087104324
1470064475258204878,-0.00955704972148,0.00709448382258,0.246505022049,-0.565018183588,0.0257981850278,0.727754893676,-0.387893955346
1470064475333852791,-0.00960810016841,0.00711235590279,0.246187537909,-0.544311177571,0.0224536710747,0.727360813719,-0.417333704956
1470064475408942319,-0.00959750451148,0.00714067695662,0.245820507407,-0.538775814061,0.0232673913338,0.72859559025,-0.422288664957
1470064475483636688,-0.00961768534034,0.00719505734742,0.245243653655,-0.555098602621,0.0257149345944,0.728794284919,-0.400078959428
1470064475560507093,-0.00962003413588,0.00729359965771,0.244692668319,-0.535599206586,0.0226254978613,0.728648798388,-0.426254038524
1470064475634564064,-0.00956286489964,0.00729805463925,0.244441315532,-0.543917878874,0.0237954218913,0.728702558177,-0.415427130368
1470064475708817855,-0.00951663311571,0.00732672261074,0.244143158197,-0.54041555126,0.0240899824436,0.72917435269,-0.419136574497
1470064475779734310,-0.00947864633054,0.00734862266108,0.243625104427,-0.558770006976,0.0269660622353,0.72911739848,-0.394254651241
1470064475855860193,-0.00963658094406,0.00736270658672,0.242887943983,-0.536961870678,0.0216999174818,0.72753615319,-0.426488228232
1470064475934392537,-0.00959179271013,0.00737779727206,0.242630526423,-0.536293310713,0.0223359695923,0.728118540684,-0.426302685963
1470064476010489488,-0.00951149966568,0.00738765485585,0.242346465588,-0.560265589664,0.0255516349145,0.728127196568,-0.394056301319
1470064476083408092,-0.0094513585791,0.00743104331195,0.242065116763,-0.561853543273,0.0270149040354,0.72895145843,-0.39015453621
1470064476161351542,-0.00949895195663,0.00747874891385,0.241329133511,-0.543698942411,0.0242136482092,0.728977729242,-0.415206731076
1470064476234495325,-0.00957774184644,0.00746626034379,0.240757226944,-0.531932693701,0.0226813404217,0.72903068816,-0.430171386647
1470064476308982318,-0.00953232869506,0.00745801255107,0.240485876799,-0.548604204261,0.0237817714404,0.728092270902,-0.410304154825
1470064476380828685,-0.00946180056781,0.00747702131048,0.24005407095,-0.553957888182,0.0244645669461,0.728053859792,-0.403075328354
1470064476454160176,-0.00947636179626,0.00749451201409,0.239708825946,-0.540082974598,0.0223183591622,0.72773155015,-0.422159996103
1470064476529051019,-0.00948430597782,0.00751941045746,0.239307910204,-0.526650531025,0.0220607573197,0.728914854851,-0.436847428211
1470064476606192294,-0.00953877530992,0.0075146285817,0.238783702254,-0.522533703567,0.0224061808296,0.729454204073,-0.440854914747
1470064476680118908,-0.00947056803852,0.00754033494741,0.238365530968,-0.544735536198,0.0250941918115,0.729462590457,-0.41293801746
1470064476754737842,-0.00939875934273,0.00754186930135,0.237910658121,-0.559440329334,0.0256594559697,0.728300393877,-0.394900805915
1470064476832262369,-0.00939036719501,0.00754861533642,0.237582117319,-0.550737005413,0.0244671246475,0.728281727543,-0.407057534026
1470064476908463522,-0.00942105893046,0.00756867649034,0.237219065428,-0.528102321858,0.0226302481334,0.729007858457,-0.434906141399
1470064476980049219,-0.0094265434891,0.00758451223373,0.236638709903,-0.547920150572,0.0250746472879,0.729065786092,-0.409411590226
1470064477052698518,-0.00937475822866,0.00761360768229,0.236062765121,-0.549192397491,0.0258510491327,0.729657568063,-0.406594721026
1470064477125847796,-0.00940359663218,0.0076129520312,0.235845386982,-0.540107108538,0.0230264579225,0.728487002498,-0.42078590843
1470064477199978012,-0.00939070805907,0.00762203801423,0.235524594784,-0.526847712037,0.0220575508043,0.728914063221,-0.43661108691
1470064477276157623,-0.00934230070561,0.00763569585979,0.235031411052,-0.541342557776,0.0249266949545,0.729503612449,-0.417314479072
1470064477354653816,-0.00940115842968,0.00763196311891,0.234316527843,-0.54850278098,0.0244774034924,0.728555038066,-0.409576747978
1470064477425509609,-0.00937863625586,0.00764681212604,0.234034284949,-0.547543528212,0.0233329872867,0.727925564698,-0.41203886792
1470064477502365036,-0.00935949478298,0.00764065468684,0.233764454722,-0.544406678685,0.0228155854648,0.727812954935,-0.416400191994
1470064477578286282,-0.00929419696331,0.00766820786521,0.233392238617,-0.542461433636,0.0246100974521,0.729368618419,-0.416114593094
1470064477652620820,-0.00924912653863,0.00768787181005,0.232975572348,-0.554269994719,0.026547108649,0.729423326705,-0.40002704213
1470064477725083292,-0.00930454581976,0.00768903130665,0.232247695327,-0.561537068523,0.0261858195182,0.728572398936,-0.391372818472
1470064477798070745,-0.00932500045747,0.00770171126351,0.231973364949,-0.552372968917,0.0238625412316,0.727816033473,-0.405707411512
1470064477878791609,-0.00928088370711,0.00767762633041,0.231667757034,-0.559871256769,0.0240542574579,0.727207708664,-0.396401963922
1470064477951572431,-0.00920708011836,0.00775916315615,0.231041386724,-0.53637694225,0.0258969928036,0.73075408483,-0.421458881851
1470064478022006974,-0.00924232974648,0.00775023922324,0.230614066124,-0.541549973358,0.0248610100989,0.729528241884,-0.417006116053
1470064478101588533,-0.00931499525905,0.00773328682408,0.230102211237,-0.541826013307,0.0233315220169,0.728537538641,-0.418465370342
1470064478177299468,-0.00925781670958,0.00774341868237,0.229810982943,-0.550616987157,0.0239055843002,0.728061696046,-0.407646443924
1470064478255541953,-0.00919131655246,0.00777510460466,0.229348063469,-0.543580503372,0.0251234777134,0.729596118109,-0.414220414347
1470064478337326354,-0.00915895309299,0.00771317770705,0.227408498526,-0.539121719161,0.0215559750485,0.727236703107,-0.424275723465
1470064478409822201,-0.00914518721402,0.00767371896654,0.225658982992,-0.54829940567,0.0225272487825,0.727232032708,-0.412303111082
1470064478485471416,-0.00908359792084,0.00769771775231,0.225444361567,-0.565915187662,0.0249783440145,0.727284685796,-0.387521700697
1470064478563696875,-0.00925040710717,0.00776653783396,0.226380646229,-0.542367704643,0.0228254615281,0.728124875103,-0.418509781871
1470064478639434974,-0.00914648734033,0.00783115532249,0.22707682848,-0.533173323771,0.0256692810398,0.730931316642,-0.425213717067
1470064478718079257,-0.00913443695754,0.0078216670081,0.227016076446,-0.539531443765,0.0249419894998,0.729718046866,-0.419279489632
1470064478791185677,-0.0091974819079,0.00781977921724,0.226246610284,-0.545146631928,0.0238980261416,0.728696695993,-0.413817785133
1470064478864329572,-0.00913974456489,0.0078252106905,0.225983932614,-0.561718935762,0.0259242583656,0.728394710166,-0.391459980376
1470064478937585515,-0.00911584496498,0.00782413128763,0.225711002946,-0.558114944093,0.0258443688621,0.728684798833,-0.396053331924
1470064479009251960,-0.00912389997393,0.00787628442049,0.225327119231,-0.528172489242,0.0245984836224,0.730732314973,-0.431809008784
1470064479086780003,-0.0091743292287,0.00787420663983,0.22466661036,-0.524074528108,0.0229231594477,0.729786668211,-0.438442512367
1470064479161906602,-0.00915086455643,0.0078541059047,0.224206730723,-0.551170967899,0.0245519397632,0.728512035859,-0.406051696225
1470064479234804251,-0.00910950545222,0.0078496877104,0.223960161209,-0.558243840738,0.0246997119824,0.727840079627,-0.397495354683
1470064479307813394,-0.00908848177642,0.00789229758084,0.223623260856,-0.537539961768,0.0243936100376,0.729683367061,-0.421921704972
1470064479384557676,-0.00909478403628,0.00793184712529,0.222877040505,-0.527773115701,0.0244061134895,0.73074647566,-0.432284013442
1470064479460916620,-0.009118671529,0.00791226048023,0.222476020455,-0.544757277818,0.0248828862082,0.72948506567,-0.41288241571
1470064479534717701,-0.00905912462622,0.00793520826846,0.22216078639,-0.547135398463,0.0253951034949,0.729575291548,-0.409533684121
1470064479614152820,-0.00905996467918,0.00791972968727,0.221841409802,-0.533919873276,0.0239741969988,0.729697730618,-0.426492706539
1470064479693944259,-0.00906950328499,0.00795544497669,0.221433579922,-0.508972906341,0.0222973864316,0.730550544844,-0.454692542931
1470064479768862062,-0.00905765313655,0.00795213971287,0.2207185179,-0.538483085613,0.024751846759,0.729801327528,-0.42049177748
