%time,field.linear.x,field.linear.y,field.linear.z,field.angular.x,field.angular.y,field.angular.z
1470068791617163535,0.16,-0.134309997643,0.0,0.0,0.0,0.0358472942521
1470068791699334713,0.16,-0.133803751553,0.0,0.0,0.0,0.0430134957337
1470068791780790626,0.16,-0.134071316804,0.0,0.0,0.0,0.0330886053309
1470068791861284515,0.16,-0.134223630513,0.0,0.0,0.0,0.0377821335139
1470068791937247375,0.16,-0.134223630513,0.0,0.0,0.0,0.0377821335139
1470068792013086465,0.16,-0.134191444005,0.0,0.0,0.0,0.0346793551799
1470068792093820439,0.16,-0.133642354096,0.0,0.0,0.0,0.0433939635144
1470068792179375173,0.16,-0.134192874516,0.0,0.0,0.0,0.0343153436592
1470068792257912135,0.16,-0.134120705212,0.0,0.0,0.0,0.0379381517749
1470068792336380762,0.16,-0.131907906617,0.0,0.0,0.0,0.0157107771996
1470068792409333555,0.16,-0.131887712563,0.0,0.0,0.0,0.0313970941282
1470068792480024989,0.16,-0.131207742776,0.0,0.0,0.0,0.0247250066321
1470068792550588544,0.16,-0.129460468377,0.0,0.0,0.0,0.0236432982102
1470068792625002925,0.16,-0.126408829774,0.0,0.0,0.0,0.0272553470592
1470068792704922812,0.16,-0.124164750661,0.0,0.0,0.0,0.0241429074572
1470068792779908932,0.16,-0.122557940568,0.0,0.0,0.0,0.0250586987523
1470068792858942383,0.16,-0.12071110257,0.0,0.0,0.0,0.0423219642323
1470068792939099288,0.16,-0.120002951707,0.0,0.0,0.0,0.0162572040813
1470068793020080170,0.16,-0.117732682313,0.0,0.0,0.0,0.0273202787829
1470068793092436995,0.16,-0.117020001496,0.0,0.0,0.0,0.0239027116715
1470068793169877662,0.16,-0.114981856431,0.0,0.0,0.0,0.015238756988
1470068793251188122,0.16,-0.111488571251,0.0,0.0,0.0,0.0266193355366
1470068793336871197,0.16,-0.110163667286,0.0,0.0,0.0,0.0289270871156
1470068793412565587,0.16,-0.103664901341,0.0,0.0,0.0,0.0281067805282
1470068793487868701,0.16,-0.101847925271,0.0,0.0,0.0,0.0237762735206
1470068793560029252,0.16,-0.100795402611,0.0,0.0,0.0,0.0243600218501
1470068793632649981,0.16,-0.0976922536741,0.0,0.0,0.0,0.012812393309
1470068793704535723,0.16,-0.095693507279,0.0,0.0,0.0,0.0248389375105
1470068793794662060,0.16,-0.0945115948568,0.0,0.0,0.0,0.0231422232803
1470068793870090500,0.16,-0.0905860091101,0.0,0.0,0.0,0.011491958868
1470068793944832749,0.16,-0.0875469649683,0.0,0.0,0.0,0.0324873298694
1470068794024539570,0.16,-0.0864607597242,0.0,0.0,0.0,0.0281534176862
1470068794102229464,0.16,-0.0854026521097,0.0,0.0,0.0,0.0240737314061
1470068794180976573,0.16,-0.0822903777014,0.0,0.0,0.0,0.0130663800257
1470068794257843961,0.16,-0.0795998001944,0.0,0.0,0.0,0.0223692648858
1470068794331185862,0.16,-0.0790272618185,0.0,0.0,0.0,0.0317977547127
1470068794418305091,0.16,-0.0761428917299,0.0,0.0,0.0,0.0279953392379
1470068794500286404,0.16,-0.0752475703608,0.0,0.0,0.0,0.020021735784
1470068794579951396,0.16,-0.073936721171,0.0,0.0,0.0,0.0186991268913
1470068794652490624,0.16,-0.0703733945738,0.0,0.0,0.0,0.0217390093989
1470068794726467665,0.16,-0.0697040105711,0.0,0.0,0.0,0.0300865397239
1470068794796943925,0.16,-0.0673208797823,0.0,0.0,0.0,0.0292503615828
1470068794869783518,0.16,-0.0666124010931,0.0,0.0,0.0,0.014672733919
1470068794947176748,0.16,-0.0640237475287,0.0,0.0,0.0,0.0210806385395
1470068795026652854,0.16,-0.0629258478533,0.0,0.0,0.0,0.0147019711018
1470068795101770087,0.16,-0.0619239295374,0.0,0.0,0.0,0.00702633067334
1470068795180410729,0.16,-0.0598628843676,0.0,0.0,0.0,0.0150866800828
1470068795253405297,0.16,-0.0591426218401,0.0,0.0,0.0,0.0184876682515
1470068795329156457,0.16,-0.0575019324671,0.0,0.0,0.0,0.0237238644872
1470068795409859242,0.16,-0.0566886628519,0.0,0.0,0.0,0.0144973018542
1470068795487575068,0.16,-0.0551080490004,0.0,0.0,0.0,0.0232304467672
1470068795563525100,0.16,-0.0548723245512,0.0,0.0,0.0,0.0209454149222
1470068795644420491,0.16,-0.053044750775,0.0,0.0,0.0,0.0158388037424
1470068795720525969,0.16,-0.0524944389711,0.0,0.0,0.0,0.0165729838166
1470068795796614779,0.16,-0.0514833892237,0.0,0.0,0.0,0.00477660025264
1470068795873961278,0.16,-0.0502620244871,0.0,0.0,0.0,0.012727762889
1470068795950873386,0.16,-0.0494559193503,0.0,0.0,0.0,0.00813086929834
1470068796028153244,0.16,-0.0481639588724,0.0,0.0,0.0,0.0155983358438
1470068796109547041,0.16,-0.0468281830202,0.0,0.0,0.0,0.0123369233005
1470068796188951732,0.16,-0.046336742724,0.0,0.0,0.0,0.00821928540226
1470068796264822723,0.16,-0.0453541273724,0.0,0.0,0.0,0.0156165904367
1470068796341186740,0.16,-0.0441964800011,0.0,0.0,0.0,0.0113778581087
1470068796421607156,0.16,-0.0431566590916,0.0,0.0,0.0,0.00857564485819
1470068796498135855,0.16,-0.0424114251982,0.0,0.0,0.0,0.0123289400997
1470068796572924778,0.16,-0.0415316755425,0.0,0.0,0.0,0.00831911399896
1470068796649332890,0.16,-0.0405914182316,0.0,0.0,0.0,0.00880884140857
1470068796726531632,0.16,-0.0396473104607,0.0,0.0,0.0,0.0150476626417
1470068796816496447,0.16,-0.0383052612196,0.0,0.0,0.0,0.00527538955041
1470068796887739282,0.16,-0.0374703282963,0.0,0.0,0.0,0.0107307802554
1470068796965585695,0.16,-0.0365502888809,0.0,0.0,0.0,0.0134341821616
1470068797042734242,0.16,-0.0354106927763,0.0,0.0,0.0,0.00913165760715
1470068797120848545,0.16,-0.0346170986544,0.0,0.0,0.0,0.0185166181831
1470068797197276819,0.16,-0.0333172673832,0.0,0.0,0.0,0.0085430221137
1470068797277691824,0.16,-0.0325026000391,0.0,0.0,0.0,0.0105403300044
1470068797353924134,0.16,-0.0318327809225,0.0,0.0,0.0,0.0
1470068797428164119,0.16,-0.0310663844,0.0,0.0,0.0,0.0
1470068797499370813,0.16,-0.030038979138,0.0,0.0,0.0,0.00825350022677
1470068797571596225,0.16,-0.0293382043491,0.0,0.0,0.0,0.00586275939004
1470068797644984844,0.16,-0.0287919218193,0.0,0.0,0.0,0.00811410569382
1470068797723207388,0.16,-0.0276654715191,0.0,0.0,0.0,0.00424087961858
1470068797798395755,0.16,-0.0271214986693,0.0,0.0,0.0,0.0
1470068797873916609,0.16,-0.0264164144646,0.0,0.0,0.0,0.0087963196746
1470068797950997885,0.16,-0.0260149354588,0.0,0.0,0.0,0.00894706435171
1470068798025884352,0.16,-0.0250055188786,0.0,0.0,0.0,0.0
1470068798099917966,0.16,-0.0244069243322,0.0,0.0,0.0,0.0
1470068798178335037,0.16,-0.0238629991661,0.0,0.0,0.0,0.00332440067955
1470068798251210850,0.16,-0.0232235396753,0.0,0.0,0.0,0.00581471963067
1470068798323494938,0.16,-0.0224369550596,0.0,0.0,0.0,0.0
1470068798400012539,0.0,-0.0218580062042,0.0,0.0,0.0,0.0
1470068798472690958,0.0,-0.0213287586819,0.0,0.0,0.0,0.0
1470068798552817492,0.0,-0.0208176875959,0.0,0.0,0.0,0.0
1470068798626504163,0.0,-0.0201792115818,0.0,0.0,0.0,0.00648373000922
1470068798701045116,0.0,-0.0197468037258,0.0,0.0,0.0,0.00506366925672
1470068798775680370,0.0,-0.0191046411644,0.0,0.0,0.0,0.00380415790871
1470068798854480993,0.0,-0.0186448524247,0.0,0.0,0.0,0.00749660094725
1470068798926225060,0.0,-0.017964085425,0.0,0.0,0.0,0.00449475845352
1470068799006778608,0.0,-0.0175658712636,0.0,0.0,0.0,0.00597879735842
1470068799082027784,0.0,-0.0171281928669,0.0,0.0,0.0,0.0
1470068799162142380,0.0,-0.0170192758094,0.0,0.0,0.0,0.0
1470068799239812297,0.0,-0.0166973019491,0.0,0.0,0.0,0.00355443092192
1470068799311800771,0.0,-0.0168659100782,0.0,0.0,0.0,0.00364256810979
1470068799391779752,0.0,-0.0167418594013,0.0,0.0,0.0,0.0
1470068799467582834,0.0,-0.0157970706473,0.0,0.0,0.0,0.0
1470068799548554955,0.0,-0.0152819121729,0.0,0.0,0.0,0.0
1470068799626459124,0.0,-0.015262741829,0.0,0.0,0.0,0.0034746207453
1470068799700012942,0.0,-0.0149190957199,0.0,0.0,0.0,0.0
1470068799783468325,0.0,-0.0140902871739,0.0,0.0,0.0,0.0
1470068799857859896,0.0,-0.0137470821391,0.0,0.0,0.0,0.0
1470068799931135780,0.0,-0.0131596083294,0.0,0.0,0.0,0.0
1470068800003946516,0.0,-0.0127152080189,0.0,0.0,0.0,0.0
1470068800082262239,0.0,-0.0122610221158,0.0,0.0,0.0,0.0
1470068800158666615,0.0,-0.0116995642434,0.0,0.0,0.0,0.00343873581811
1470068800232325816,0.0,-0.0112604747068,0.0,0.0,0.0,0.0
1470068800307584203,0.0,-0.0108657384764,0.0,0.0,0.0,0.0
1470068800388360294,0.0,-0.0104915867101,0.0,0.0,0.0,0.0
1470068800465040893,0.0,-0.00990876355277,0.0,0.0,0.0,0.0
1470068800541305996,0.0,-0.00953031280146,0.0,0.0,0.0,0.0
1470068800614782214,0.0,-0.00919725992785,0.0,0.0,0.0,0.0
1470068800688751003,0.0,-0.0088480258833,0.0,0.0,0.0,0.0
1470068800770278366,0.0,-0.00829109796391,0.0,0.0,0.0,0.0
1470068800844134725,0.0,-0.00798700996743,0.0,0.0,0.0,0.0
1470068800916485057,0.0,-0.00769932889448,0.0,0.0,0.0,0.0
1470068800992657707,0.0,-0.00723894410835,0.0,0.0,0.0,0.0
1470068801069015843,0.0,-0.00697463997708,0.0,0.0,0.0,0.0
1470068801150624789,0.0,-0.00668400847421,0.0,0.0,0.0,0.0
1470068801229583838,0.0,-0.00641293623553,0.0,0.0,0.0,0.0
1470068801307035515,0.0,-0.00604855814086,0.0,0.0,0.0,0.0
1470068801388069691,0.0,-0.00580553510295,0.0,0.0,0.0,0.0
1470068801464941847,0.0,-0.00557838105665,0.0,0.0,0.0,0.0
1470068801543672404,0.0,-0.00526950904237,0.0,0.0,0.0,0.0030715253016
1470068801621087878,0.0,-0.00505046271787,0.0,0.0,0.0,0.00317194622887
1470068801698275444,0.0,-0.00484802373753,0.0,0.0,0.0,0.00347037672971
1470068801773609315,0.0,-0.00456555881606,0.0,0.0,0.0,0.0033554286464
1470068801849069163,0.0,-0.0043794157456,0.0,0.0,0.0,0.00366036127581
1470068801921898007,0.0,-0.00419845827924,0.0,0.0,0.0,0.0
1470068801996056710,0.0,-0.00392074682818,0.0,0.0,0.0,0.00344946360695
1470068802068161662,0.0,-0.00377554842339,0.0,0.0,0.0,0.00360843627043
1470068802140218401,0.0,-0.00362941497074,0.0,0.0,0.0,0.00506267697926
1470068802211243756,0.0,-0.00343091064201,0.0,0.0,0.0,0.00457469889134
1470068802291130818,0.0,-0.00331986867891,0.0,0.0,0.0,0.00392730983416
1470068802368645244,0.0,-0.0031933645259,0.0,0.0,0.0,0.0
1470068802442284648,0.0,-0.00313200079904,0.0,0.0,0.0,0.00316524555134
1470068802518890003,0.0,-0.00305842557059,0.0,0.0,0.0,0.00573598852519
1470068802597800086,0.0,-0.00297084921108,0.0,0.0,0.0,0.00378664165104
1470068802672980011,0.0,-0.00287519865738,0.0,0.0,0.0,0.00492582556239
1470068802750851048,0.0,-0.00281512909637,0.0,0.0,0.0,0.00281624045423
1470068802827914873,0.0,-0.00276864641414,0.0,0.0,0.0,0.00302457076828
1470068802899375048,0.0,-0.00268492871033,0.0,0.0,0.0,0.00474147014754
1470068802979435800,0.0,-0.00263689854251,0.0,0.0,0.0,0.00424206975403
1470068803052736655,0.0,-0.00261515923844,0.0,0.0,0.0,0.00367697495736
1470068803125034445,0.0,-0.00256038443254,0.0,0.0,0.0,0.00341537535556
1470068803203398983,0.0,-0.00253060557948,0.0,0.0,0.0,0.00459892933413
1470068803279548636,0.0,-0.0025256319444,0.0,0.0,0.0,0.00461833591846
1470068803354021488,0.0,-0.00252390862511,0.0,0.0,0.0,0.00506624855163
1470068803431871038,0.0,-0.00251755067216,0.0,0.0,0.0,0.004802036054
1470068803509378596,0.0,-0.00251018204795,0.0,0.0,0.0,0.00521769377595
1470068803582819508,0.0,-0.00246003330754,0.0,0.0,0.0,0.00396953632566
1470068803661476694,0.0,-0.00245449193822,0.0,0.0,0.0,0.00471175437871
1470068803739233116,0.0,-0.00246483669685,0.0,0.0,0.0,0.00511733471094
1470068803812657324,0.0,-0.0024413099985,0.0,0.0,0.0,0.0036042031988
1470068803889954578,0.0,-0.00239656479166,0.0,0.0,0.0,0.0
1470068803964748623,0.0,-0.00239242822932,0.0,0.0,0.0,0.0
1470068804038925685,0.0,-0.00239423089729,0.0,0.0,0.0,0.0
1470068804113815219,0.0,-0.00237475396202,0.0,0.0,0.0,0.0
1470068804189698835,0.0,-0.00238477238522,0.0,0.0,0.0,0.0
1470068804272478926,0.0,-0.00240216390298,0.0,0.0,0.0,0.0
1470068804346981104,0.0,-0.00241913669811,0.0,0.0,0.0,0.0
1470068804421602686,0.0,-0.00244070501135,0.0,0.0,0.0,0.00385762631896
1470068804495082106,0.0,-0.0024551744114,0.0,0.0,0.0,0.00419520894057
1470068804566743273,0.0,-0.00245551117764,0.0,0.0,0.0,0.00464649481225
1470068804639190298,0.0,-0.00243949242936,0.0,0.0,0.0,0.00297270447554
1470068804719217019,0.0,-0.00243655354784,0.0,0.0,0.0,0.00337794325703
1470068804792777872,0.0,-0.00241433740662,0.0,0.0,0.0,0.0
1470068804866985856,0.0,-0.00238435664283,0.0,0.0,0.0,0.0
1470068804945231934,0.0,-0.00233958312379,0.0,0.0,0.0,0.00338634222009
1470068805023309267,0.0,-0.00229722247527,0.0,0.0,0.0,0.00528997013305
1470068805096415725,0.0,-0.00222116061555,0.0,0.0,0.0,0.0
1470068805171669401,0.0,-0.00218656756984,0.0,0.0,0.0,0.0
1470068805245946621,0.0,-0.00216026180492,0.0,0.0,0.0,0.0
1470068805324429731,0.0,-0.00209237546728,0.0,0.0,0.0,0.00477276547286
1470068805399016324,0.0,-0.00207467922078,0.0,0.0,0.0,0.00473052692971
1470068805476062249,0.0,-0.00208132029579,0.0,0.0,0.0,0.00426708661795
1470068805550997085,0.0,-0.00206251950072,0.0,0.0,0.0,0.0
1470068805629161972,0.0,-0.00203220457838,0.0,0.0,0.0,0.0
1470068805704012192,0.0,-0.00201584720121,0.0,0.0,0.0,0.0
1470068805782739012,0.0,-0.00197535590337,0.0,0.0,0.0,0.00344905641753
1470068805867162951,0.0,-0.00197419249521,0.0,0.0,0.0,0.00326906535866
1470068805942857216,0.0,-0.00191289209829,0.0,0.0,0.0,0.00466487727662
1470068806020334415,0.0,-0.00187376127647,0.0,0.0,0.0,0.0
1470068806096772972,0.0,-0.0018516818534,0.0,0.0,0.0,0.0
1470068806169751961,0.0,-0.0018247975509,0.0,0.0,0.0,0.0
1470068806243319336,0.0,-0.00179846645401,0.0,0.0,0.0,0.0
1470068806320154244,0.0,-0.00177054689334,0.0,0.0,0.0,0.00357398492315
1470068806391720180,0.0,-0.00173127153025,0.0,0.0,0.0,0.00427194135854
1470068806468587540,0.0,-0.00171058909105,0.0,0.0,0.0,0.00321277494496
1470068806546061861,0.0,-0.00168972485767,0.0,0.0,0.0,0.0
1470068806621836118,0.0,-0.00166545384632,0.0,0.0,0.0,0.0
1470068806698952027,0.0,-0.00162781016038,0.0,0.0,0.0,0.0
1470068806773217480,0.0,-0.00160446674631,0.0,0.0,0.0,0.00281365888873
1470068806848478080,0.0,-0.00158803635345,0.0,0.0,0.0,0.00326662346029
1470068806921482173,0.0,-0.00156159759568,0.0,0.0,0.0,0.00374127028508
1470068806996736471,0.0,-0.00154180848108,0.0,0.0,0.0,0.0040387451583
1470068807070876322,0.0,-0.00150556997464,0.0,0.0,0.0,0.0
1470068807143861652,0.0,-0.00147938230143,0.0,0.0,0.0,0.0
1470068807220049275,0.0,-0.00144287073122,0.0,0.0,0.0,0.0
1470068807293307022,0.0,-0.00141774439321,0.0,0.0,0.0,0.00342784213435
1470068807368835175,0.0,-0.00138505124555,0.0,0.0,0.0,0.00316433664084
1470068807446388770,0.0,-0.00137004391359,0.0,0.0,0.0,0.00362646303386
1470068807520009016,0.0,-0.00136162438498,0.0,0.0,0.0,0.00379383493805
1470068807593746778,0.0,-0.00137708135949,0.0,0.0,0.0,0.0
1470068807668275039,0.0,-0.00135855176554,0.0,0.0,0.0,0.00293140967978
1470068807741073275,0.0,-0.00134240337716,0.0,0.0,0.0,0.00298001760213
1470068807815424992,0.0,-0.0013371976565,0.0,0.0,0.0,0.0
1470068807888783683,0.0,-0.00134135694311,0.0,0.0,0.0,0.0
1470068807960836319,0.0,-0.00132391736911,0.0,0.0,0.0,0.0
1470068808034338400,0.0,-0.0013141220908,0.0,0.0,0.0,0.0
1470068808106867636,0.0,-0.00131523408995,0.0,0.0,0.0,0.0
1470068808183622078,0.0,-0.00131533057497,0.0,0.0,0.0,0.0
1470068808256867677,0.0,-0.00129405581461,0.0,0.0,0.0,0.0
1470068808342459373,0.0,-0.00129205980407,0.0,0.0,0.0,0.0
1470068808413755858,0.0,-0.00131161050008,0.0,0.0,0.0,0.0
1470068808486695363,0.0,-0.00131195657955,0.0,0.0,0.0,0.0
1470068808560191749,0.0,-0.00124462754534,0.0,0.0,0.0,0.0
1470068808632504392,0.0,-0.00120620154844,0.0,0.0,0.0,0.00362599144443
1470068808704569856,0.0,-0.00118457661079,0.0,0.0,0.0,0.00348100448912
1470068808780505896,0.0,-0.00115659595536,0.0,0.0,0.0,0.00308267109579
1470068808855311588,0.0,-0.00111666568623,0.0,0.0,0.0,0.0
1470068808929777876,0.0,-0.00108621516333,0.0,0.0,0.0,0.0
1470068809003574628,0.0,-0.00105593116091,0.0,0.0,0.0,0.0
1470068809081302747,0.0,-0.00103601315127,0.0,0.0,0.0,0.00284057764795
1470068809158823890,0.0,-0.00100667611764,0.0,0.0,0.0,0.00403338897742
1470068809232509951,0.0,-0.000965717668398,0.0,0.0,0.0,0.0
1470068809305687944,0.0,-0.000956278900369,0.0,0.0,0.0,0.0
1470068809378556068,0.0,-0.000925001735552,0.0,0.0,0.0,0.0
1470068809451414859,0.0,-0.000922670448883,0.0,0.0,0.0,0.0
1470068809527630766,0.0,-0.000930772955282,0.0,0.0,0.0,0.0
1470068809600955338,0.0,-0.000917947525843,0.0,0.0,0.0,0.0
1470068809673504681,0.0,-0.000917431573136,0.0,0.0,0.0,0.0
1470068809750139705,0.0,-0.000907879183753,0.0,0.0,0.0,0.0
1470068809825652833,0.0,-0.000875807041986,0.0,0.0,0.0,0.0
1470068809901374854,0.0,-0.000864650170072,0.0,0.0,0.0,0.00314267717504
1470068809977136035,0.0,-0.000844797725542,0.0,0.0,0.0,0.00297894020598
1470068810051628095,0.0,-0.000837242464288,0.0,0.0,0.0,0.00382018999572
1470068810129801548,0.0,0.0,0.0,0.0,0.0,0.00350867416394
1470068810203732255,0.006,0.0,0.0,0.0,0.0,0.0
1470068810279926207,0.006,0.0,0.0,0.0,0.0,0.0
1470068810356319313,0.006,0.0,0.0,0.0,0.0,0.0
1470068810436515498,0.006,0.0,0.0,0.0,0.0,0.0
1470068810513902845,0.006,0.0,0.0,0.0,0.0,0.0
1470068810586967387,0.0,0.0,0.0,0.0,0.0,0.00339195038234
1470068810663730501,0.0,0.0,0.0,0.0,0.0,0.00299109766573
1470068810736588785,0.006,0.0,0.0,0.0,0.0,0.0
1470068810809138482,0.006,0.0,0.0,0.0,0.0,0.0
1470068810884821313,0.006,0.0,0.0,0.0,0.0,0.0
1470068810959546130,0.0,-0.000878361473544,0.0,0.0,0.0,0.0
1470068811031085444,0.0,-0.0012048138778,0.0,0.0,0.0,0.0
1470068811108631505,0.0,-0.00155940526233,0.0,0.0,0.0,0.0
1470068811197037443,0.0,-0.00165643454598,0.0,0.0,0.0,0.0
1470068811271198909,0.0,-0.00172272385166,0.0,0.0,0.0,0.0
1470068811343099188,0.0,-0.0017531453173,0.0,0.0,0.0,0.0
1470068811416807796,0.0,-0.00177934789167,0.0,0.0,0.0,0.0
1470068811497671654,0.0,-0.00179279320942,0.0,0.0,0.0,0.0
1470068811573225201,0.0,-0.00183456749724,0.0,0.0,0.0,0.0
1470068811647134463,0.0,-0.00194399380194,0.0,0.0,0.0,0.0
1470068811721167382,0.0,-0.00202807881938,0.0,0.0,0.0,0.0
1470068811797227484,0.0,-0.0022235507618,0.0,0.0,0.0,0.0
1470068811869117980,0.0,-0.00236179069684,0.0,0.0,0.0,0.0
1470068811940900504,0.0,-0.00240009152399,0.0,0.0,0.0,0.0
1470068812014160930,0.0,-0.00233121723936,0.0,0.0,0.0,0.0
1470068812088778157,0.0,-0.00231012017535,0.0,0.0,0.0,0.0
1470068812163134958,0.0,-0.00232204929994,0.0,0.0,0.0,0.0
1470068812238454065,0.0,-0.00228801318513,0.0,0.0,0.0,0.0
1470068812313929603,0.0,-0.00224130065249,0.0,0.0,0.0,0.0
1470068812387202825,0.0,-0.00217548371361,0.0,0.0,0.0,0.0
1470068812462353105,0.0,-0.00213485830532,0.0,0.0,0.0,0.0
1470068812538699098,0.0,-0.00208072462188,0.0,0.0,0.0,0.0
1470068812616518205,0.0,-0.00201299586402,0.0,0.0,0.0,0.00322112168896
1470068812690652530,0.0,-0.00193584510194,0.0,0.0,0.0,0.0
1470068812762071905,0.0,-0.00187745341168,0.0,0.0,0.0,0.0
1470068812834576558,0.0,-0.00181616717087,0.0,0.0,0.0,0.0
1470068812907558996,0.0,-0.00175867849098,0.0,0.0,0.0,0.0
1470068812989845332,0.0,-0.00167391360806,0.0,0.0,0.0,0.0
1470068813065663713,0.0,-0.00162045904504,0.0,0.0,0.0,0.0
1470068813149086207,0.0,-0.00156087600694,0.0,0.0,0.0,0.0
1470068813226387533,0.0,-0.00150164500879,0.0,0.0,0.0,0.0
1470068813310916116,0.0,-0.00145462104188,0.0,0.0,0.0,0.0
1470068813394624539,0.0,-0.00136348069714,0.0,0.0,0.0,0.0
1470068813470787026,0.0,-0.00131304138408,0.0,0.0,0.0,0.0
1470068813543679083,0.0,-0.00124943987535,0.0,0.0,0.0,0.0
1470068813612731209,0.0,-0.00120382220553,0.0,0.0,0.0,0.0
1470068813683946526,0.0,-0.00115014598773,0.0,0.0,0.0,0.0
1470068813759059247,0.0,-0.00108960555003,0.0,0.0,0.0,0.0
1470068813831063463,0.0,-0.0010476192932,0.0,0.0,0.0,0.0
1470068813907288184,0.0,-0.000999672571881,0.0,0.0,0.0,0.0
1470068813982337493,0.0,-0.000954021374448,0.0,0.0,0.0,0.0
1470068814059163465,0.0,-0.000904199341996,0.0,0.0,0.0,0.0
1470068814132329181,0.0,-0.000873959670527,0.0,0.0,0.0,0.0
1470068814209817488,0.0,-0.000830472121699,0.0,0.0,0.0,0.0
1470068814284632584,0.0,-0.000805290649398,0.0,0.0,0.0,0.0
1470068814361484991,0.006,0.0,0.0,0.0,0.0,0.0
1470068814438741847,0.006,0.0,0.0,0.0,0.0,0.0
1470068814511417438,0.006,0.0,0.0,0.0,0.0,0.0
1470068814585794045,0.006,0.0,0.0,0.0,0.0,0.0
1470068814670746677,0.006,0.0,0.0,0.0,0.0,0.0
1470068814747488606,0.006,0.0,0.0,0.0,0.0,0.0
1470068814823207537,0.006,0.0,0.0,0.0,0.0,0.0
1470068814901186699,0.006,0.0,0.0,0.0,0.0,0.0
1470068814975594517,0.006,0.0,0.0,0.0,0.0,0.0
1470068815060382826,0.006,0.0,0.0,0.0,0.0,0.0
1470068815137366893,0.006,0.0,0.0,0.0,0.0,0.0
1470068815211636120,0.006,0.0,0.0,0.0,0.0,0.0
1470068815291103411,0.006,0.0,0.0,0.0,0.0,0.0
1470068815364202328,0.006,0.0,0.0,0.0,0.0,0.0
1470068815437328124,0.0,0.000819193152027,0.0,0.0,0.0,0.0
1470068815511703532,0.0,0.000858907540576,0.0,0.0,0.0,0.0
1470068815586858455,0.0,0.000899869715111,0.0,0.0,0.0,0.0
1470068815661416204,0.0,0.000901281786398,0.0,0.0,0.0,0.0
1470068815749258830,0.0,0.000916682509021,0.0,0.0,0.0,0.0
1470068815821704012,0.0,0.000921888602213,0.0,0.0,0.0,0.0
1470068815902157179,0.0,0.000931989913122,0.0,0.0,0.0,0.0
1470068815976332923,0.0,0.000924838100807,0.0,0.0,0.0,0.00305607721623
1470068816047927640,0.0,0.000934017216103,0.0,0.0,0.0,0.0
1470068816120126156,0.0,0.000995213118629,0.0,0.0,0.0,0.0
1470068816194585937,0.0,0.0010657164727,0.0,0.0,0.0,0.0
1470068816270064413,0.0,0.00118628642453,0.0,0.0,0.0,0.0
1470068816346497889,0.0,0.00124341449632,0.0,0.0,0.0,0.0
1470068816422469770,0.0,0.00109383626773,0.0,0.0,0.0,0.0
1470068816496735872,0.0,0.00104669700308,0.0,0.0,0.0,0.0
1470068816574316145,0.0,0.00104224267347,0.0,0.0,0.0,0.0
1470068816647117537,0.0,0.00106443329646,0.0,0.0,0.0,0.0
1470068816717260264,0.0,0.00101599763079,0.0,0.0,0.0,0.00466161189571
1470068816788061799,0.0,0.000998135236339,0.0,0.0,0.0,0.0
1470068816862697777,0.0,0.000968250398771,0.0,0.0,0.0,0.0
1470068816938774077,0.0,0.000950794433491,0.0,0.0,0.0,0.0
1470068817007810407,0.0,0.000920566310422,0.0,0.0,0.0,0.0
1470068817079844237,0.0,0.000903959711329,0.0,0.0,0.0,0.0
1470068817151716714,0.0,0.000876354378895,0.0,0.0,0.0,0.0
1470068817222827706,0.0,0.000832364660935,0.0,0.0,0.0,0.0
1470068817298300739,0.006,0.0,0.0,0.0,0.0,0.0
1470068817379343484,0.006,0.0,0.0,0.0,0.0,0.0
1470068817454495019,0.006,0.0,0.0,0.0,0.0,0.0
1470068817532456615,0.006,0.0,0.0,0.0,0.0,0.0
1470068817605378127,0.006,0.0,0.0,0.0,0.0,0.0
1470068817682319987,0.006,0.0,0.0,0.0,0.0,0.0
1470068817759635240,0.006,0.0,0.0,0.0,0.0,0.0
1470068817835529746,0.006,0.0,0.0,0.0,0.0,0.0
1470068817915980678,0.006,0.0,0.0,0.0,0.0,0.0
1470068817990952731,0.0,0.0,0.0,0.0,0.0,0.00373647973173
1470068818070688589,0.006,0.0,0.0,0.0,0.0,0.0
1470068818151085361,0.006,0.0,0.0,0.0,0.0,0.0
1470068818227787005,0.0,0.0,0.0,0.0,0.0,0.0029866795981
1470068818304007259,0.006,0.0,0.0,0.0,0.0,0.0
1470068818377833941,0.006,0.0,0.0,0.0,0.0,0.0
1470068818459277890,0.0,0.0,0.0,0.0,0.0,0.00387023324008
1470068818533555530,0.006,0.0,0.0,0.0,0.0,0.0
1470068818610607451,0.0,0.0,0.0,0.0,0.0,0.00331062328553
1470068818696346200,0.0,0.0,0.0,0.0,0.0,0.00335800911172
1470068818772196146,0.006,0.0,0.0,0.0,0.0,0.0
1470068818849381593,0.006,0.0,0.0,0.0,0.0,0.0
1470068818924059287,0.0,0.0,0.0,0.0,0.0,0.00317826149878
1470068819000188438,0.006,0.0,0.0,0.0,0.0,0.0
1470068819073069850,0.006,0.0,0.0,0.0,0.0,0.0
1470068819147279696,0.0,0.0,0.0,0.0,0.0,0.00345760116711
1470068819221279368,0.006,0.0,0.0,0.0,0.0,0.0
1470068819295674443,0.006,0.0,0.0,0.0,0.0,0.0
1470068819374258291,0.006,0.0,0.0,0.0,0.0,0.0
1470068819446757163,0.006,0.0,0.0,0.0,0.0,0.0
1470068819529908763,0.0,0.0,0.0,0.0,0.0,0.00338917190756
1470068819607987651,0.006,0.0,0.0,0.0,0.0,0.0
1470068819696547317,0.006,0.0,0.0,0.0,0.0,0.0
1470068819774299535,0.006,0.0,0.0,0.0,0.0,0.0
1470068819861795931,0.006,0.0,0.0,0.0,0.0,0.0
1470068819939113791,0.006,0.0,0.0,0.0,0.0,0.0
1470068820011445101,0.006,0.0,0.0,0.0,0.0,0.0
1470068820082714072,0.006,0.0,0.0,0.0,0.0,0.0
1470068820153000836,0.006,0.0,0.0,0.0,0.0,0.0
1470068820226565044,0.006,0.0,0.0,0.0,0.0,0.0
1470068820302894687,0.0,0.0,0.0,0.0,0.0,0.00349414056654
1470068820379250695,0.0,0.0,0.0,0.0,0.0,0.00386696947821
1470068820453440033,0.006,0.0,0.0,0.0,0.0,0.0
1470068820529518362,0.0,0.0,0.0,0.0,0.0,0.00335207703726
1470068820603985757,0.006,0.0,0.0,0.0,0.0,0.0
1470068820679843221,0.006,0.0,0.0,0.0,0.0,0.0
1470068820753652745,0.006,0.0,0.0,0.0,0.0,0.0
1470068820830269470,0.006,0.0,0.0,0.0,0.0,0.0
1470068820905678824,0.0,0.0,0.0,0.0,0.0,0.00305303733936
1470068820978525073,0.006,0.0,0.0,0.0,0.0,0.0
1470068821051380541,0.006,0.0,0.0,0.0,0.0,0.0
1470068821124814705,0.006,0.0,0.0,0.0,0.0,0.0
1470068821200970132,0.006,0.0,0.0,0.0,0.0,0.0
1470068821279781926,0.006,0.0,0.0,0.0,0.0,0.0
1470068821354061195,0.006,0.0,0.0,0.0,0.0,0.0
1470068821425635103,0.006,0.0,0.0,0.0,0.0,0.0
1470068821497046362,0.006,0.0,0.0,0.0,0.0,0.0
1470068821569253441,0.0,-0.00081092664109,0.0,0.0,0.0,0.0
1470068821642542952,0.0,-0.000833486999138,0.0,0.0,0.0,0.00306025495103
1470068821713282319,0.0,-0.000850784639581,0.0,0.0,0.0,0.0
1470068821786007858,0.0,-0.000867540995343,0.0,0.0,0.0,0.0
1470068821860256473,0.0,-0.000873154635294,0.0,0.0,0.0,0.0
1470068821936957638,0.0,-0.000893171365126,0.0,0.0,0.0,0.0
1470068822010893831,0.0,-0.000903742248877,0.0,0.0,0.0,0.0
1470068822083681379,0.0,-0.00091938474284,0.0,0.0,0.0,0.0
1470068822159192241,0.0,-0.000929703796967,0.0,0.0,0.0,0.0
1470068822229030248,0.0,-0.000948807458146,0.0,0.0,0.0,0.0
1470068822300487174,0.0,-0.00100801722215,0.0,0.0,0.0,0.0
1470068822372362494,0.0,-0.00101671614753,0.0,0.0,0.0,0.0
1470068822449974219,0.0,-0.00103195482002,0.0,0.0,0.0,0.0
1470068822527787365,0.0,-0.000956118340357,0.0,0.0,0.0,0.0
1470068822605259735,0.0,-0.000914182002409,0.0,0.0,0.0,0.0
1470068822681754518,0.0,-0.000919323648079,0.0,0.0,0.0,0.0
1470068822756683346,0.0,-0.000930187339647,0.0,0.0,0.0,0.0
1470068822832534771,0.0,-0.00090866745518,0.0,0.0,0.0,0.0
1470068822908484791,0.0,-0.000888378779157,0.0,0.0,0.0,0.0
1470068822984593579,0.0,-0.000874684239491,0.0,0.0,0.0,0.0
1470068823062923575,0.0,-0.000851229439242,0.0,0.0,0.0,0.0
1470068823137278904,0.0,-0.000829839939936,0.0,0.0,0.0,0.0
1470068823212239978,0.0,-0.000804258371456,0.0,0.0,0.0,0.0
1470068823284862248,0.006,0.0,0.0,0.0,0.0,0.0
1470068823363649320,0.006,0.0,0.0,0.0,0.0,0.0
1470068823436671933,0.006,0.0,0.0,0.0,0.0,0.0
1470068823513076292,0.0,0.0,0.0,0.0,0.0,0.00285536692843
1470068823590104480,0.006,0.0,0.0,0.0,0.0,0.0
1470068823666136311,0.006,0.0,0.0,0.0,0.0,0.0
1470068823740760850,0.006,0.0,0.0,0.0,0.0,0.0
1470068823814118210,0.006,0.0,0.0,0.0,0.0,0.0
1470068823888182039,0.0,0.0,0.0,0.0,0.0,0.00298127935842
1470068823970959031,0.006,0.0,0.0,0.0,0.0,0.0
1470068824045707108,0.006,0.0,0.0,0.0,0.0,0.0
1470068824121619852,0.006,0.0,0.0,0.0,0.0,0.0
1470068824196823597,0.006,0.0,0.0,0.0,0.0,0.0
1470068824267940744,0.006,0.0,0.0,0.0,0.0,0.0
1470068824341476482,0.006,0.0,0.0,0.0,0.0,0.0
1470068824413098010,0.006,0.0,0.0,0.0,0.0,0.0
1470068824484081454,0.0,0.0,0.0,0.0,0.0,0.00397898620434
1470068824560494216,0.006,0.0,0.0,0.0,0.0,0.0
1470068824633136385,0.006,0.0,0.0,0.0,0.0,0.0
1470068824710153091,0.006,0.0,0.0,0.0,0.0,0.0
1470068824782733040,0.006,0.0,0.0,0.0,0.0,0.0
1470068824856790750,0.006,0.0,0.0,0.0,0.0,0.0
1470068824940845761,0.006,0.0,0.0,0.0,0.0,0.0
1470068825019195752,0.006,0.0,0.0,0.0,0.0,0.0
1470068825092848191,0.006,0.0,0.0,0.0,0.0,0.0
1470068825166732329,0.006,0.0,0.0,0.0,0.0,0.0
1470068825246894680,0.006,0.0,0.0,0.0,0.0,0.0
1470068825327032769,0.006,0.0,0.0,0.0,0.0,0.0
1470068825402001072,0.006,0.0,0.0,0.0,0.0,0.0
1470068825477748531,0.006,0.0,0.0,0.0,0.0,0.0
1470068825549455008,0.006,0.0,0.0,0.0,0.0,0.0
1470068825623541551,0.006,0.0,0.0,0.0,0.0,0.0
1470068825696173767,0.006,0.0,0.0,0.0,0.0,0.0
1470068825779188866,0.006,0.0,0.0,0.0,0.0,0.0
1470068825852326241,0.0,0.0,0.0,0.0,0.0,0.00338891283559
1470068825927231518,0.006,0.0,0.0,0.0,0.0,0.0
1470068826003572673,0.006,0.0,0.0,0.0,0.0,0.0
1470068826079447296,0.006,0.0,0.0,0.0,0.0,0.0
1470068826156479576,0.006,0.0,0.0,0.0,0.0,0.0
1470068826232571298,0.0,0.0,0.0,0.0,0.0,0.00367600967387
1470068826307547949,0.006,0.0,0.0,0.0,0.0,0.0
1470068826379767548,0.006,0.0,0.0,0.0,0.0,0.0
1470068826456300567,0.0,0.0,0.0,0.0,0.0,0.00324978605456
1470068826532806058,0.006,0.0,0.0,0.0,0.0,0.0
1470068826607424927,0.0,0.0,0.0,0.0,0.0,0.00328019666659
1470068826680060347,0.0,0.0,0.0,0.0,0.0,0.00362919400475
1470068826753475565,0.0,0.0,0.0,0.0,0.0,0.00400750467459
1470068826830133757,0.0,0.0,0.0,0.0,0.0,0.00350256089564
1470068826905984123,0.006,0.0,0.0,0.0,0.0,0.0
1470068826979345187,0.006,0.0,0.0,0.0,0.0,0.0
1470068827049021864,0.006,0.0,0.0,0.0,0.0,0.0
1470068827123407243,0.006,0.0,0.0,0.0,0.0,0.0
1470068827199560371,0.006,0.0,0.0,0.0,0.0,0.0
1470068827269868739,0.006,0.0,0.0,0.0,0.0,0.0
1470068827340999717,0.006,0.0,0.0,0.0,0.0,0.0
1470068827413843142,0.0,0.0,0.0,0.0,0.0,0.00280112482293
1470068827488119640,0.006,0.0,0.0,0.0,0.0,0.0
1470068827564579793,0.0,0.0,0.0,0.0,0.0,0.00390430567503
1470068827637322799,0.006,0.0,0.0,0.0,0.0,0.0
1470068827711673842,0.006,0.0,0.0,0.0,0.0,0.0
1470068827790217943,0.006,0.0,0.0,0.0,0.0,0.0
1470068827868093625,0.006,0.0,0.0,0.0,0.0,0.0
1470068827940302029,0.006,0.0,0.0,0.0,0.0,0.0
1470068828010900900,0.0,0.0,0.0,0.0,0.0,0.00348723610467
1470068828084087152,0.0,0.0,0.0,0.0,0.0,0.00321841912095
1470068828157467346,0.0,0.0,0.0,0.0,0.0,0.00340788548305
1470068828242555125,0.0,0.0,0.0,0.0,0.0,0.00321264367301
1470068828313121931,0.006,0.0,0.0,0.0,0.0,0.0
1470068828387444835,0.006,0.0,0.0,0.0,0.0,0.0
1470068828458929296,0.0,0.0,0.0,0.0,0.0,0.00324702143555
1470068828531534622,0.006,0.0,0.0,0.0,0.0,0.0
1470068828616690253,0.006,0.0,0.0,0.0,0.0,0.0
1470068828693658826,0.0,0.0,0.0,0.0,0.0,0.00359590564614
1470068828768267423,0.0,0.0,0.0,0.0,0.0,0.00297224766784
1470068828841604309,0.0,0.0,0.0,0.0,0.0,0.00320632914406
1470068828912062316,0.0,0.0,0.0,0.0,0.0,0.00382792904765
1470068828985368717,0.0,0.0,0.0,0.0,0.0,0.00382076699355
1470068829061689963,0.0,0.0,0.0,0.0,0.0,0.00383076386284
1470068829135565808,0.006,0.0,0.0,0.0,0.0,0.0
1470068829208628577,0.006,0.0,0.0,0.0,0.0,0.0
1470068829282107255,0.0,0.0,0.0,0.0,0.0,0.00280446216085
1470068829358438919,0.0,0.0,0.0,0.0,0.0,0.00379640710279
1470068829439486478,0.0,0.0,0.0,0.0,0.0,0.00304012274229
1470068829511748082,0.006,0.0,0.0,0.0,0.0,0.0
1470068829584107359,0.0,0.0,0.0,0.0,0.0,0.00304916671989
1470068829660936648,0.0,0.0,0.0,0.0,0.0,0.00316558137843
1470068829739222177,0.0,0.0,0.0,0.0,0.0,0.0028002519121
1470068829811389394,0.0,0.0,0.0,0.0,0.0,0.00286664515777
1470068829890335194,0.006,0.0,0.0,0.0,0.0,0.0
1470068829964438634,0.006,0.0,0.0,0.0,0.0,0.0
1470068830039341190,0.0,0.0,0.0,0.0,0.0,0.00290098004485
1470068830109609990,0.006,0.0,0.0,0.0,0.0,0.0
1470068830183134826,0.006,0.0,0.0,0.0,0.0,0.0
1470068830259766417,0.006,0.0,0.0,0.0,0.0,0.0
1470068830330088813,0.006,0.0,0.0,0.0,0.0,0.0
1470068830401900619,0.0,0.0,0.0,0.0,0.0,0.00309400216214
1470068830473661652,0.006,0.0,0.0,0.0,0.0,0.0
1470068830543428474,0.0,0.0,0.0,0.0,0.0,0.00376885844029
1470068830616240963,0.006,0.0,0.0,0.0,0.0,0.0
1470068830687155667,0.006,0.0,0.0,0.0,0.0,0.0
1470068830765993070,0.0,0.0,0.0,0.0,0.0,0.00317560324023
1470068830843232114,0.006,0.0,0.0,0.0,0.0,0.0
1470068830916745101,0.006,0.0,0.0,0.0,0.0,0.0
1470068830990411510,0.006,0.0,0.0,0.0,0.0,0.0
1470068831061625251,0.006,0.0,0.0,0.0,0.0,0.0
1470068831131166199,0.006,0.0,0.0,0.0,0.0,0.0
1470068831203689654,0.006,0.0,0.0,0.0,0.0,0.0
1470068831277871177,0.006,0.0,0.0,0.0,0.0,0.0
1470068831350013477,0.006,0.0,0.0,0.0,0.0,0.0
1470068831420922593,0.006,0.0,0.0,0.0,0.0,0.0
1470068831492202232,0.006,0.0,0.0,0.0,0.0,0.0
1470068831564686649,0.006,0.0,0.0,0.0,0.0,0.0
1470068831640296297,0.006,0.0,0.0,0.0,0.0,0.0
1470068831716692034,0.006,0.0,0.0,0.0,0.0,0.0
1470068831790954627,0.006,0.0,0.0,0.0,0.0,0.0
1470068831866111877,0.006,0.0,0.0,0.0,0.0,0.0
1470068831940662750,0.006,0.0,0.0,0.0,0.0,0.0
1470068832014974288,0.006,0.0,0.0,0.0,0.0,0.0
1470068832107329629,0.006,0.0,0.0,0.0,0.0,0.0
